idmonitoreodiario,fechamonitoreo,clavesih,nombreoficial,nombrecomun,estado,nommunicipio,regioncna,latitud,longitud,uso,corriente,tipovertedor,inicioop,elevcorona,bordolibre,nameelev,namealmac,namoelev,namoalmac,alturacortina,elevacionactual,almacenaactual,llenano
1492334,2015-02-01,EGLGR,"El Gallo, Gro.",El Gallo,Guerrero,Cutzamala de Pinzón,Balsas,18.703056,-100.671111,Riego,Río Cutzamala,Libre,1998,370.5,2.5,368,545.966003417969,362.779998779297,400.039001464844,67.5,362.42,391.194,0.977889652177774
1492361,2015-02-01,FIMCH,"Francisco I. Madero, Chih.",Las Vírgenes,Chihuahua,Rosales,Río Bravo,28.166111,-105.628889,Riego,Río San Pedro,Libre,1949,1243.8,1.23994,1242.56005859375,477.622009277344,1239.30004882812,355.286010742188,57,1239.27,354.235,0.997041789683776
1492347,2015-02-01,MALCP,"Nezahualcóyotl, Chis.","Malpaso, Raudales de Malpaso",Chiapas,Tecpatán,Frontera Sur,17.178611,-93.598889,Riego y Generación de Energia,Río Grijalva,Contr,1964,192,4,188,14056,182.5,12373.099609375,137.5,179.36,11445.1,0.924998614844104
1492348,2015-02-01,MLPMC,"Malpaís, Mich.",La Cienega,Michoacán de Ocampo,Queréndaro,Lerma-Santiago-Pacífico,19.829167,-100.873611,Riego,Río Queréndaro,Libre,1938,1830.96,1,1843.56,27.249,1842.530029,18.512,6.1,1828.39,22.857,1.23471261884183
1492349,2015-02-01,MNLAG,"Media Luna, Ags.",Media Luna,Aguascalientes,Calvillo,Lerma-Santiago-Pacífico,21.8075,-102.788333,Riego,Río Calvillo,Libre,1976,1624.1,2.14004,1621.9599609375,21.1959991455078,1619.19995117188,15,22.24,1616.47,10.502,0.700133333333333
1492350,2015-02-01,MOCMC,"Melchor Ocampo, Mich.",El Rosario,Michoacán de Ocampo,Angamacutiro,Lerma-Santiago-Pacífico,20.127222,-101.724444,Riego,Río Angulo,Libre,1975,1716.5,2.08997,1714.41003417969,249.843002319336,1711.90002441406,194.453994750977,29.5,1711,181.958,0.935738040419384
1492351,2015-02-01,MRGTP,"Marte R. Gómez, Tamps.",El Azucar,Tamaulipas,Camargo,Río Bravo,26.204722,-98.925556,Riego,Río San Juan,Libre,1946,86,3,83,2208.65991210938,76.3000030517578,781.700012207031,49,77.33,941.836,1.20485606408121
1492352,2015-02-01,NEXPB,"Nexapa, Pue.",Nexapa,Puebla,Huauchinango,Golfo Centro,20.168333,-97.984722,Generación de Energia,Río Nexapa,Libre,1912,1364,1,1363,16,1360,12.5,44,1356.52,8.091,0.64728
1492353,2015-02-01,NGRAG,"El Niagara, Ags.",El Niagara,Aguascalientes,Aguascalientes,Lerma-Santiago-Pacífico,21.78,-102.371667,Riego,Río Aguascalientes,Libre,1963,1833,0.599976,1832.40002441406,31.6949996948242,1828.40002441406,16.1879997253418,31.5,1828.01,15.065,0.930627641191285
1492354,2015-02-01,NNEPB,"Necaxa, Pue.",Necaxa,Puebla,Juan Galindo,Golfo Centro,20.216667,-98.000556,Generación de Energia,Río Necaxa,Libre,1908,1344,1,1344,43,1338,29.0550003051758,59,1330.68,16.384,0.563896053275257
1492355,2015-02-01,EPOSL,"El Potosino, S.L.P.",El Potosino,San Luis Potosí,San Luis Potosí,Cuencas Centrales del Norte,22.099722,-101.078056,Uso Público Urbano,Río Santiago,Libre,1990,2000.85,0.150024,2000.84997558594,5.19899988174438,1996.80004882812,3.29299998283386,26,1994.04,2.279,0.692074100176204
1492356,2015-02-01,ERCTP,"Estudiante Ramiro Caballero Dorantes, Tamps.",Las Ánimas,Tamaulipas,El Mante,Golfo Norte,22.605,-98.691667, Riego,Arrollo Las Ánimas,Libre,1976,55,2.45,52.5499992370605,654.37,51.7000007629395,563.443,31.2,50.21,439.815,0.780584726405333
1492357,2015-02-01,ERECH,"El Rejón, Chih.",El Rejón,Chihuahua,Chihuahua,Río Bravo,28.614722,-106.119444,Riego,Arroyo El Rejón,Libre,1966,1479.8,1.48005,1478.31994628906,7.75500011444092,1477,6.528,10,1476.81,6.368,0.975490196078431
1492358,2015-02-01,ESLJL,"El Salto, Jal.",El Salto,Jalisco,Valle de Guadalupe,Lerma-Santiago-Pacífico,21.037222,-102.705,Uso Público Urbano,Río Valle de Guadalupe,Libre,1940,1814.5,2,1812.5,112,1810.16003417969,85,42,1809.6,79.823,0.939094117647059
1492359,2015-02-01,ESTJL,"El Estribón, Jal.",El Estribón,Jalisco,Yahualica de González Gallo,Lerma-Santiago-Pacífico,21.185556,-102.900556,Riego,Río Yahualica,Libre,1946,1882.5,1.08997,1881.41003417969,7.73999977111816,1880,6.37799978256226,29,1875.87,3.572,0.560050191560999
1492360,2015-02-01,EXCZC,"Miguel Alemán, Zac.",Excamé,Zacatecas,Tepechitlán,Lerma-Santiago-Pacífico,21.645833,-103.35,Riego y Generación de Energia,Río Tlaltenango,Contr,1949,1707,2.5,1704.5,70.9199981689453,1703.47998046875,64.9800033569336,47.5,1700.22,47.908,0.737272968990822
1492362,2015-02-01,CILAFLCMX,"Internacional Falcón, Tamps.",Falcón,Tamaulipas,Guerrero,Río Bravo,26.560278,-99.170556,Riego y Generación de Energia,Río Bravo,Contr,1953,98.45,2.68,95.7699966430664,4862.2099609375,91.805,3264.813,48.45,83.76,1204.94,0.36906861128034
1492363,2015-02-01,FVLDR,"Francisco Villa, Dgo.",El Bosque,Durango,Poanas,Pacífico Norte,24.001667,-103.960833,Riego,Río Poanas,Libre,1968,1998.7,2.57,1996.13000488281,96.5699996948242,1993,73.2600021362305,58.7,1992.87,77.881,1.06307668207785
1492364,2015-02-01,FZRDR,"Francisco Zarco, Dgo.",Las Tortolas,Durango,Cuencamé,Cuencas Centrales del Norte,25.270833,-103.773611,Riego,Nazas,Contr,1968,1213,2.94995,1210.05004882812,383.160003662109,1208.19995117188,309.239990234375,39.5,1202.83,148.328,0.479653358828466
1492365,2015-02-01,GBESI,"Ing. Guillermo Blake Aguilar, Sin.",El Sabinal o El Cajón,Sinaloa,Sinaloa,Pacífico Norte,26.103056,-108.3275,Riego,Arroyo Ocoroni,Libre,1985,201.2,4.59,196.610000610352,468.623992919922,188.449996948242,294.019989013672,81.2,180.37,170.26,0.579076274953819
1492366,2015-02-01,GDLMX,"Sierra de Guadalupe, Méx.",Guadalupe,Estado de México,Tultitlán,Aguas del Valle de México,19.635556,-99.252222,Riego,Río Cuautitlán,Libre,1936,2308.75,1.92993,2306.82006835938,63.9000015258789,2305.19995117188,56.7000007629395,467,2303.58,50.252,0.886278647686474
1492367,2015-02-01,GDOSI,"Gustavo Díaz Ordaz, Sin.",Bacurato,Sinaloa,Sinaloa,Pacífico Norte,25.856667,-107.911111,Riego y Generación de Energia,Río Sinaloa,Contr,1981,256,3.5,252.5,2687.074,237.06,1618.8,116,223.1,907.64,0.560686928589078
1492368,2015-02-01,ABRAG,"Abelardo L. Rodríguez., Ags.",Abelardo L. Rodríguez,Aguascalientes,Jesús María,Lerma-Santiago-Pacífico,21.916944,-102.427778,Uso Público Urbano,Río Morcinique,Libre,1934,1890.2,1.47,1890,18.8400001525879,1888.90002441406,15.9899997711182,25,1883.29,5.958,0.372607885258485
1492369,2015-02-01,ACHZC,"Achimec, Jal.",Vaqueros,Jalisco,Huejúcar,Lerma-Santiago-Pacífico,22.327222,-103.225278,Riego,Río Tepetongo,Libre,1969,1846.3,2.02998,1844.27001953125,12.2119998931885,1841.5,7.36399984359741,28.5,1838.35,3.444,0.467680618297998
1492370,2015-02-01,AFIGR,"Andrés Figueroa, Gro.",Las Garzas,Guerrero,Ajuchitlán del Progreso,Balsas,18.075833,-100.5175,Riego,Río Ajuchitlán,Libre,1984,385,2.39001,382.609985351562,123.099998474121,377,102.5,72.5,375.87,97.53,0.951512195121951
1492371,2015-02-01,AGMNR,"Aguamilpa Solidaridad, Nay.",Aguamilpa,Nayarit,Tepic,Lerma-Santiago-Pacífico,21.839167,-104.802222,Riego y Generación de Energia,Río Santiago,Contr,1993,235,3,232,6950,220,5540,187,211.45,4645,0.838447653429603
1492372,2015-02-01,AGOMC,"Agostitlán, Mich.",Mata De Pinos,Michoacán de Ocampo,Hidalgo,Balsas,19.579722,-100.608889,Riego,Río Agostitlán,Libre,1955,2379,1.16,2377.84,18.754,2376.6,15.675,25,2481.82,16.01,1.0213716108453
1492373,2015-02-01,AGZCH,"Abraham González, Chih.",Guadalupe,Chihuahua,Guerrero,Noroeste,28.481667,-107.482778, Riego,Papigochi,Libre,1961,2052.9,1.59995,2051.30004882812,102.891,2047.80004882812,79.354,30,2047.29,82.227,1.03620485419765
1492399,2015-02-01,BTEZC,"Ramón López Velarde, Zac.",Boca del Tesorero,Zacatecas,Jerez,Lerma-Santiago-Pacífico,22.824167,-102.953333,Riego,Río Boca del Tesorero,Libre,1975,2100.5,2.34009,2098.15991210938,36.7439994812012,2096,26.2199993133545,28.8,2094.94,21.811,0.83184594092995
1492400,2015-02-01,CBRDR,"Caboraca, Dgo.",Canoas,Durango,Canatlán,Pacífico Norte,24.538333,-104.810278,Riego,Río La Sauceda,Libre,1992,2003.75,2.46997,2001.28002929688,57.8800010681152,1998.25,45,37,1998.11,44.297,0.984377777777778
1492401,2015-02-01,CCHNL,"Cuchillo Solidaridad, N.L.",El Cuchillo,Nuevo León,China,Río Bravo,25.711667,-99.276944,Riego y Uso Público Urbano,Río San Juan,Contr,1994,169.2,3,166.660003662109,1784.2900390625,162.350006103516,1123.14294433594,44,164.04,1351.84,1.2036223944756
1492402,2015-02-01,CDOOX,"Miguel de la Madrid Hurtado, Oax.",Cerro de Oro,Oaxaca,San Lucas Ojitlán,Golfo Centro,17.999167,-96.263611,Generación de Energia,Río Papaloapan,Contr,1988,75.6,2.8,72.8000030517578,3550,64.8600006103516,2599.51000976562,70,62.07,2148.25,0.826405742593655
1492403,2015-02-01,CDRAG,"La Codorniz, Ags.",La Codorniz,Aguascalientes,Calvillo,Lerma-Santiago-Pacífico,21.9975,-102.676944,Riego,Río de La Labor,Libre,1966,1840,2.23999,1837.76000976562,6.52799987792969,1836,5.36600017547607,36,1833.85,4.166,0.776369709982425
1492404,2015-02-01,CHICP,"Manuel Moreno Torres, Chis.",Chicoasén,Chiapas,Chicoasén,Frontera Sur,16.941667,-93.100556,Generación de Energia,Río Grijalva,Contr,1980,405,7,395,1443.08996582031,392.5,1384.85998535156,265,391.51,1363.08,0.984272788887005
1492405,2015-02-01,CHIZC,"El Chique, Zac.",El Chique,Zacatecas,Tabasco,Lerma-Santiago-Pacífico,21.997222,-102.896111,Riego,Río Juchipila,Libre,1958,1588.48,2.00002,1586.47998046875,192.567001342773,1580.18005371094,138.908996582031,61,1571.51,80.322,0.578234685847483
1492406,2015-02-01,CHLJL,"Chila, Jal.",Chila,Jalisco,Zapotlán del Rey,Lerma-Santiago-Pacífico,20.489722,-102.944167,Riego,Arroyo Chila,Libre,1945,1525.88,1,99,1,98.7,0.762,10,98.23,0.669,0.877952755905512
1492407,2015-02-01,CHLMC,"Constitución de Apatzingán, Mich.",Chilatan,Jalisco,Apatzingán,Balsas,19.287778,-102.774167,Riego y Generación de Energia,Río Tepalcatepec,Libre,1990,440,2.32001,437.679992675781,807.150024414062,429.450012207031,590.025024414062,107,425.34,512.896,0.869278384436902
1492408,2015-02-01,CHTSO,"Cuauhtémoc, Son.",Santa Teresa,Sonora,Atil,Noroeste,30.873333,-111.516389, Riego,Atil,Libre,1950,603,2.75,600.25,66.3300018310547,597,41.4700012207031,57.2,594.45,27.452,0.661972490762675
1492409,2015-02-01,TEPMC,"Tepuxtepec, Mich.",Tepuxtepec,Michoacán de Ocampo,Contepec,Lerma-Santiago-Pacífico,20.000278,-100.229167,Riego y Generación de Energia,Río Lerma,Contr,1930,2352,2,2350,537.527,2347.56,425.2,47,2345.33,336.007,0.790232831608655
1492410,2015-02-01,TIESL,"La Muñeca, S.L.P.",La Muñeca,San Luis Potosí,Tierra Nueva,Golfo Norte,21.629444,-100.548333,Riego,Santa María,Libre,1981,1843.75,2,1841.75,31,1837.69995117188,25,40.5,1834,16.26,0.6504
1492411,2015-02-01,TMLJL,"Ramón Corona Madrigal General, Jal.",Trigomil,Jalisco,Ayutla,Lerma-Santiago-Pacífico,19.976111,-104.370278,Riego,Río Ayuquila,Libre,1993,1209.34,2.94001,1209.35998535156,324,1201.40002441406,250,107,1197.76,220.098,0.880392
1492412,2015-02-01,TMUMC,"Tercer Mundo, Mich.",Chincua,Michoacán de Ocampo,Senguio,Lerma-Santiago-Pacífico,19.766389,-100.299167,Riego,Río chincua,Libre,1972,2431.2,2.41992,2428.580078125,17.3320007324219,2427.580078125,14.9720001220703,30,2427.18,12.904,0.861875493908001
1492413,2015-02-01,TNTCH,"El Tintero, Chih.",El Tintero,Chihuahua,Namiquipa,Río Bravo,29.5625,-107.384167,Riego,Río Santa María,Libre,1950,1712,2.96997,1709.03002929688,216.703002929688,1703,125.074996948242,56,1702.75,122.044,0.975766563884095
1492414,2015-02-01,TPTMX,"San Andrés Tepetitlán, Méx.",Tepetitlán,Estado de México,San Felipe del Progreso,Lerma-Santiago-Pacífico,19.660833,-99.961389,Riego,Río Jaltepec,Libre,1964,2597.38,2.92004,2594.4599609375,81.0289993286133,2592.02001953125,59.9659996032715,35,2592.03,67.703,1.12902312056692
1492415,2015-02-01,TRJCM,"Solidaridad, Col.",Trojes,Jalisco,Armería,Lerma-Santiago-Pacífico,18.967222,-103.396667,Riego y Generación de Energia,Río Barreras,Libre,1994,303.6,2.49001,301.109985351562,294.079986572266,292.369995117188,220.807006835938,87,291.34,212.826,0.963855282718145
1492416,2015-02-01,TULJL,"El Tule, Jal.",El Tule,Jalisco,Arandas,Lerma-Santiago-Pacífico,20.7425,-102.433056,Riego,Río Zula,Libre,1990,1861.08,2.23002,1858.84997558594,42,1856.55004882812,30,15.5,1852.27,10.899,0.3633
1492417,2015-02-01,TXMHD,"Taxhimay, Hgo.",Taxhimay,Estado de México,Tepeji del Río de Ocampo,Aguas del Valle de México,19.835278,-99.385,Riego y Uso Público Urbano,Río San Luis de las Peras,Libre,1912,2217.05,7.05,2210,53.3,2208,42.749,39,2208.01,42.79,1.00095908676226
1492418,2015-02-01,UREMC,"Urepetiro, Mich.",Urepetiro,Michoacán de Ocampo,Tlazazalca,Lerma-Santiago-Pacífico,19.962222,-102.137778,Riego,Río tlazazalca,Libre,1964,1752.5,1.5,1745.68005371094,10.9200000762939,1745,8.2819995880127,31,1746.98,10.7,1.29195852840745
1492419,2015-02-01,VBRMX,"Valle de Bravo, Méx.",Valle de Bravo,Estado de México,Valle de Bravo,Balsas,19.2075,-100.18,Generación de Energia y Uso Público Urbano,Río Valle de Bravo,Libre,1947,1835.37,2.5,1785.60998535156,450.75,1782.60998535156,393.440002441406,48,1829.5,383.925,0.97581587438399
1492420,2015-02-01,VCRCL,"Venustiano Carranza, Coah.",Don Martín,Coahuila de Zaragoza,Juárez,Río Bravo,27.515,-100.616111,Riego,Río Salado,Contr,1932,265.8,4.00001,261.799987792969,1322.36999511719,259.24,874.1,35,258.98,832.914,0.95288182130191
1492421,2015-02-01,VCVJL,"Vicente C. Villaseñor, Jal.",Valle de Juárez,Jalisco,Valle de Juárez,Lerma-Santiago-Pacífico,19.939722,-102.941667,Riego,Río Quitupán,Libre,1950,1880,2,1878,18.1200008392334,1877,14.4399995803833,18,1876.91,14.11,0.977146842799663
1492422,2015-02-01,JLPSI,"José López Portillo, Sin.",El Comedero,Sinaloa,Cosalá,Pacífico Norte,24.571667,-106.807222,Riego y Generación de Energia,Río San lorenzo,Contr,1981,290,4.54999,286.950012207031,3966.169921875,272.160003662109,2580.18994140625,135.5,254.91,1425.66,0.552540716914426
1492423,2015-02-01,JORSI,"Josefa Ortiz de Domínguez, Sin.",El Sabino,Sinaloa,El Fuerte,Pacífico Norte,26.426944,-108.7025,Riego,Río Alamos,Contr,1967,113.5,2.93,112.650001525879,695.44,109.5,518.928,44,111.72,638.19,1.22982379058366
1492424,2015-02-01,JSBCP,"Juan Sabines, Chis.",El Portillo II o Cuxtepeques,Chiapas,La Concordia,Frontera Sur,15.996389,-92.898611,Riego,Río Cuxtepeques,Libre,1981,620.25,1.97998,618.27001953125,116.110000610352,612.119995117188,68.1500015258789,46,612.09,67.965,0.997285377524039
1492451,2015-02-01,PECAG,"Plutarco Elías Calles, Ags.",Calles,Aguascalientes,San José de Gracia,Lerma-Santiago-Pacífico,22.141111,-102.417222,Riego,Río Santiago,Libre,1931,2022.6,0.6,2022,407.438,2020,358.121,67,2007.31,123.03,0.343543104146364
1492452,2015-02-01,PECSO,"Plutarco Elías Calles, Son.",El Novillo,Sonora,Bacanora,Noroeste,28.976667,-109.642222,Riego y Generación de Energia,Río Yaqui,Contr,1964,297.8,1.00001,296.799987792969,3443.5,290.5,2833.07006835938,133.8,286.17,2407.84,0.849904853004351
1492453,2015-02-01,PENCP,"Ángel Albino Corzo, Chis.",Peñitas,Chiapas,Tecpatán,Frontera Sur,17.446111,-93.458611,Generación de Energia,Río Grijalva,Contr,1986,98,5,93,1448.43,87.4000015258789,1091.09997558594,53,86,1015.19,0.930428029250782
1492454,2015-02-01,PERHD,"La Esperanza, Hgo.",La Esperanza,Hidalgo,Cuautepec de Hinojosa,Golfo Norte,20.0575,-98.334722,Riego,San Lorenzo,Libre,1943,2210.6,0.999902,2209.60009765625,4.19999980926514,2207.69995117188,3.92000007629395,27,2208.2,4.162,1.06173467321328
1492455,2015-02-01,PFBMX,"Francisco José Trinidad Fabela, Méx.",Isla de las Aves o El Salto,Estado de México,Atlacomulco,Lerma-Santiago-Pacífico,19.829167,-99.790278,Riego,Río Del Salto,Libre,1945,2697.5,1.69995,2697.80004882812,10,2696.69995117188,9.93000030517578,19.15,2694.37,5.87,0.591137947593053
1492456,2015-02-01,PIRMX,"Ignacio Ramírez, Méx.",La Gavia,Estado de México,Almoloya de Juárez,Lerma-Santiago-Pacífico,19.461667,-99.775,Riego,Río La Gavia,Libre,1965,2553.76,3.28002,2550.47998046875,36.2999992370605,2548.47998046875,20.5,23.5,2548.5,20.635,1.00658536585366
1492457,2015-02-01,PJMTP,"Pedro José Méndez, Tamps.",Pedro José Méndez,Tamaulipas,Hidalgo,Golfo Norte,24.2475,-99.555833,Riego,A. San Juan y Tranquitas,Libre,1982,453,3.60001,449.399993896484,38.3600006103516,447.220001220703,31.2600002288818,55,447.62,32.46,1.03838770832796
1492458,2015-02-01,PLYJL,"Ing. Alfredo Elías Ayub, Jal.",La Yesca,Nayarit,Hostotipaquillo,Lerma-Santiago-Pacífico,21.196944,-104.105833,Generación de Energia,Río Santiago,Contr,2012,579,1,578,2392.88989257812,575,2292.919921875,208.5,551.72,1622.22,0.707490909090909
1492459,2015-02-01,PMDMX,"Madín, Méx.",Madín,Estado de México,Naucalpan de Juárez,Aguas del Valle de México,19.526944,-99.260833,Uso Público Urbano,Río Tlanepantla,Contr,1959,2348.5,2.46,2346.04,17.964,2336.294,9.37,73,2335.26,15.073,1.60864461045891
1492460,2015-02-01,PMHSI,"Miguel Hidalgo, Sin.",El Mahone,Sinaloa,El Fuerte,Pacífico Norte,26.509722,-108.58,Riego y Generación de Energia,Río Fuerte,Mixto,1956,151.4,3.4,148,4171.273,142.36,3312.889,81,134.8,2205.31,0.665675789318628
1492461,2015-02-01,PMNMX,"El Molino, Méx.",Molinitos,Estado de México,Naucalpan de Juárez,Aguas del Valle de México,20.124167,-99.739722,Riego,Zarco y El Posal,Libre,1980,2491,0,2385.09008789062,8.69999980926514,2384.38989257812,7.69000005722046,12,2383.17,5.917,0.769440826524349
1492462,2015-02-01,PMOSO,"Ing. Rodolfo Félix Valdés, Son.",El Molinito,Sonora,Hermosillo,Noroeste,29.2125,-110.725556,Riego,Rio Sonora,Libre,1991,295.4,2.00001,293.399993896484,233.919998168945,289.359985351562,130.039993286133,31.4,286.66,82.991,0.638195972660435
1492463,2015-02-01,PNDMX,"Ñadó, Méx.",Ñado,Estado de México,Aculco,Aguas del Valle de México,20.038611,-99.864444, Riego,Ñadó,Libre,1980,2477.5,2,2475.5,18.5,2474,16.7999992370605,52.5,2472.37,14.755,0.878273849408915
1492464,2015-02-01,PNLGJ,"Peñuelitas, Gto.",Peñuelitas,Guanajuato,Dolores Hidalgo Cuna de la Independencia Nacional,Lerma-Santiago-Pacífico,21.105,-100.878333,Riego,Río de la Erre,Libre,1960,1908.2,0.91,1907.29,30.169,1904.7,17.46,28,1903.86,20.554,1.17720504009164
1492465,2015-02-01,POLJL,"Ing. Guillermo Lugo Sanabria, Jal.",La Pólvora,Jalisco,Degollado,Lerma-Santiago-Pacífico,20.491111,-102.231944,Riego,Río Huáscato,Libre,1989,1669.1,4.1,1665,55,1663.46,51.675,59.1,1661.45,46.975,0.909046927914853
1492466,2015-02-01,PRGHD,"Javier Rojo Gómez, Hgo.",La Peña,Hidalgo,Alfajayucan,Aguas del Valle de México,20.359722,-99.329444,Riego,Río Alfajayucan,Contr,1979,1980.96,1.3,1975.7,52.8,1974,46,60,1974.91,49.64,1.07913043478261
1492467,2015-02-01,PRQHD,"Requena, Hgo.",Requena,Hidalgo,Tepeji del Río de Ocampo,Aguas del Valle de México,19.963056,-99.310833,Riego,Río Tepeji,Mixto,1922,2116.59,1.5,2110.5,60.5299987792969,2108.9599609375,52.423999786377,38,2108.76,51.044,0.973676182817024
1492468,2015-02-01,PRSGJ,"La Purísima, Gto.",La Purísima,Guanajuato,Guanajuato,Lerma-Santiago-Pacífico,20.867222,-101.287778,Riego,Río Guanajuato,Contr,1979,1863,2.20996,1860.7900390625,181.926,1852.06994628906,98.23,52,1849.95,93.006,0.946818690827649
1492469,2015-02-01,PSANL,"Salinillas, N.L.",Salinillas,Nuevo León,Anáhuac,Río Bravo,27.429167,-100.372222,Riego,Río Salado,Libre,1930,0,0,232,19.0109996795654,232,19.0109996795654,10,230.86,13.782,0.724948726121647
1492470,2015-02-01,PTRAG,"Derivadora Pabellón, Ags.",Der. Potrerillos,Aguascalientes,San José de Gracia,Lerma-Santiago-Pacífico,22.235,-102.4375,Riego,Río San Pedro,Libre,1931,2099.86,0,2093,2.09999990463257,2092.60009765625,2.03800010681152,33.94,2086.26,1.201,0.589303207583723
1492471,2015-02-01,PUCMC,"Pucuato, Mich.",Pucuato,Michoacán de Ocampo,Hidalgo,Balsas,19.621389,-100.684167,Riego,Río Pucuato,Libre,1946,2501.25,1.25,2500,11.534,2499,9.485,15,2480.51,9.604,1.01254612546125
1492472,2015-02-01,PVAHD,"Vicente Aguirre, Hgo.",Las Golondrinas,Hidalgo,Alfajayucan,Aguas del Valle de México,20.435556,-99.375833,Riego,Río Alfajayucan,Libre,1954,1865.9,7.4,1858.5,21.7999992370605,1858.15002441406,20.7999992370605,27,1856,14.2,0.682692332733313
1492473,2015-02-01,REDJL,"La Red, Jal.",La Red,Jalisco,Tepatitlán de Morelos,Lerma-Santiago-Pacífico,20.718889,-102.815278,Riego,Río Calderón,Libre,1968,1796.5,1.80005,1794.69995117188,18.2999992370605,1792.5,14.25,24,1788.75,8.09,0.567719298245614
1492474,2015-02-01,RMEGR,"Revolución Mexicana, Gro.",El Guineo,Guerrero,Ayutla de los Libres,Pacífico Sur,16.823611,-99.166111,Riego,Río Nexpa,Libre,1984,110.7,3.11,107.589996337891,260,94.4000015258789,126.694000244141,70.7,94.26,125.59,0.991286088985957
1492475,2015-02-01,RODMR,"El Rodeo, Mor.",El Rodeo,Morelos,Miacatlán,Balsas,18.765278,-99.331389,Riego,Río Tembembe,Libre,1974,1166.5,2.30005,1166.5,33.1370010375977,1164.19995117188,26.9839992523193,8,1158.09,13.416,0.497183529933832
1492476,2015-02-01,RSPTP,"República Española, Tamps.",Real Viejo o El Sombrero,Tamaulipas,Aldama,Golfo Norte,23.259444,-97.991944,Riego,San Rafael,Libre,1974,92,2.57,89.4300003051758,105.98999786377,83,54.7799987792969,30,83,54.776,0.999927002931983
1492503,2015-02-01,SRSJL,"Santa Rosa, Jal.",Santa Rosa,Jalisco,Amatitán,Lerma-Santiago-Pacífico,20.908889,-103.705556,Riego,Río Santiago,Contr,1964,747,0.5,748,258.468,744,219.09,114,742.06,357.9,1.6335752430508
1492504,2015-02-01,STRZC,"Santa Rosa, Zac.",Santa Rosa,Zacatecas,Fresnillo,Cuencas Centrales del Norte,22.923611,-103.108889,Riego,Arroyo El Arenal,Libre,1937,2250.19,0.550107,2249.63989257812,14.0410003662109,2248.63989257812,10.4759998321533,15,2248.34,9.489,0.905784665142511
1492505,2015-02-01,TAYZC,"Ing. Julián Adame Alatorre, Zac.",Tayahua,Zacatecas,Villanueva,Lerma-Santiago-Pacífico,22.120556,-102.864167,Riego,Río Juchipila,Libre,1976,1701.7,0.289966,1701.41003417969,50.3769989013672,1696.01000976562,31.5979995727539,54.3,1694.73,27.996,0.88600545536244
1492506,2015-02-01,TCTJL,"Tacotán, Jal.",Tacotán,Jalisco,Unión de Tula,Lerma-Santiago-Pacífico,20.036111,-104.320278,Riego y Generación de Energia,Río Ayutla,Libre,1960,1407.5,1.20996,1406.2900390625,169,1403.06005859375,149.238998413086,10,1403.03,149.09,0.99900161208082106
1492507,2015-02-01,TEMOX,"Presidente Alemán, Oax.",Temascal,Oaxaca,San Miguel Soyaltepec,Golfo Centro,18.232222,-96.412222,Generación de Energia,Papaloapan,Contr,1955,74.79,3.5,68.5,9105.5,65.5,8119.10009765625,76,61.85,6035.68,0.743392731633193
1492508,2015-02-01,TENJL,"Tenasco, Jal.",Boquilla de Zaragoza,Jalisco,Santa María de los Ángeles,Lerma-Santiago-Pacífico,22.171944,-103.198611,Riego,Arroyo Tenasco,Libre,1960,1777,0,1724.83996582031,13.8500003814697,1722.84997558594,10.5,33,1716.44,3.722,0.354476190476191
1492509,2015-02-01,TENPB,"Tenango, Pue.",Tenango,Puebla,Huauchinango,Golfo Centro,20.199444,-97.983333,Generación de Energia,Río Acatlán,Libre,1912,1353,2,1362,45.1199989318848,1345.6,28.203,39,1336.89,9.806,0.34769350778286
1492510,2015-02-01,VEGJL,"Ing. Santiago Camarena, Jal.",La Vega,Jalisco,Teuchitlán,Lerma-Santiago-Pacífico,20.596389,-103.845833,Riego,Río salado y Teuchitlán,Libre,1960,1261,2.14001,1258.85998535156,80,1257,44.0349998474121,18,1257.48,54.095,1.22845464261263
1492511,2015-02-01,VGRGR,"Vicente Guerrero, Gro.",Palos Altos,Guerrero,Arcelia,Balsas,18.382778,-100.265833,Riego,Río Poliutla,Libre,1968,433,2.70001,430.299987792969,300,425,249.49,67.5,422.87,224.7,0.900637300092188
1492512,2015-02-01,VGRTP,"Vicente Guerrero, Tamps.",Las Adjuntas,Tamaulipas,Padilla,Golfo Norte,23.959444,-98.666389, Riego,Soto La Marina,Contr,1967,148,4.12001,144.039993286133,5498.22998046875,140.440002441406,3910.68994140625,62,140.57,3962.39,1.01322018860313
1492513,2015-02-01,VHGDR,"Villa Hidalgo, Dgo.",Villa Hidalgo,Durango,Hidalgo,Cuencas Centrales del Norte,26.2425,-104.928889,Riego y Uso Público Urbano,A. Cerro Gordo,Libre,1977,1731.28,1.73,1729.55,39.555,1726.23,23.08,34.2,1717.97,10.402,0.450693240901213
1492514,2015-02-01,VILMC,"José María Morelos y Pavón, Mich.",La Villita,Michoacán de Ocampo,Lázaro Cárdenas,Balsas,18.048333,-102.180278,Riego y Generación de Energia,Río Balsas,Contr,1973,59.73,3,56.73,714.593,51.2,531.414,135.13,50.1,503.6,0.947660392838728
1492515,2015-02-01,VILZC,"José María Morelos, Zac.",La Villita,Zacatecas,Tepechitlán,Lerma-Santiago-Pacífico,21.588889000000002,-103.3375,Riego,Río San Pedro,Libre,1986,1833.2,2.01006,1831.18994140625,11.164999961853,1829,9.01799964904785,39.2,1828.37,8.476,0.939898018392019
1492516,2015-02-01,VNTQT,"La Venta, Qro.",La Venta,Querétaro,Pedro Escobedo,Golfo Norte,20.498611,-100.190556, Riego,Arrollo El Hondo,Libre,1907,1896,0.619946,1907.68005371094,3.77699995040894,1906.68005371094,2.47900009155273,4.3,1905.46,1.028,0.414683324741673
1492517,2015-02-01,VTRGR,"Valerio Trujano, Gro.",Tepecoacuilco,Guerrero,Tepecoacuilco de Trujano,Balsas,18.295833,-99.466111,Riego,Río Tepecoacuilco,Libre,1964,844.3,1.51997,842.780029296875,51.6500015258789,840,31.0139999389648,33.3,838.53,23.035,0.742729091550029
1492518,2015-02-01,VVCMX,"Villa Victoria, Méx.",Villa Victoria,Estado de México,Villa Victoria,Balsas,19.461667,-100.055556,Uso Público Urbano,Río San Juan Malacatepec,Libre,1944,2561.96,0,2607.5,252.029998779297,2605.5,185.723007202148,19,2605.18,176.254,0.949015432472284
1492519,2015-02-01,ZICMC,"Zicuirán, Mich.",La Peña,Michoacán de Ocampo,La Huacana,Balsas,18.921111,-101.931944,Riego,Río Zicuarán,Libre,1957,302.75,1.31,301.440002441406,47.4850006103516,299,36.2939987182617,46,297.25,41.2,1.13517389802711
1492520,2015-02-01,ZMPHD,"Ing. Fernando Hiriart Balderrama, Hgo.",Zimapán,Hidalgo,Zimapán,Golfo Norte,20.663333,-99.501111,Generación de Energia,Moctezuma,Contr,1990,1565,2,1563,1460.10998535156,1560,1390.10998535156,203,1557.57,1333.14,0.959017641803965
1492521,2015-02-01,CRTJL,"El Cuarenta, Jal.",El Cuarenta,Jalisco,Lagos de Moreno,Lerma-Santiago-Pacífico,21.497778,-101.7375,Riego,Río de Lagos,Libre,1949,2004,2.05005,2001.94995117188,38.9599990844727,1998.75,30.625,42,1998.02,28.654,0.935640816326531
1492327,2015-02-01,CUQJL,"Cuquío, Jal.",Los Gigantes,Jalisco,Cuquío,Lerma-Santiago-Pacífico,20.948056,-103.039444,Riego,Arroyo Achichilco,Libre,1967,1808.5,1.92004,1806.57995605469,8.85000038146973,1805.5,7.5,24,1804.84,6.725,0.896666666666667
1492328,2015-02-01,DBOMC,"El Bosque, Mich.",El Bosque,Michoacán de Ocampo,Zitácuaro,Balsas,19.387778,-100.421111,Riego y Uso Público Urbano,Río Zitácuaro,Libre,1954,1745,2,1743,250.5,1741.40002441406,202.399993896484,70,1737.13,158.622,0.783705557230035
1492329,2015-02-01,DGNMC,"De Gonzalo, Mich.",De Gonzalo,Michoacán de Ocampo,Vista Hermosa,Lerma-Santiago-Pacífico,20.304444,-102.436944,Riego,Río Las Nutrias,Libre,1890,1535.83,0.93,1534.9,10,1533.88,8.837,10,1533.49,3.427,0.387801290030553
1492330,2015-02-01,DNXMX,"Danxhó, Méx.",Danxho,Estado de México,Jilotepec,Aguas del Valle de México,19.884722,-99.559722,Riego,Coscomate,Libre,1951,2455.6,0.470117,2455.1298828125,32.6699981689453,2454,31.0499992370605,31,2453.91,30.62,0.986151392991105
1492331,2015-02-01,EBLSI,"Lic. Eustaquio Buelna, Sin.",Guamuchil,Sinaloa,Salvador Alvarado,Pacífico Norte,25.484722,-108.065556,Riego y Uso Público Urbano,Río Mocorito,Contr,1972,71.2,2.35,68.8499984741211,264.950012207031,63.54,80.08,29,63.58,80.946,1.01081418581419
1492332,2015-02-01,ECAGR,"Ing. Carlos Ramírez Ulloa, Gro.",El Caracol,Guerrero,Apaxtla,Balsas,17.947778,-99.995556,Generación de Energia,Río Balsas,Contr,1986,526,2.4,523.6,1202.398,521,1084.85,126,520.71,1445.39,1.33234087661889
1492333,2015-02-01,EGCJL,"Ing. Elías González Chávez, Jal.",Puente Calderón,Jalisco,Zapotlanejo,Lerma-Santiago-Pacífico,20.681389,-102.976111,Uso Público Urbano,Río Calderón,Libre,1991,1622,2,1620,100,1618,80,36,1611.63,32.739,0.4092375
1492335,2015-02-01,ELCZC,"El Cazadero, Zac.",El Cazadero,Zacatecas,Sain Alto,Cuencas Centrales del Norte,23.693333,-103.098333,Riego,Aguanaval,Libre,1964,1920.12,1.50006,1919.93994140625,44.6800003051758,1916,22.17799949646,27.12,1915.98,22.091,0.996077216230713
1492336,2015-02-01,ELOSL,"Cañada del Lobo, S.L.P.",,San Luis Potosí,San Luis Potosí,Cuencas Centrales del Norte,22.094722,-100.9675,Riego,Españita,Libre,1987,1963.7,1.54998,1962.15002441406,1.83399999141693,1958.80004882812,1.00999999046326,28,1955.93,0.506,0.50099010374041
1492337,2015-02-01,ELPSL,"Gonzalo N. Santos, S.L.P.",El Peaje,San Luis Potosí,San Luis Potosí,Cuencas Centrales del Norte,22.092222,-101.098611,Uso Público Urbano,Arroyo Grande o Azul,Libre,1953,2049.6,1.73,2047.87,8.995,2044.84997558594,6.685,38,2034.85,1.7,0.25430067314884103
1492338,2015-02-01,ELZBN,"Emilio López Zamora, B.C.",Ensenada,Baja California,Ensenada,Península de Baja California,31.890278,-116.6025,Uso Público Urbano,Arroyo Ensenada,Libre,1978,27,1.74,25.2600002288818,6.34200000762939,19.8899993896484,2.73200011253357,34,8.43,0.077,0.0281844790733162
1492339,2015-02-01,ENDHD,"Endhó, Hgo.",Endó,Hidalgo,Tepetitlán,Aguas del Valle de México,20.163889,-99.36,Riego,Río tula,Libre,1951,2023,3,2020,208,2018,182.899993896484,60,2017.89,181.583,0.992799377034262
1492340,2015-02-01,EPLGJ,"El Palote, Gto.",El Palote,Guanajuato,León,Lerma-Santiago-Pacífico,21.173333,-101.688056,Uso Público Urbano,Río de Los Gómez,Libre,1954,1839.5,0.9,1838.6,17.161,1836.15,9.643,20.5,1835.18,7.348,0.762003525873691
1492341,2015-02-01,LNRDR,"Los Naranjos, Dgo.",Naranjos,Durango,General Simón Bolívar,Cuencas Centrales del Norte,24.613056,-103.306944,Riego,Santa Clara,Libre,1985,1663,1.91003,1661.08996582031,27.3899993896484,1658.40002441406,20.928,48,1658.4,20.928,1
1492342,2015-02-01,LOBZC,"Manuel Felgueres, Zac.",Lobatos,Zacatecas,Valparaíso,Lerma-Santiago-Pacífico,22.845278,-103.382778,Riego,Río Pajaritos,Libre,1980,2082.3,2.12007,2080.17993164062,9.4350004196167,2077.05004882812,6.90500020980835,35,2076.63,6.615,0.958001419117061
1492343,2015-02-01,LOLMC,"Los Olivos, Mich.",Los Olivos,Michoacán de Ocampo,Tepalcatepec,Balsas,19.210833,-102.865556,Riego,Río Otates,Libre,1961,423,2,421,16.2709999084473,418,10.2620000839233,39,415.31,16.981,1.65474565008071
1492344,2015-02-01,LREHD,"Los Reyes, Hgo.",Omiltepec,Hidalgo,Acaxochitlán,Golfo Centro,20.174722,-98.131944,Generación de Energia,Río Omiltepec,Libre,1913,2168.5,1.5,2167,27,2165,26.0499992370605,30,2162.77,18.398,0.706257218381247
1492345,2015-02-01,LREZC,"Gobernador Leobardo Reynoso, Zac.",Trujillo,Zacatecas,Fresnillo,Cuencas Centrales del Norte,23.18,-103.216944,Riego,Los Lazos,Libre,1946,2131.85,2.31997,2129.53002929688,125.919998168945,2127.35009765625,95.7200012207031,40.34,2124.63,65.941,0.688894684068785
1492346,2015-02-01,MABGJ,"Mariano Abasolo, Gto.",San Antonio de Aceves,Guanajuato,Pénjamo,Lerma-Santiago-Pacífico,20.504444,-101.931944,Riego,Arroyo los Otates,Libre,1971,1755,1.92,1753.08,23.946,1751.3,20.079,43,1745.26,10.456,0.52074306489367
1492374,2015-02-01,ALMSI,"Adolfo López Mateos, Sin.",El Humaya o El Varejonal,Sinaloa,Badiraguato,Pacífico Norte,25.101389,-107.388333,Riego y Generación de Energia,Río Humaya,Libre,1964,186.5,3.02,183.479995727539,4034.52001953125,176,3086.61010742188,105.5,160.1,1537.67,0.498174355193943
1492375,2015-02-01,ALRBN,"Abelardo L. Rodríguez, B.C.",Abelardo L. Rodríguez o Tijuana,Baja California,Tijuana,Península de Baja California,32.444722,-116.908333,Uso Público Urbano,Río Tijuana,Contr,1937,127,2,125,121.392,115.85,76.902,72,84.99,0.417,0.00542248576109854
1492376,2015-02-01,AMEMC,"Aristeo Mercado, Mich.",Wilson,Michoacán de Ocampo,Copándaro,Lerma-Santiago-Pacífico,19.926111,-101.661111,Riego y Generación de Energia,Arroyo Seco,Libre,1926,1999.83,6.03,1993.8,28.981,1993.5,25.344,9.2,1997.46,11.686,0.461095328282828
1492377,2015-02-01,CILAAMSMX,"Internacional La Amistad, Coah.",La Amistad,Coahuila de Zaragoza,Acuña,Río Bravo,29.446944,-101.057222,Riegoy Generación de Energia,Río Bravo,Contr,1968,351.22,2.14001,349.079986572266,7000,340.462,4040.325,34.2,331.57,2156.124,0.533651129550222
1492378,2015-02-01,ANGCP,"Doctor Belisario Domínguez, Chis.",Angostura,Chiapas,Acala,Frontera Sur,16.401389000000002,-92.778889,Generación de Energia,Río Grijalva,Contr,1976,543,3.5,539.5,19736.4296875,533,15549.16015625,147,531.01,14366.8,0.923959870220081
1492379,2015-02-01,AOBSO,"Álvaro Obregón, Son.",El Oviachic,Sonora,Cajeme,Noroeste,27.8225,-109.8925,Generación de Energia,Río Yaqui,Libre,1952,115.1,2.9,112.199996948242,4409.35986328125,105.5,3023.13989257812,25,101.02,2309.86,0.764059911905088
1492380,2015-02-01,APRDR,"Ing. Benjamín Ortega Cantero, Dgo.",Agua Puerca,Durango,Mapimí,Cuencas Centrales del Norte,26.226389,-104.493889, Riego,Arrollo El Derrame,Libre,1984,1436.4,2.30002,1434.09997558594,56.060001373291,1430.19995117188,30.764,34.8,1424.08,7.89,0.256468599661943
1492381,2015-02-01,GLNGJ,"La Golondrina, Gto.",La Golondrina,Guanajuato,Pénjamo,Lerma-Santiago-Pacífico,20.439167,-101.7425,Riego,Río Penjamo,Libre,1968,1838.7,1.58,1837.11999511719,5.96999979019165,1835.19995117188,4.67000007629395,45.7,1831.62,4.103,0.878586709415236
1492382,2015-02-01,GUAMC,"Guaracha, Mich.",San Antonio,Michoacán de Ocampo,Villamar,Lerma-Santiago-Pacífico,19.979167,-102.541389,Riego y Generación de Energia,Arroyo Las Liebres,Libre,1913,1596.72,0,1580.11,29.79,1580.01,28.677,8,1594.76,24.6,0.857830316978764
1492383,2015-02-01,GVCDR,"Presidente Guadalupe Victoria, Dgo.",El Tunal,Durango,Durango,Pacífico Norte,23.961111,-104.753056,Riego,Río El Tunal,Mixto,1962,1934.8,1.69,1934.61,94.617,1931,78.06,72.8,1932.54,90.265,1.15635408660005
1492384,2015-02-01,HPNMX,"Huapango, Méx.",Huapango,Estado de México,Aculco,Aguas del Valle de México,20.046389,-99.696944,Riego,Huapango,Libre,1765,2513,0.199951,2512.80004882812,126.5,2512.64990234375,121.5,8.8,2510.52,42.689,0.351349794238683
1492385,2015-02-01,HRTJL,"Hurtado, Jal.",Valencia,Jalisco,Acatlán de Juárez,Lerma-Santiago-Pacífico,20.466944,-103.651111,Riego,Arroyo San Antonio,Libre,1879,1464,1.34,1462.66,22.625,1462.66,22.625,10.35,1461.21,14.79,0.653701657458563
1492386,2015-02-01,IALGJ,"Ignacio Allende, Gto.",La Begoña,Guanajuato,San Miguel de Allende,Lerma-Santiago-Pacífico,20.848056,-100.825833,C. A. y Riego,Río La Laja,Contr,1968,1834.7,2.04998,1832.65002441406,221.693,1828.75,125.118,43,1829.36,165.05,1.31915471794626
1492387,2015-02-01,IDFQT,"San Ildefonso, Qro.",El Tepozán,Querétaro,Amealco de Bonfil,Golfo Norte,20.198611,-99.9625, Riego,Prieto,Libre,1942,2261.93,1.87,2242.5,58.026,2239,47.812,62.7,2234.33,41.057,0.858717476784071
1492388,2015-02-01,INFMC,"Infiernillo, Mich.",Infiernillo,Guerrero,Arteaga,Balsas,18.266667,-101.883333,Generación de Energia,Río Balsas,Contr,1964,184,0.8,183.2,12562.44,169,7297.79,151.5,165.99,8302.36,1.13765400210201
1492389,2015-02-01,IRASO,"Ignacio R. Alatorre, Son.",Punta de Agua,Sonora,Guaymas,Noroeste,28.426389,-110.396944, Riego,Mátape,Libre,1972,105,2.29,102.709999084473,29.6900005340576,100,16.1599998474121,30,95.03,4.239,0.2623143589125
1492390,2015-02-01,IVGSL,"Valentín Gama, S.L.P.",Ojo Caliente,San Luis Potosí,Villa de Reyes,Cuencas Centrales del Norte,21.88,-100.820556,Riego,Santa María,Libre,1970,1789.55,1.45002,1788.09997558594,22.3999996185303,1783.80004882812,9.51000022888184,24,1781.79,5.344,0.561934791943568
1492391,2015-02-01,JARMC,"Jaripo, Mich.",Jaripo,Michoacán de Ocampo,Villamar,Lerma-Santiago-Pacífico,19.958333,-102.601944,Riego,Río Jaripo,Libre,1951,1548.5,2.2,1580.42,9.265,1578.91,6.028,#¡VALOR!,1544.56,9.276,1.53881884538819
1492392,2015-02-01,JCQAG,"Jocoque, Ags.",Der. Jocoqui,Aguascalientes,Pabellón de Arteaga,Lerma-Santiago-Pacífico,22.121667,-102.356944,Riego,Río San Pedro,Libre,1929,1944.95,1.54998,1943.40002441406,11.3999996185303,1942.44995117188,10.9750003814697,44,1940.07,9.355,0.852391769916933
1492393,2015-02-01,JDMOX,"Presidente Benito Juárez, Oax.",El Marqués,Oaxaca,Santa María Jalapa del Marqués,Pacífico Sur,16.445556,-95.397778,Riego,Ríos Tequisistán y Tehuantepec,Libre,1961,138.4,2.64999,139.850006103516,1726.62902832031,124.25,720.317016601562,85.5,122.72,650.537,0.903125963994599
1492394,2015-02-01,JGRSI,"Juan Guerrero Alcocer, Sin.",Vinoramas,Sinaloa,Culiacán,Pacífico Norte,24.753611,-107.059444,Riego,Río Tamazula,Libre,1994,178.3,2.02,176.279998779297,102,168.5,55,50,158.16,17.38,0.316
1492395,2015-02-01,ARCSO,"Adolfo Ruíz Cortínes, Son.",Mocuzari,Sonora,Alamos,Noroeste,27.226111,-109.106667,Riego y Generación de Energia,Río Mayo,Mixto,1955,148,2.53,145.470001220703,1822.55004882812,136.3,1039.84,88.5,128.52,580.113,0.557886790275427
1492396,2015-02-01,ARLSO,"Abelardo Rodríguez Lujan, Son.",Hermosillo,Sonora,Hermosillo,Noroeste,29.076667,-110.92,Uso Público Urbano,Río Sonora,Contr,1948,231.6,3.20001,228.399993896484,284.470001220703,226.979995727539,219.5,36,217.42,9.49,0.043234624145785903
1492397,2015-02-01,BBAJL,"Basilio Vadillo, Jal.",Las Piedras,Jalisco,El Limón,Lerma-Santiago-Pacífico,19.913611,-104.061111,Riego,Río San Miguel,Libre,1973,982.8,2.7,978.97,146.888,974.34,124.689,96,974.36,145.774,1.16910072259782
1492398,2015-02-01,BDDPB,"Manuel Ávila Camacho, Pue.",Valsequillo o Balcón del Diablo,Puebla,Tzicatlacoyan,Balsas,18.9125,-98.108611,Riego,Río Atoyac,Libre,1946,2064,2,2062,391.489,2059,300.097,85,2059.51,317.415,1.05770800774416
1492450,2015-02-01,PALZC,"Palomas, Zac.",Palomas,Zacatecas,Villanueva,Lerma-Santiago-Pacífico,22.347778,-102.798056,Riego,Río Juchipila,Libre,1970,1908.34,0.86002,1907.47998046875,8.74899959564209,1904.25,4.61100006103516,28,1904.1,4.452,0.965517228598895
1492425,2015-02-01,LBCNL,"Rodrigo Gómez, N.L.",La Boca,Nuevo León,Santiago,Río Bravo,25.428056,-100.128056,Uso Público Urbano,Arroyo la Chueca,Contr,1961,450.04,0.839988,449.200012207031,42.6279983520508,447.55,35.003,34,447.51,34.826,0.994943290575094
1492426,2015-02-01,LBLTP,"Derivadora Las Blancas, Tamps.",Derivadora Las Blancas,Tamaulipas,Mier,Río Bravo,26.408889,-99.233611,Riego,Río Álamo,Libre,2000,93.3,1.5,91.8000030517578,124,89.9199981689453,83.7839965820312,32.28,84.77,22.85,0.272725113770719
1492427,2015-02-01,LBQCH,"La Boquilla, Chih.",Lago Toronto,Chihuahua,San Francisco de Conchos,Río Bravo,27.544722,-105.414167,Riego y Generación de Energia,Río Conchos,Libre,1916,1322,2.90002,1319.09997558594,3278.098,1317,2893.57104492188,80,1314.01,2403.644,0.830684286884303
1492428,2015-02-01,LCAVC,"La Cangrejera, Ver.",La Cangrejera,Veracruz de Ignacio de la Llav,Coatzacoalcos,Golfo Centro,18.109444,-94.330833,Riego,Arroyo Teapa,Libre,1980,23.87,2.22,21.6499996185303,31.6000003814697,21.25,28.5370006561279,15.87,21,26.76,0.937729943046893
1492429,2015-02-01,LCDSO,"Lázaro Cárdenas, Son.",La Angostura,Sonora,Villa Hidalgo,Noroeste,30.437778,-109.378889,Generación de Energia y Riego,Bavispe,Libre,1942,843.75,3.59998,840.150024414062,1116.4599609375,830.700012207031,703.380004882812,91.75,830.39,691.762,0.983482605700814
1492430,2015-02-01,LCLGR,"La Calera, Gro.",La Calera,Guerrero,Zirándaro,Balsas,18.418611,-101.003056,Riego y Uso Público Urbano,Río del oro,Libre,1964,124.3,1.68,122.620002746582,34.25,118,9.39299964904785,31.8,119.38,14.936,1.59012036176474
1492431,2015-02-01,LCLJL,"La Colonia, Jal.",La Colonia,Jalisco,Zapotlán del Rey,Lerma-Santiago-Pacífico,20.43,-102.931944,Riego,Arroyo Los Sabinos,Libre,1927,0,0,103.400001525879,6.5,103,5.80000019073486,6,102.32,3.852,0.664137909194094
1492432,2015-02-01,LCRDR,"Lázaro Cárdenas, Dgo.",El Palmito,Durango,Indé,Cuencas Centrales del Norte,25.594167,-105.015833, Riego,Nazas,Contr,1946,1635,3,1632,4278.5400390625,1622.46,2957.608,21.9,1610.75,1798.33,0.608035277156405
1492433,2015-02-01,LDACM,"Laguna de Amela, Col.",Tecoman,Colima,Tecomán,Lerma-Santiago-Pacífico,18.809167,-103.774167,Riego,Arroyo La Mina Verde y Canal C,Libre,1956,10.89,3.25,7.6399998664856,41.2999992370605,7.3899998664856,38.3429985046387,6.35,7.34,37.754,0.984638694739343
1492434,2015-02-01,LDCJL,"Lago de Chapala, Jal.",Chapala,Jalisco,Chapala,Lerma-Santiago-Pacífico,20.18,-103.12,Riego y Uso Público Urbano,Río Lerma,Libre,1980,0,0,99,9279.7099609375,98,8126.41015625,,94.15,3854.69,0.474341059075805
1492435,2015-02-01,CHUCH,"Chihuahua, Chih.",Chihuahua,Chihuahua,Chihuahua,Río Bravo,28.570556,-106.167778,Uso Público Urbano,Río Chuvíscar,Libre,1960,1546,1.71997,1544.28002929688,35.6310005187988,1540.81994628906,23.382999420166,58,1540.49,22.393,0.95766157273595
1492436,2015-02-01,CHYVC,"Paso de Piedras, Ver.",Chicayán,Veracruz de Ignacio de la Llav,Pánuco,Golfo Norte,21.7375,-98.155833,Riego,Chicayán,Contr,1979,32.25,3.97,28.28,570,23.07,220,30,23.5,242.58,1.10263636363636
1492437,2015-02-01,CJNNR,"Leonardo Rodríguez Alcaine, Nay.",El Cajón,Nayarit,Santa María del Oro,Lerma-Santiago-Pacífico,21.428333,-104.450833,Generación de Energia,Río Santiago,Contr,2006,394.5,0.5,394,2860.19995117188,391,2551.69995117188,186,387.39,2148.59,0.842022981194656
1492438,2015-02-01,CLNCH,"Ing. Andrew Weiss, Chih.",La Colina,Chihuahua,San Francisco de Conchos,Río Bravo,27.576389,-105.382222,Riego y Generación de Energia,Rio Conchos,Libre,1926,1251,1.15002,1249.84997558594,26.9699993133545,1249.09997558594,23.6700000762939,20.75,1249.28,24.436,1.0323616358782
1492439,2015-02-01,CNPMX,"La Concepción, Méx.",La Concepción,Estado de México,Tepotzotlán,Aguas del Valle de México,19.695,-99.304444,Riego,Río Tepotzotlán,Libre,1949,2355.64,3.09996,2352.5400390625,13.6999998092651,2352.10009765625,12.1110000610352,39,2348.7,8.889,0.733960858327354
1492440,2015-02-01,CNSQT,"Constitución de 1917, Qro.",Hidalgo,Querétaro,San Juan del Río,Golfo Norte,20.418611,-100.080278,Riego,Arrollo Caracol,Contr,1969,1937,1.55005,1928.44995117188,75.3000030517578,1927.65002441406,69.8619995117188,35,1923.83,42.967,0.615026771353612
1492441,2015-02-01,CNTCL,"El Centenario, Coah.",El Centenario,Coahuila de Zaragoza,Jiménez,Río Bravo,29.213611,-100.95,Riego,Río San Diego,Libre,1935,338,1.62,336.380004882812,25.5200004577637,336.149993896484,24.5890007019043,17,335.32,20.837,0.847411419951941
1492442,2015-02-01,CNTQT,"El Centenario, Qro.",El Centenario,Querétaro,Querétaro,Golfo Norte,20.513333,-99.897778,Riego,San Juan,Mixto,1910,1898,0.51001,1881.98999023438,14.178,1881.57995605469,9.882,13,1880.16,5.196,0.525804493017608
1492443,2015-02-01,COIMC,"Coíntzio, Mich.",Cointzio,Michoacán de Ocampo,Contepec,Lerma-Santiago-Pacífico,19.629722,-101.259167,Riego y Uso Público Urbano,Río Grande de Morelia,Contr,1939,1997,1.50005,2001.31994628906,79.2330017089844,1999.46997070312,68.5199966430664,46,1993.19,82.264,1.20058382998074
1492444,2015-02-01,CPAMC,"Copándaro, Mich.",Copándaro De Corrales,Michoacán de Ocampo,Copándaro,Lerma-Santiago-Pacífico,20.001667,-102.861389,Riego,Canal la Estancia,Libre,1927,1999,9.79,1989.21,9.717,1998.5,6.5,9.2,1998.31,6.189,0.952153846153846
1492445,2015-02-01,CPEJL,"Cajón de Peña, Jal.",Tomatlán o El Tule,Jalisco,Tomatlán,Lerma-Santiago-Pacífico,19.9975,-105.129722,Riego,Río Tomatlán,Contr,1976,142,2.8,139.199996948242,707.690002441406,130.37,466.69,68,130.93,481.122,1.03092416807731
1492446,2015-02-01,CPRNL,"José López Portillo, N.L.",Cerro Prieto,Nuevo León,Linares,Río Bravo,24.9375,-99.399722,Uso Público Urbano,Río Pablillo,Contr,1984,288,2.5,285.5,393,282.519989013672,300,50,284.14,348.75,1.1625
1492447,2015-02-01,CRRBN,"El Carrizo, B.C.",El Carrizo,Baja California,Tecate,Península de Baja California,32.479444,-116.696944,Uso Público Urbano,Arroyo El Carrizo,Libre,1978,288.34,2.12,286.220001220703,44.5849990844727,284.700012207031,40.8660011291504,55.8,276,22.802,0.557969935153135
1492448,2015-02-01,PAGCH,"Pico del Águila, Chih.",Pico del Águila,Chihuahua,Coronado,Río Bravo,26.546389,-105.254167,Riego,Río Florido,Libre,1993,1625.9,2.5,1619,62.0200004577637,1616.90002441406,51.106,42,1611.6,27.244,0.533088091417837
1492449,2015-02-01,PAGDR,"Peña del Águila, Dgo.",Peña del Águila,Durango,Durango,Pacífico Norte,24.203889,-104.656667,Riego,Río La Sauceda,Libre,1954,1896.8,1.52998,1895.27001953125,54.7210006713867,1892.5,27.9479999542236,25,1892.46,31.465,1.12584084913185
1492477,2015-02-01,SA1JL,"La Sauceda, Jal.",Garabatillos,Jalisco,Lagos de Moreno,Lerma-Santiago-Pacífico,21.359167,-101.835556,Riego,Río La Sauceda o Bernalejo,Libre,1982,1923,1.96997,1921.03002929688,21.5,1918.90002441406,16,33,1918,14.2,0.8875
1492478,2015-02-01,SABMC,"Sabaneta, Mich.",Sabaneta,Michoacán de Ocampo,Hidalgo,Balsas,19.622778,-100.669444,Riego,Arroyo Sabaneta,Libre,1948,2494.9,2.05,2508.95,5.875,2508,5.043,17,2491.58,5.171,1.02538171723181
1492479,2015-02-01,SBBMX,"José Antonio Alzate, Méx.",San Bernabé,Estado de México,Temoaya,Lerma-Santiago-Pacífico,19.465833,-99.704722,Riego,Río Lerma,Libre,1962,2567,1.58008,2566.919921875,52.5089988708496,2565.5,35.3120002746582,24,2559,3.318,0.0939623916570134
1492480,2015-02-01,SBYDR,"Santiago Bayacora, Dgo.",Santiago Bayacora,Durango,Durango,Pacífico Norte,23.874444,-104.675833,Riego,Río Santiago Bayacora,Libre,1990,1962,0.810059,1965.93994140625,169.869003295898,1959.01000976562,130.046997070312,66.75,1958.65,128.203,0.985820533254486
1492481,2015-02-01,SELDR,"Santa Elena, Dgo.",Tanque Santa Elena,Durango,Súchil,Pacífico Norte,24.608333,-103.079722,Riego,Río Graceros,Libre,1977,2002.75,1.14001,2001.60998535156,18.7999992370605,1999.80004882812,15.08,30.75,1998.84,13.3,0.881962864721485
1492482,2015-02-01,SGBDR,"San Gabriel, Dgo.",Federalismo Mexicano,Durango,Ocampo,Río Bravo,26.436667,-105.560833,Riego,Río Florido,Libre,1991,1785.6,2.20999,1783.39001464844,377.338012695312,1777.90002441406,245.430999755859,48,1776.39,215.445,0.877823095755272
1492483,2015-02-01,SJATL,"San José Atlanga, Tlax.",Atlanga,Tlaxcala,Atlangatepec,Balsas,19.556111,-98.200556,Riego,Río Zahuapan,Libre,1959,2500,2.32988,2486.8701171875,59.445,2486.39990234375,54.026,24.2,2486.04,49.76,0.921038018731722
1492484,2015-02-01,SJUMC,"San Juanico, Mich.",La Laguna,Michoacán de Ocampo,Cotija,Balsas,19.839444,-102.651389,Riego,Río Cotija,Libre,1950,1574.6,0,1604.56,71.69,1603.86,60.545,7,1572.17,49.568,0.818696837063341
1492485,2015-02-01,SLDGJ,"La Soledad, Gto.",La Soledad,Guanajuato,Dolores Hidalgo Cuna de la Independencia Nacional,Lerma-Santiago-Pacífico,21.04,-101.279722,Uso Público Urbano,Río Santa Ana,Libre,1956,2211.4,2.2501,2209.14990234375,2.37100005149841,2207.75,1.85699999332428,51,2205.43,1.115,0.600430804527899
1492486,2015-02-01,SLSGJ,"Solís, Gto.",Solís,Guanajuato,Acámbaro,Lerma-Santiago-Pacífico,20.051667,-100.667222,Riego,Río Lerma,Contr,1949,1901.7,3,1898.7,1214.14,1892.30004882812,785.539978027344,56.7,1891.74,772.137,0.982937879163068
1492487,2015-02-01,SLTSI,"Ing. Aurelio Benassini Vizcaino, Sin.",El Salto o Elota,Sinaloa,Elota,Pacífico Norte,24.121944,-106.695833,Riego,Río Elota,Libre,1988,167.1,2.46,164.639999389648,815.510009765625,154.539993286133,403.899993896484,73,152.28,338.987,0.839284489038341
1492488,2015-02-01,SLZTP,"Lic. Emilio Portes Gil, Tamps.",San Lorenzo,Tamaulipas,Xicoténcatl,Golfo Norte,22.943889,-98.791389,Riego,El Sauz,Libre,1983,125,1.1,123.900001525879,272,122.949996948242,230.779998779297,40.5,122.58,222.035,0.962106773439842
1492489,2015-02-01,LDCSI,"Luis Donaldo Colosio, Sin.",Huites,Sinaloa,Choix,Pacífico Norte,26.844722,-108.367778,Riego y Generación de Energia,Río Fuerte,Contr,1995,290.75,0.75,290,4568,270,2908.10009765625,318,257.9,2147.95,0.738609376524252
1492490,2015-02-01,LDCVC,"Canseco, Ver.",Laguna de Catemaco,Veracruz de Ignacio de la Llav,Catemaco,Golfo Centro,18.415833,-95.118333,Generación de Energia,Río Grande de Catemaco,Contr,1960,334.5,1,333.5,252.699996948242,332.7,193.02,7.2,332.34,166.5,0.862604911408144
1492491,2015-02-01,LDFMC,"Laguna del Fresno, Mich.",Laguna del Fresno,Michoacán de Ocampo,Maravatío,Lerma-Santiago-Pacífico,20.038333,-101.940833,Riego,Canal El Fresno,Libre,1946,2059,2,2057,13.132,2055.98,10.299,8.8,2055.92,9.711,0.942907078357122
1492492,2015-02-01,LDTGR,"Laguna de Tuxpan, Gro.",Laguna de Tuxpan,Guerrero,Iguala de la Independencia,Balsas,18.363333,-99.503056,Riego,Río Tuxpan,Libre,1937,744.75,0,743.349975585938,19.5030002593994,742.840026855469,17.6469993591309,,742.44,16.191,0.917493091629909
1492493,2015-02-01,LDYGJ,"Laguna de Yuriria, Gto.",B. de Tavamatacheo,Guanajuato,Yuriria,Lerma-Santiago-Pacífico,20.286944,-101.073056,Riego,Río Lerma,Contr,1550,0,0,1731.40002441406,325.195007324219,1730.92,278.789,10,1729.77,175.408,0.629178339174071
1492494,2015-02-01,LFGCL,"La Fragua, Coah.",La Fragua,Coahuila de Zaragoza,Jiménez,Río Bravo,28.82,-100.832222,Riego,San Rodrigo,Libre,1993,306.68,2.00001,304.679992675781,85.379997253418,300.299987792969,47.2949981689453,24.7,300.26,46.969,0.993107132221873
1492495,2015-02-01,LJSCH,"Las Lajas, Chih.",Las Lajas,Chihuahua,Buenaventura,Río Bravo,29.88,-107.025833,Riego,Río Del Carmen,Libre,1964,1563.8,2.18,1561.61999511719,106.546997070312,1558.69995117188,83.265998840332,47,1558.26,80.066,0.961568961101779
1492496,2015-02-01,LLAHD,"La Laguna, Hgo.",Tejocotal,Hidalgo,Acaxochitlán,Golfo Centro,20.135556,-98.128333,Generación de Energia,Ríos Necaxa y Coacuila,Libre,1903,2185,1,2184,45,2183,43.5299987792969,19,2181.43,31.809,0.730737442959189
1492497,2015-02-01,LLAQT,"La Llave, Qro.",Divino Redentor,Querétaro,San Juan del Río,Golfo Norte,20.461944,-99.994722,Riego,A. El Caracol,Libre,1885,0,0.0500244,1891.09997558594,14.4139995574951,1890,9.3120002746582,3.4,1888.82,4.084,0.43857387022574
1492498,2015-02-01,LLNCH,"Ing. Luis L. León, Chih.",El Granero,Chihuahua,Guadalupe,Río Bravo,28.984444,-105.28,Riego,Río Conchos,Contr,1968,1053,2.5,1050.5,832.409,1034.80004882812,292.464996337891,62,1033.86,271.657,0.92885303677897
1492499,2015-02-01,SMGCL,"San Miguel, Coah.",San Miguel,Coahuila de Zaragoza,Jiménez,Río Bravo,29.034167,-100.953889,Riego,Río San Diego,Libre,1935,343.5,1.54001,341.959991455078,22.193000793457,341.739990234375,21.1679992675781,15,341.49,20.019,0.945719987370843
1492500,2015-02-01,SNJSL,"San José, S.L.P.",San José,San Luis Potosí,San Luis Potosí,Cuencas Centrales del Norte,22.150278,-101.054444,Uso Público Urbano,El Salado,Libre,1903,1955.5,0.359985,1955.14001464844,5.1399998664856,1953.78002929688,5.1399998664856,32,1951.55,3.733,0.726264610304822
1492501,2015-02-01,SNLSI,"Sanalona, Sin.",Sanalona,Sinaloa,Culiacán,Pacífico Norte,24.815,-107.151389,Riego,Río Tamazula,Libre,1948,165,2.83,162.17,987.522,156.2,687.988,81,147.49,357.373,0.519446560114421
1492502,2015-02-01,SOLPB,"La Soledad, Pue.",Apulco o Mazatepec,Puebla,Tlatlauquitepec,Golfo Centro,19.960833,-97.446667,Generación de Energia,Apulco,Contr,1962,806.5,1.5,805,14.978,804.5,13.895,93,799.43,3.195,0.229938826916157
