idmonitoreodiario,fechamonitoreo,clavesih,nombreoficial,nombrecomun,estado,nommunicipio,regioncna,latitud,longitud,uso,corriente,tipovertedor,inicioop,elevcorona,bordolibre,nameelev,namealmac,namoelev,namoalmac,alturacortina,elevacionactual,almacenaactual,llenano
1101398,2009-05-01,CPEJL,"Cajón de Peña, Jal.",Tomatlán o El Tule,Jalisco,Tomatlán,Lerma-Santiago-Pacífico,19.9975,-105.129722,Riego,Río Tomatlán,Contr,1976,142,2.8,139.199996948242,707.690002441406,130.37,466.69,68,123.46,312.286,0.669150828172877
1101417,2009-05-01,MALCP,"Nezahualcóyotl, Chis.","Malpaso, Raudales de Malpaso",Chiapas,Tecpatán,Frontera Sur,17.178611,-93.598889,Riego y Generación de Energia,Río Grijalva,Contr,1964,192,4,188,14056,182.5,12373.099609375,137.5,177.26,10848,0.876740698974132
1101367,2009-05-01,PIRMX,"Ignacio Ramírez, Méx.",La Gavia,Estado de México,Almoloya de Juárez,Lerma-Santiago-Pacífico,19.461667,-99.775,Riego,Río La Gavia,Libre,1965,2553.76,3.28002,2550.47998046875,36.2999992370605,2548.47998046875,20.5,23.5,2545.53,5.629,0.274585365853659
1101376,2009-05-01,RSPTP,"República Española, Tamps.",Real Viejo o El Sombrero,Tamaulipas,Aldama,Golfo Norte,23.259444,-97.991944,Riego,San Rafael,Libre,1974,92,2.57,89.4300003051758,105.98999786377,83,54.7799987792969,30,82.09,46.421,0.847407831953877
1101358,2009-05-01,APRDR,"Ing. Benjamín Ortega Cantero, Dgo.",Agua Puerca,Durango,Mapimí,Cuencas Centrales del Norte,26.226389,-104.493889, Riego,Arrollo El Derrame,Libre,1984,1436.4,2.30002,1434.09997558594,56.060001373291,1430.19995117188,30.764,34.8,1429.08,32.669,1.06192302691458
1101354,2009-05-01,AGZCH,"Abraham González, Chih.",Guadalupe,Chihuahua,Guerrero,Noroeste,28.481667,-107.482778, Riego,Papigochi,Libre,1961,2052.9,1.59995,2051.30004882812,102.891,2047.80004882812,79.354,30,2044.57,65.914,0.830632356276936
1101359,2009-05-01,ARLSO,"Abelardo Rodríguez Lujan, Son.",Hermosillo,Sonora,Hermosillo,Noroeste,29.076667,-110.92,Uso Público Urbano,Río Sonora,Contr,1948,231.6,3.20001,228.399993896484,284.470001220703,226.979995727539,219.5,36,214,0.01,4.55581e-5
1101366,2009-05-01,PFBMX,"Francisco José Trinidad Fabela, Méx.",Isla de las Aves o El Salto,Estado de México,Atlacomulco,Lerma-Santiago-Pacífico,19.829167,-99.790278,Riego,Río Del Salto,Libre,1945,2697.5,1.69995,2697.80004882812,10,2696.69995117188,9.93000030517578,19.15,2692.36,3.075,0.309667664199086
1101394,2009-05-01,CHYVC,"Paso de Piedras, Ver.",Chicayán,Veracruz de Ignacio de la Llav,Pánuco,Golfo Norte,21.7375,-98.155833,Riego,Chicayán,Contr,1979,32.25,3.97,28.28,570,23.07,220,30,23.69,252.604,1.1482
1101375,2009-05-01,RODMR,"El Rodeo, Mor.",El Rodeo,Morelos,Miacatlán,Balsas,18.765278,-99.331389,Riego,Río Tembembe,Libre,1974,1166.5,2.30005,1166.5,33.1370010375977,1164.19995117188,26.9839992523193,8,1152.37,3.332,0.123480584506524
1101381,2009-05-01,FZRDR,"Francisco Zarco, Dgo.",Las Tortolas,Durango,Cuencamé,Cuencas Centrales del Norte,25.270833,-103.773611,Riego,Nazas,Contr,1968,1213,2.94995,1210.05004882812,383.160003662109,1208.19995117188,309.239990234375,39.5,1205.51,274.3,0.887013350996765
1101378,2009-05-01,ESLJL,"El Salto, Jal.",El Salto,Jalisco,Valle de Guadalupe,Lerma-Santiago-Pacífico,21.037222,-102.705,Uso Público Urbano,Río Valle de Guadalupe,Libre,1940,1814.5,2,1812.5,112,1810.16003417969,85,42,1809.05,75.826,0.892070588235294
1101384,2009-05-01,HRTJL,"Hurtado, Jal.",Valencia,Jalisco,Acatlán de Juárez,Lerma-Santiago-Pacífico,20.466944,-103.651111,Riego,Arroyo San Antonio,Libre,1879,1464,1.34,1462.66,22.625,1462.66,22.625,10.35,1460.52,11.426,0.505016574585635
1101402,2009-05-01,EBLSI,"Lic. Eustaquio Buelna, Sin.",Guamuchil,Sinaloa,Salvador Alvarado,Pacífico Norte,25.484722,-108.065556,Riego y Uso Público Urbano,Río Mocorito,Contr,1972,71.2,2.35,68.8499984741211,264.950012207031,63.54,80.08,29,59.54,21.588,0.26958041958042
1101385,2009-05-01,IDFQT,"San Ildefonso, Qro.",El Tepozán,Querétaro,Amealco de Bonfil,Golfo Norte,20.198611,-99.9625, Riego,Prieto,Libre,1942,2261.93,1.87,2242.5,58.026,2239,47.812,62.7,2226.13,23.682,0.495314983686104
1101392,2009-05-01,CHLJL,"Chila, Jal.",Chila,Jalisco,Zapotlán del Rey,Lerma-Santiago-Pacífico,20.489722,-102.944167,Riego,Arroyo Chila,Libre,1945,1525.88,1,99,1,98.7,0.762,10,96.08,0.31,0.406824146981627
1101401,2009-05-01,DGNMC,"De Gonzalo, Mich.",De Gonzalo,Michoacán de Ocampo,Vista Hermosa,Lerma-Santiago-Pacífico,20.304444,-102.436944,Riego,Río Las Nutrias,Libre,1890,1535.83,0.93,1534.9,10,1533.88,8.837,10,1533.08,2.178,0.246463732035759
1101412,2009-05-01,LJSCH,"Las Lajas, Chih.",Las Lajas,Chihuahua,Buenaventura,Río Bravo,29.88,-107.025833,Riego,Río Del Carmen,Libre,1964,1563.8,2.18,1561.61999511719,106.546997070312,1558.69995117188,83.265998840332,47,1555.05,58.76,0.705690207508062
1101434,2009-05-01,NEXPB,"Nexapa, Pue.",Nexapa,Puebla,Huauchinango,Golfo Centro,20.168333,-97.984722,Generación de Energia,Río Nexapa,Libre,1912,1364,1,1363,16,1360,12.5,44,1356.8,8.403,0.67224
1101414,2009-05-01,LLAQT,"La Llave, Qro.",Divino Redentor,Querétaro,San Juan del Río,Golfo Norte,20.461944,-99.994722,Riego,A. El Caracol,Libre,1885,0,0.0500244,1891.09997558594,14.4139995574951,1890,9.3120002746582,3.4,1888.67,3.46,0.371563562923864
1101421,2009-05-01,SELDR,"Santa Elena, Dgo.",Tanque Santa Elena,Durango,Súchil,Pacífico Norte,24.608333,-103.079722,Riego,Río Graceros,Libre,1977,2002.75,1.14001,2001.60998535156,18.7999992370605,1999.80004882812,15.08,30.75,1995.69,8.24,0.546419098143236
1101429,2009-05-01,TEMOX,"Presidente Alemán, Oax.",Temascal,Oaxaca,San Miguel Soyaltepec,Golfo Centro,18.232222,-96.412222,Generación de Energia,Papaloapan,Contr,1955,74.79,3.5,68.5,9105.5,65.5,8119.10009765625,76,57.2,4277.52,0.526846565327455
1101433,2009-05-01,TULJL,"El Tule, Jal.",El Tule,Jalisco,Arandas,Lerma-Santiago-Pacífico,20.7425,-102.433056,Riego,Río Zula,Libre,1990,1861.08,2.23002,1858.84997558594,42,1856.55004882812,30,15.5,1854,17.2,0.573333333333333
1101437,2009-05-01,EGLGR,"El Gallo, Gro.",El Gallo,Guerrero,Cutzamala de Pinzón,Balsas,18.703056,-100.671111,Riego,Río Cutzamala,Libre,1998,370.5,2.5,368,545.966003417969,362.779998779297,400.039001464844,67.5,355.46,275.108,0.687702946444278
1101536,2009-05-01,CLNCH,"Ing. Andrew Weiss, Chih.",La Colina,Chihuahua,San Francisco de Conchos,Río Bravo,27.576389,-105.382222,Riego y Generación de Energia,Rio Conchos,Libre,1926,1251,1.15002,1249.84997558594,26.9699993133545,1249.09997558594,23.6700000762939,20.75,1249.28,24.436,1.0323616358782
1101444,2009-05-01,CILAFLCMX,"Internacional Falcón, Tamps.",Falcón,Tamaulipas,Guerrero,Río Bravo,26.560278,-99.170556,Riego y Generación de Energia,Río Bravo,Contr,1953,98.45,2.68,95.7699966430664,4862.2099609375,91.805,3264.813,48.45,89.86,2645.924,0.810436616124721
1101445,2009-05-01,GBESI,"Ing. Guillermo Blake Aguilar, Sin.",El Sabinal o El Cajón,Sinaloa,Sinaloa,Pacífico Norte,26.103056,-108.3275,Riego,Arroyo Ocoroni,Libre,1985,201.2,4.59,196.610000610352,468.623992919922,188.449996948242,294.019989013672,81.2,179.92,168.04,0.571525767903441
1101454,2009-05-01,ALRBN,"Abelardo L. Rodríguez, B.C.",Abelardo L. Rodríguez o Tijuana,Baja California,Tijuana,Península de Baja California,32.444722,-116.908333,Uso Público Urbano,Río Tijuana,Contr,1937,127,2,125,121.392,115.85,76.902,72,91.73,13.687,0.177979766456009
1101457,2009-05-01,ARCSO,"Adolfo Ruíz Cortínes, Son.",Mocuzari,Sonora,Alamos,Noroeste,27.226111,-109.106667,Riego y Generación de Energia,Río Mayo,Mixto,1955,148,2.53,145.470001220703,1822.55004882812,136.3,1039.84,88.5,125.18,434.737,0.418080666256347
1101462,2009-05-01,GVCDR,"Presidente Guadalupe Victoria, Dgo.",El Tunal,Durango,Durango,Pacífico Norte,23.961111,-104.753056,Riego,Río El Tunal,Mixto,1962,1934.8,1.69,1934.61,94.617,1931,78.06,72.8,1927.4,67.472,0.864360748142454
1101482,2009-05-01,NNEPB,"Necaxa, Pue.",Necaxa,Puebla,Juan Galindo,Golfo Centro,20.216667,-98.000556,Generación de Energia,Río Necaxa,Libre,1908,1344,1,1344,43,1338,29.0550003051758,59,1321.17,4.871,0.167647563202135
1101415,2009-05-01,LOLMC,"Los Olivos, Mich.",Los Olivos,Michoacán de Ocampo,Tepalcatepec,Balsas,19.210833,-102.865556,Riego,Río Otates,Libre,1961,423,2,421,16.2709999084473,418,10.2620000839233,39,407.87,6.875,0.669947373199745
1101419,2009-05-01,MNLAG,"Media Luna, Ags.",Media Luna,Aguascalientes,Calvillo,Lerma-Santiago-Pacífico,21.8075,-102.788333,Riego,Río Calvillo,Libre,1976,1624.1,2.14004,1621.9599609375,21.1959991455078,1619.19995117188,15,22.24,1616.02,9.782,0.652133333333333
1101428,2009-05-01,TCTJL,"Tacotán, Jal.",Tacotán,Jalisco,Unión de Tula,Lerma-Santiago-Pacífico,20.036111,-104.320278,Riego y Generación de Energia,Río Ayutla,Libre,1960,1407.5,1.20996,1406.2900390625,169,1403.06005859375,149.238998413086,10,1390.8,95.62,0.640717245604455
1101432,2009-05-01,TNTCH,"El Tintero, Chih.",El Tintero,Chihuahua,Namiquipa,Río Bravo,29.5625,-107.384167,Riego,Río Santa María,Libre,1950,1712,2.96997,1709.03002929688,216.703002929688,1703,125.074996948242,56,1700.99,101.468,0.811257265446818
1101439,2009-05-01,ENDHD,"Endhó, Hgo.",Endó,Hidalgo,Tepetitlán,Aguas del Valle de México,20.163889,-99.36,Riego,Río tula,Libre,1951,2023,3,2020,208,2018,182.899993896484,60,2009.03,88.702,0.484975412575478
1101500,2009-05-01,VTRGR,"Valerio Trujano, Gro.",Tepecoacuilco,Guerrero,Tepecoacuilco de Trujano,Balsas,18.295833,-99.466111,Riego,Río Tepecoacuilco,Libre,1964,844.3,1.51997,842.780029296875,51.6500015258789,840,31.0139999389648,33.3,836.62,21.878,0.70542335858179
1101442,2009-05-01,ESTJL,"El Estribón, Jal.",El Estribón,Jalisco,Yahualica de González Gallo,Lerma-Santiago-Pacífico,21.185556,-102.900556,Riego,Río Yahualica,Libre,1946,1882.5,1.08997,1881.41003417969,7.73999977111816,1880,6.37799978256226,29,1878.19,5.074,0.795547220599246
1101455,2009-05-01,AMEMC,"Aristeo Mercado, Mich.",Wilson,Michoacán de Ocampo,Copándaro,Lerma-Santiago-Pacífico,19.926111,-101.661111,Riego y Generación de Energia,Arroyo Seco,Libre,1926,1999.83,6.03,1993.8,28.981,1993.5,25.344,9.2,1995.52,2.534,0.0999842171717172
1101460,2009-05-01,CBRDR,"Caboraca, Dgo.",Canoas,Durango,Canatlán,Pacífico Norte,24.538333,-104.810278,Riego,Río La Sauceda,Libre,1992,2003.75,2.46997,2001.28002929688,57.8800010681152,1998.25,45,37,1995.97,35.943,0.798733333333333
1101472,2009-05-01,LCDSO,"Lázaro Cárdenas, Son.",La Angostura,Sonora,Villa Hidalgo,Noroeste,30.437778,-109.378889,Generación de Energia y Riego,Bavispe,Libre,1942,843.75,3.59998,840.150024414062,1116.4599609375,830.700012207031,703.380004882812,91.75,827.47,586.924,0.834433728462021
1101510,2009-05-01,SBYDR,"Santiago Bayacora, Dgo.",Santiago Bayacora,Durango,Durango,Pacífico Norte,23.874444,-104.675833,Riego,Río Santiago Bayacora,Libre,1990,1962,0.810059,1965.93994140625,169.869003295898,1959.01000976562,130.046997070312,66.75,1949.4,86.224,0.663021845505447
1101492,2009-05-01,ZICMC,"Zicuirán, Mich.",La Peña,Michoacán de Ocampo,La Huacana,Balsas,18.921111,-101.931944,Riego,Río Zicuarán,Libre,1957,302.75,1.31,301.440002441406,47.4850006103516,299,36.2939987182617,46,291.31,22.275,0.613737829576549
1101496,2009-05-01,VGRGR,"Vicente Guerrero, Gro.",Palos Altos,Guerrero,Arcelia,Balsas,18.382778,-100.265833,Riego,Río Poliutla,Libre,1968,433,2.70001,430.299987792969,300,425,249.49,67.5,412.28,121.24,0.4859513407351
1101499,2009-05-01,VNTQT,"La Venta, Qro.",La Venta,Querétaro,Pedro Escobedo,Golfo Norte,20.498611,-100.190556, Riego,Arrollo El Hondo,Libre,1907,1896,0.619946,1907.68005371094,3.77699995040894,1906.68005371094,2.47900009155273,4.3,1904.36,0.152,0.0613150441252279
1101516,2009-05-01,SOLPB,"La Soledad, Pue.",Apulco o Mazatepec,Puebla,Tlatlauquitepec,Golfo Centro,19.960833,-97.446667,Generación de Energia,Apulco,Contr,1962,806.5,1.5,805,14.978,804.5,13.895,93,800.4,7.223,0.519827275998561
1101518,2009-05-01,TAYZC,"Ing. Julián Adame Alatorre, Zac.",Tayahua,Zacatecas,Villanueva,Lerma-Santiago-Pacífico,22.120556,-102.864167,Riego,Río Juchipila,Libre,1976,1701.7,0.289966,1701.41003417969,50.3769989013672,1696.01000976562,31.5979995727539,54.3,1691.73,23.456,0.742325473674146
1101528,2009-05-01,LNRDR,"Los Naranjos, Dgo.",Naranjos,Durango,General Simón Bolívar,Cuencas Centrales del Norte,24.613056,-103.306944,Riego,Santa Clara,Libre,1985,1663,1.91003,1661.08996582031,27.3899993896484,1658.40002441406,20.928,48,1651.67,14.505,0.693090596330275
1101535,2009-05-01,CJNNR,"Leonardo Rodríguez Alcaine, Nay.",El Cajón,Nayarit,Santa María del Oro,Lerma-Santiago-Pacífico,21.428333,-104.450833,Generación de Energia,Río Santiago,Contr,2006,394.5,0.5,394,2860.19995117188,391,2551.69995117188,186,369.71,1548.586,0.606884049705299
1101512,2009-05-01,SJATL,"San José Atlanga, Tlax.",Atlanga,Tlaxcala,Atlangatepec,Balsas,19.556111,-98.200556,Riego,Río Zahuapan,Libre,1959,2500,2.32988,2486.8701171875,59.445,2486.39990234375,54.026,24.2,2484.63,35.18,0.651167956169252
1101534,2009-05-01,CHTSO,"Cuauhtémoc, Son.",Santa Teresa,Sonora,Atil,Noroeste,30.873333,-111.516389, Riego,Atil,Libre,1950,603,2.75,600.25,66.3300018310547,597,41.4700012207031,57.2,586.6,14.8,0.356884484310345
1101538,2009-05-01,CNTQT,"El Centenario, Qro.",El Centenario,Querétaro,Querétaro,Golfo Norte,20.513333,-99.897778,Riego,San Juan,Mixto,1910,1898,0.51001,1881.98999023438,14.178,1881.57995605469,9.882,13,1877.73,1.35,0.136612021857924
1101352,2009-05-01,AFIGR,"Andrés Figueroa, Gro.",Las Garzas,Guerrero,Ajuchitlán del Progreso,Balsas,18.075833,-100.5175,Riego,Río Ajuchitlán,Libre,1984,385,2.39001,382.609985351562,123.099998474121,377,102.5,72.5,363.32,50.49,0.492585365853659
1101544,2009-05-01,ECAGR,"Ing. Carlos Ramírez Ulloa, Gro.",El Caracol,Guerrero,Apaxtla,Balsas,17.947778,-99.995556,Generación de Energia,Río Balsas,Contr,1986,526,2.4,523.6,1202.398,521,1084.85,126,510.62,1043.94,0.962289717472462
1101353,2009-05-01,AGOMC,"Agostitlán, Mich.",Mata De Pinos,Michoacán de Ocampo,Hidalgo,Balsas,19.579722,-100.608889,Riego,Río Agostitlán,Libre,1955,2379,1.16,2377.84,18.754,2376.6,15.675,25,2476.83,6.42,0.409569377990431
1101356,2009-05-01,CILAAMSMX,"Internacional La Amistad, Coah.",La Amistad,Coahuila de Zaragoza,Acuña,Río Bravo,29.446944,-101.057222,Riegoy Generación de Energia,Río Bravo,Contr,1968,351.22,2.14001,349.079986572266,7000,340.462,4040.325,34.2,340.895,4153.397,1.02798586747353
1101360,2009-05-01,BTEZC,"Ramón López Velarde, Zac.",Boca del Tesorero,Zacatecas,Jerez,Lerma-Santiago-Pacífico,22.824167,-102.953333,Riego,Río Boca del Tesorero,Libre,1975,2100.5,2.34009,2098.15991210938,36.7439994812012,2096,26.2199993133545,28.8,2094.2,20.344,0.775896282714176
1101362,2009-05-01,CDOOX,"Miguel de la Madrid Hurtado, Oax.",Cerro de Oro,Oaxaca,San Lucas Ojitlán,Golfo Centro,17.999167,-96.263611,Generación de Energia,Río Papaloapan,Contr,1988,75.6,2.8,72.8000030517578,3550,64.8600006103516,2599.51000976562,70,57.37,1500.75,0.577320338972386
1101351,2009-05-01,ABRAG,"Abelardo L. Rodríguez., Ags.",Abelardo L. Rodríguez,Aguascalientes,Jesús María,Lerma-Santiago-Pacífico,21.916944,-102.427778,Uso Público Urbano,Río Morcinique,Libre,1934,1890.2,1.47,1890,18.8400001525879,1888.90002441406,15.9899997711182,25,1887.03,11.872,0.742464050652691
1101355,2009-05-01,ALMSI,"Adolfo López Mateos, Sin.",El Humaya o El Varejonal,Sinaloa,Badiraguato,Pacífico Norte,25.101389,-107.388333,Riego y Generación de Energia,Río Humaya,Libre,1964,186.5,3.02,183.479995727539,4034.52001953125,176,3086.61010742188,105.5,161.79,1673.15,0.542067168113279
1101357,2009-05-01,AOBSO,"Álvaro Obregón, Son.",El Oviachic,Sonora,Cajeme,Noroeste,27.8225,-109.8925,Generación de Energia,Río Yaqui,Libre,1952,115.1,2.9,112.199996948242,4409.35986328125,105.5,3023.13989257812,25,97.96,1895.2,0.626897883439915
1101361,2009-05-01,CCHNL,"Cuchillo Solidaridad, N.L.",El Cuchillo,Nuevo León,China,Río Bravo,25.711667,-99.276944,Riego y Uso Público Urbano,Río San Juan,Contr,1994,169.2,3,166.660003662109,1784.2900390625,162.350006103516,1123.14294433594,44,163.73,1309.13,1.16559517789076
1101363,2009-05-01,CHIZC,"El Chique, Zac.",El Chique,Zacatecas,Tabasco,Lerma-Santiago-Pacífico,21.997222,-102.896111,Riego,Río Juchipila,Libre,1958,1588.48,2.00002,1586.47998046875,192.567001342773,1580.18005371094,138.908996582031,61,1577.75,122.553,0.882253871351145
1101364,2009-05-01,PECSO,"Plutarco Elías Calles, Son.",El Novillo,Sonora,Bacanora,Noroeste,28.976667,-109.642222,Riego y Generación de Energia,Río Yaqui,Contr,1964,297.8,1.00001,296.799987792969,3443.5,290.5,2833.07006835938,133.8,283.64,2177.47,0.768590238666765
1101365,2009-05-01,PENCP,"Ángel Albino Corzo, Chis.",Peñitas,Chiapas,Tecpatán,Frontera Sur,17.446111,-93.458611,Generación de Energia,Río Grijalva,Contr,1986,98,5,93,1448.43,87.4000015258789,1091.09997558594,53,85.91,1016.82,0.93192193451746
1101369,2009-05-01,PMOSO,"Ing. Rodolfo Félix Valdés, Son.",El Molinito,Sonora,Hermosillo,Noroeste,29.2125,-110.725556,Riego,Rio Sonora,Libre,1991,295.4,2.00001,293.399993896484,233.919998168945,289.359985351562,130.039993286133,31.4,277.12,17.82,0.137034765610837
1101371,2009-05-01,PNLGJ,"Peñuelitas, Gto.",Peñuelitas,Guanajuato,Dolores Hidalgo Cuna de la Independencia Nacional,Lerma-Santiago-Pacífico,21.105,-100.878333,Riego,Río de la Erre,Libre,1960,1908.2,0.91,1907.29,30.169,1904.7,17.46,28,1901.78,13.13,0.752004581901489
1101370,2009-05-01,PNDMX,"Ñadó, Méx.",Ñado,Estado de México,Aculco,Aguas del Valle de México,20.038611,-99.864444, Riego,Ñadó,Libre,1980,2477.5,2,2475.5,18.5,2474,16.7999992370605,52.5,2463.7,6.775,0.403273827837709
1101373,2009-05-01,PSANL,"Salinillas, N.L.",Salinillas,Nuevo León,Anáhuac,Río Bravo,27.429167,-100.372222,Riego,Río Salado,Libre,1930,0,0,232,19.0109996795654,232,19.0109996795654,10,230.58,12.592,0.662353385526323
1101380,2009-05-01,FVLDR,"Francisco Villa, Dgo.",El Bosque,Durango,Poanas,Pacífico Norte,24.001667,-103.960833,Riego,Río Poanas,Libre,1968,1998.7,2.57,1996.13000488281,96.5699996948242,1993,73.2600021362305,58.7,1990.28,62.5,0.853125828249066
1101382,2009-05-01,GDOSI,"Gustavo Díaz Ordaz, Sin.",Bacurato,Sinaloa,Sinaloa,Pacífico Norte,25.856667,-107.911111,Riego y Generación de Energia,Río Sinaloa,Contr,1981,256,3.5,252.5,2687.074,237.06,1618.8,116,222.39,981.07,0.606047689646652
1101386,2009-05-01,IRASO,"Ignacio R. Alatorre, Son.",Punta de Agua,Sonora,Guaymas,Noroeste,28.426389,-110.396944, Riego,Mátape,Libre,1972,105,2.29,102.709999084473,29.6900005340576,100,16.1599998474121,30,91.58,0.01,6.18811887031139e-4
1101388,2009-05-01,JDMOX,"Presidente Benito Juárez, Oax.",El Marqués,Oaxaca,Santa María Jalapa del Marqués,Pacífico Sur,16.445556,-95.397778,Riego,Ríos Tequisistán y Tehuantepec,Libre,1961,138.4,2.64999,139.850006103516,1726.62902832031,124.25,720.317016601562,85.5,118.6,677.5,0.940558093707723
1101391,2009-05-01,LBLTP,"Derivadora Las Blancas, Tamps.",Derivadora Las Blancas,Tamaulipas,Mier,Río Bravo,26.408889,-99.233611,Riego,Río Álamo,Libre,2000,93.3,1.5,91.8000030517578,124,89.9199981689453,83.7839965820312,32.28,89.33,76.583,0.914052839733172
1101396,2009-05-01,CNSQT,"Constitución de 1917, Qro.",Hidalgo,Querétaro,San Juan del Río,Golfo Norte,20.418611,-100.080278,Riego,Arrollo Caracol,Contr,1969,1937,1.55005,1928.44995117188,75.3000030517578,1927.65002441406,69.8619995117188,35,1918.8,17.56,0.251352668442512
1101399,2009-05-01,CRRBN,"El Carrizo, B.C.",El Carrizo,Baja California,Tecate,Península de Baja California,32.479444,-116.696944,Uso Público Urbano,Arroyo El Carrizo,Libre,1978,288.34,2.12,286.220001220703,44.5849990844727,284.700012207031,40.8660011291504,55.8,284.56,39.068,0.95600251848797
1101404,2009-05-01,ELCZC,"El Cazadero, Zac.",El Cazadero,Zacatecas,Sain Alto,Cuencas Centrales del Norte,23.693333,-103.098333,Riego,Aguanaval,Libre,1964,1920.12,1.50006,1919.93994140625,44.6800003051758,1916,22.17799949646,27.12,1914.53,20.56,0.927044840238263
1101406,2009-05-01,LCAVC,"La Cangrejera, Ver.",La Cangrejera,Veracruz de Ignacio de la Llav,Coatzacoalcos,Golfo Centro,18.109444,-94.330833,Riego,Arroyo Teapa,Libre,1980,23.87,2.22,21.6499996185303,31.6000003814697,21.25,28.5370006561279,15.87,18.62,13.006,0.455759179344839
1101408,2009-05-01,LCRDR,"Lázaro Cárdenas, Dgo.",El Palmito,Durango,Indé,Cuencas Centrales del Norte,25.594167,-105.015833, Riego,Nazas,Contr,1946,1635,3,1632,4278.5400390625,1622.46,2957.608,21.9,1619.76,2829.95,0.956837417264222
1101411,2009-05-01,LDTGR,"Laguna de Tuxpan, Gro.",Laguna de Tuxpan,Guerrero,Iguala de la Independencia,Balsas,18.363333,-99.503056,Riego,Río Tuxpan,Libre,1937,744.75,0,743.349975585938,19.5030002593994,742.840026855469,17.6469993591309,,741.83,14.043,0.79577268147482
1101416,2009-05-01,LREHD,"Los Reyes, Hgo.",Omiltepec,Hidalgo,Acaxochitlán,Golfo Centro,20.174722,-98.131944,Generación de Energia,Río Omiltepec,Libre,1913,2168.5,1.5,2167,27,2165,26.0499992370605,30,2157.55,7.875,0.302303271809562
1101420,2009-05-01,SABMC,"Sabaneta, Mich.",Sabaneta,Michoacán de Ocampo,Hidalgo,Balsas,19.622778,-100.669444,Riego,Arroyo Sabaneta,Libre,1948,2494.9,2.05,2508.95,5.875,2508,5.043,17,2490.69,4.411,0.874677771167955
1101422,2009-05-01,SJUMC,"San Juanico, Mich.",La Laguna,Michoacán de Ocampo,Cotija,Balsas,19.839444,-102.651389,Riego,Río Cotija,Libre,1950,1574.6,0,1604.56,71.69,1603.86,60.545,7,1571.26,39.18,0.647121975390206
1101425,2009-05-01,SMGCL,"San Miguel, Coah.",San Miguel,Coahuila de Zaragoza,Jiménez,Río Bravo,29.034167,-100.953889,Riego,Río San Diego,Libre,1935,343.5,1.54001,341.959991455078,22.193000793457,341.739990234375,21.1679992675781,15,340.71,16.885,0.797666316337314
1101427,2009-05-01,STRZC,"Santa Rosa, Zac.",Santa Rosa,Zacatecas,Fresnillo,Cuencas Centrales del Norte,22.923611,-103.108889,Riego,Arroyo El Arenal,Libre,1937,2250.19,0.550107,2249.63989257812,14.0410003662109,2248.63989257812,10.4759998321533,15,2247.74,8.541,0.815292109282558
1101430,2009-05-01,TENPB,"Tenango, Pue.",Tenango,Puebla,Huauchinango,Golfo Centro,20.199444,-97.983333,Generación de Energia,Río Acatlán,Libre,1912,1353,2,1362,45.1199989318848,1345.6,28.203,39,1333.26,5.047,0.178952593695706
1101435,2009-05-01,PAGCH,"Pico del Águila, Chih.",Pico del Águila,Chihuahua,Coronado,Río Bravo,26.546389,-105.254167,Riego,Río Florido,Libre,1993,1625.9,2.5,1619,62.0200004577637,1616.90002441406,51.106,42,1608.06,16.623,0.325265135209173
1101440,2009-05-01,EPLGJ,"El Palote, Gto.",El Palote,Guanajuato,León,Lerma-Santiago-Pacífico,21.173333,-101.688056,Uso Público Urbano,Río de Los Gómez,Libre,1954,1839.5,0.9,1838.6,17.161,1836.15,9.643,20.5,1833.88,4.95,0.513325728507726
1101447,2009-05-01,GUAMC,"Guaracha, Mich.",San Antonio,Michoacán de Ocampo,Villamar,Lerma-Santiago-Pacífico,19.979167,-102.541389,Riego y Generación de Energia,Arroyo Las Liebres,Libre,1913,1596.72,0,1580.11,29.79,1580.01,28.677,8,1593.24,10.548,0.367820901767967
1101450,2009-05-01,VCRCL,"Venustiano Carranza, Coah.",Don Martín,Coahuila de Zaragoza,Juárez,Río Bravo,27.515,-100.616111,Riego,Río Salado,Contr,1932,265.8,4.00001,261.799987792969,1322.36999511719,259.24,874.1,35,261.05,1179.65,1.34955954696259
1101452,2009-05-01,ACHZC,"Achimec, Jal.",Vaqueros,Jalisco,Huejúcar,Lerma-Santiago-Pacífico,22.327222,-103.225278,Riego,Río Tepetongo,Libre,1969,1846.3,2.02998,1844.27001953125,12.2119998931885,1841.5,7.36399984359741,28.5,1839.73,6.332,0.859858790668677
1101456,2009-05-01,ANGCP,"Doctor Belisario Domínguez, Chis.",Angostura,Chiapas,Acala,Frontera Sur,16.401389000000002,-92.778889,Generación de Energia,Río Grijalva,Contr,1976,543,3.5,539.5,19736.4296875,533,15549.16015625,147,524.86,11058,0.711163811349337
1101458,2009-05-01,BBAJL,"Basilio Vadillo, Jal.",Las Piedras,Jalisco,El Limón,Lerma-Santiago-Pacífico,19.913611,-104.061111,Riego,Río San Miguel,Libre,1973,982.8,2.7,978.97,146.888,974.34,124.689,96,960.56,87.202,0.699355997722333
1101461,2009-05-01,CDRAG,"La Codorniz, Ags.",La Codorniz,Aguascalientes,Calvillo,Lerma-Santiago-Pacífico,21.9975,-102.676944,Riego,Río de La Labor,Libre,1966,1840,2.23999,1837.76000976562,6.52799987792969,1836,5.36600017547607,36,1832.68,3.604,0.67163620613938
1101465,2009-05-01,INFMC,"Infiernillo, Mich.",Infiernillo,Guerrero,Arteaga,Balsas,18.266667,-101.883333,Generación de Energia,Río Balsas,Contr,1964,184,0.8,183.2,12562.44,169,7297.79,151.5,158.64,6175.09,0.846158905641297
1101467,2009-05-01,JCQAG,"Jocoque, Ags.",Der. Jocoqui,Aguascalientes,Pabellón de Arteaga,Lerma-Santiago-Pacífico,22.121667,-102.356944,Riego,Río San Pedro,Libre,1929,1944.95,1.54998,1943.40002441406,11.3999996185303,1942.44995117188,10.9750003814697,44,1942.19,10.792,0.983325706140411
1101470,2009-05-01,LBCNL,"Rodrigo Gómez, N.L.",La Boca,Nuevo León,Santiago,Río Bravo,25.428056,-100.128056,Uso Público Urbano,Arroyo la Chueca,Contr,1961,450.04,0.839988,449.200012207031,42.6279983520508,447.55,35.003,34,445.77,27.419,0.78333285718367
1101473,2009-05-01,LCLGR,"La Calera, Gro.",La Calera,Guerrero,Zirándaro,Balsas,18.418611,-101.003056,Riego y Uso Público Urbano,Río del oro,Libre,1964,124.3,1.68,122.620002746582,34.25,118,9.39299964904785,31.8,117.26,18.67,1.98765045220592
1101475,2009-05-01,LDCVC,"Canseco, Ver.",Laguna de Catemaco,Veracruz de Ignacio de la Llav,Catemaco,Golfo Centro,18.415833,-95.118333,Generación de Energia,Río Grande de Catemaco,Contr,1960,334.5,1,333.5,252.699996948242,332.7,193.02,7.2,332.08,147.4,0.763651435084447
1101477,2009-05-01,EPOSL,"El Potosino, S.L.P.",El Potosino,San Luis Potosí,San Luis Potosí,Cuencas Centrales del Norte,22.099722,-101.078056,Uso Público Urbano,Río Santiago,Libre,1990,2000.85,0.150024,2000.84997558594,5.19899988174438,1996.80004882812,3.29299998283386,26,1984.72,0.416,0.126328576425318
1101480,2009-05-01,MRGTP,"Marte R. Gómez, Tamps.",El Azucar,Tamaulipas,Camargo,Río Bravo,26.204722,-98.925556,Riego,Río San Juan,Libre,1946,86,3,83,2208.65991210938,76.3000030517578,781.700012207031,49,74.9,621.507,0.795070986688683
1101484,2009-05-01,PECAG,"Plutarco Elías Calles, Ags.",Calles,Aguascalientes,San José de Gracia,Lerma-Santiago-Pacífico,22.141111,-102.417222,Riego,Río Santiago,Libre,1931,2022.6,0.6,2022,407.438,2020,358.121,67,2009.03,146.465,0.40898188042589
1101487,2009-05-01,PMHSI,"Miguel Hidalgo, Sin.",El Mahone,Sinaloa,El Fuerte,Pacífico Norte,26.509722,-108.58,Riego y Generación de Energia,Río Fuerte,Mixto,1956,151.4,3.4,148,4171.273,142.36,3312.889,81,128.3,1561.53,0.471349930528913
1101489,2009-05-01,VHGDR,"Villa Hidalgo, Dgo.",Villa Hidalgo,Durango,Hidalgo,Cuencas Centrales del Norte,26.2425,-104.928889,Riego y Uso Público Urbano,A. Cerro Gordo,Libre,1977,1731.28,1.73,1729.55,39.555,1726.23,23.08,34.2,1720.22,15.68,0.679376083188908
1101493,2009-05-01,TRJCM,"Solidaridad, Col.",Trojes,Jalisco,Armería,Lerma-Santiago-Pacífico,18.967222,-103.396667,Riego y Generación de Energia,Río Barreras,Libre,1994,303.6,2.49001,301.109985351562,294.079986572266,292.369995117188,220.807006835938,87,278.82,130.339,0.590284710017575
1101368,2009-05-01,PJMTP,"Pedro José Méndez, Tamps.",Pedro José Méndez,Tamaulipas,Hidalgo,Golfo Norte,24.2475,-99.555833,Riego,A. San Juan y Tranquitas,Libre,1982,453,3.60001,449.399993896484,38.3600006103516,447.220001220703,31.2600002288818,55,441.96,17.72,0.566858601095853
1101372,2009-05-01,PRSGJ,"La Purísima, Gto.",La Purísima,Guanajuato,Guanajuato,Lerma-Santiago-Pacífico,20.867222,-101.287778,Riego,Río Guanajuato,Contr,1979,1863,2.20996,1860.7900390625,181.926,1852.06994628906,98.23,52,1847.54,75.679,0.770426549933829
1101374,2009-05-01,REDJL,"La Red, Jal.",La Red,Jalisco,Tepatitlán de Morelos,Lerma-Santiago-Pacífico,20.718889,-102.815278,Riego,Río Calderón,Libre,1968,1796.5,1.80005,1794.69995117188,18.2999992370605,1792.5,14.25,24,1785.62,4.47,0.313684210526316
1101377,2009-05-01,SA1JL,"La Sauceda, Jal.",Garabatillos,Jalisco,Lagos de Moreno,Lerma-Santiago-Pacífico,21.359167,-101.835556,Riego,Río La Sauceda o Bernalejo,Libre,1982,1923,1.96997,1921.03002929688,21.5,1918.90002441406,16,33,1915.71,9.207,0.5754375
1101379,2009-05-01,EXCZC,"Miguel Alemán, Zac.",Excamé,Zacatecas,Tepechitlán,Lerma-Santiago-Pacífico,21.645833,-103.35,Riego y Generación de Energia,Río Tlaltenango,Contr,1949,1707,2.5,1704.5,70.9199981689453,1703.47998046875,64.9800033569336,47.5,1693,30.265,0.4657586709215
1101383,2009-05-01,GLNGJ,"La Golondrina, Gto.",La Golondrina,Guanajuato,Pénjamo,Lerma-Santiago-Pacífico,20.439167,-101.7425,Riego,Río Penjamo,Libre,1968,1838.7,1.58,1837.11999511719,5.96999979019165,1835.19995117188,4.67000007629395,45.7,1826.84,2.06,0.44111348315754
1101387,2009-05-01,IVGSL,"Valentín Gama, S.L.P.",Ojo Caliente,San Luis Potosí,Villa de Reyes,Cuencas Centrales del Norte,21.88,-100.820556,Riego,Santa María,Libre,1970,1789.55,1.45002,1788.09997558594,22.3999996185303,1783.80004882812,9.51000022888184,24,1780.6,3.68,0.386961084272517
1101389,2009-05-01,JGRSI,"Juan Guerrero Alcocer, Sin.",Vinoramas,Sinaloa,Culiacán,Pacífico Norte,24.753611,-107.059444,Riego,Río Tamazula,Libre,1994,178.3,2.02,176.279998779297,102,168.5,55,50,156.42,13.59,0.247090909090909
1101390,2009-05-01,JLPSI,"José López Portillo, Sin.",El Comedero,Sinaloa,Cosalá,Pacífico Norte,24.571667,-106.807222,Riego y Generación de Energia,Río San lorenzo,Contr,1981,290,4.54999,286.950012207031,3966.169921875,272.160003662109,2580.18994140625,135.5,257.88,1592.34,0.6171406121877
1101393,2009-05-01,CHUCH,"Chihuahua, Chih.",Chihuahua,Chihuahua,Chihuahua,Río Bravo,28.570556,-106.167778,Uso Público Urbano,Río Chuvíscar,Libre,1960,1546,1.71997,1544.28002929688,35.6310005187988,1540.81994628906,23.382999420166,58,1540.15,21.419,0.916007378485746
1101395,2009-05-01,CNPMX,"La Concepción, Méx.",La Concepción,Estado de México,Tepotzotlán,Aguas del Valle de México,19.695,-99.304444,Riego,Río Tepotzotlán,Libre,1949,2355.64,3.09996,2352.5400390625,13.6999998092651,2352.10009765625,12.1110000610352,39,2346.34,7.045,0.581702581495805
1101397,2009-05-01,COIMC,"Coíntzio, Mich.",Cointzio,Michoacán de Ocampo,Contepec,Lerma-Santiago-Pacífico,19.629722,-101.259167,Riego y Uso Público Urbano,Río Grande de Morelia,Contr,1939,1997,1.50005,2001.31994628906,79.2330017089844,1999.46997070312,68.5199966430664,46,1983.43,38.148,0.556742584193635
1101400,2009-05-01,CUQJL,"Cuquío, Jal.",Los Gigantes,Jalisco,Cuquío,Lerma-Santiago-Pacífico,20.948056,-103.039444,Riego,Arroyo Achichilco,Libre,1967,1808.5,1.92004,1806.57995605469,8.85000038146973,1805.5,7.5,24,1802.72,4.345,0.579333333333333
1101403,2009-05-01,EGCJL,"Ing. Elías González Chávez, Jal.",Puente Calderón,Jalisco,Zapotlanejo,Lerma-Santiago-Pacífico,20.681389,-102.976111,Uso Público Urbano,Río Calderón,Libre,1991,1622,2,1620,100,1618,80,36,1616.3,64.822,0.810275
1101405,2009-05-01,ELOSL,"Cañada del Lobo, S.L.P.",,San Luis Potosí,San Luis Potosí,Cuencas Centrales del Norte,22.094722,-100.9675,Riego,Españita,Libre,1987,1963.7,1.54998,1962.15002441406,1.83399999141693,1958.80004882812,1.00999999046326,28,1956.62,0.61,0.603960401742391
1101407,2009-05-01,LCLJL,"La Colonia, Jal.",La Colonia,Jalisco,Zapotlán del Rey,Lerma-Santiago-Pacífico,20.43,-102.931944,Riego,Arroyo Los Sabinos,Libre,1927,0,0,103.400001525879,6.5,103,5.80000019073486,6,101.07,1.623,0.279827577004677
1101409,2009-05-01,LDACM,"Laguna de Amela, Col.",Tecoman,Colima,Tecomán,Lerma-Santiago-Pacífico,18.809167,-103.774167,Riego,Arroyo La Mina Verde y Canal C,Libre,1956,10.89,3.25,7.6399998664856,41.2999992370605,7.3899998664856,38.3429985046387,6.35,6.29,26.348,0.687165871933893
1101410,2009-05-01,LDCSI,"Luis Donaldo Colosio, Sin.",Huites,Sinaloa,Choix,Pacífico Norte,26.844722,-108.367778,Riego y Generación de Energia,Río Fuerte,Contr,1995,290.75,0.75,290,4568,270,2908.10009765625,318,247.79,1616.91,0.556002182078646
1101413,2009-05-01,LLAHD,"La Laguna, Hgo.",Tejocotal,Hidalgo,Acaxochitlán,Golfo Centro,20.135556,-98.128333,Generación de Energia,Ríos Necaxa y Coacuila,Libre,1903,2185,1,2184,45,2183,43.5299987792969,19,2180.86,27.975,0.642660252343151
1101418,2009-05-01,MLPMC,"Malpaís, Mich.",La Cienega,Michoacán de Ocampo,Queréndaro,Lerma-Santiago-Pacífico,19.829167,-100.873611,Riego,Río Queréndaro,Libre,1938,1830.96,1,1843.56,27.249,1842.530029,18.512,6.1,1825.98,7.66,0.413785652549698
1101423,2009-05-01,SLTSI,"Ing. Aurelio Benassini Vizcaino, Sin.",El Salto o Elota,Sinaloa,Elota,Pacífico Norte,24.121944,-106.695833,Riego,Río Elota,Libre,1988,167.1,2.46,164.639999389648,815.510009765625,154.539993286133,403.899993896484,73,141.27,140.44,0.347709834420036
1101424,2009-05-01,SLZTP,"Lic. Emilio Portes Gil, Tamps.",San Lorenzo,Tamaulipas,Xicoténcatl,Golfo Norte,22.943889,-98.791389,Riego,El Sauz,Libre,1983,125,1.1,123.900001525879,272,122.949996948242,230.779998779297,40.5,120.2,171.807,0.744462262365748
1101426,2009-05-01,SNLSI,"Sanalona, Sin.",Sanalona,Sinaloa,Culiacán,Pacífico Norte,24.815,-107.151389,Riego,Río Tamazula,Libre,1948,165,2.83,162.17,987.522,156.2,687.988,81,134.95,93.41,0.135772716965994
1101431,2009-05-01,TIESL,"La Muñeca, S.L.P.",La Muñeca,San Luis Potosí,Tierra Nueva,Golfo Norte,21.629444,-100.548333,Riego,Santa María,Libre,1981,1843.75,2,1841.75,31,1837.69995117188,25,40.5,1835.4,19.116,0.76464
1101436,2009-05-01,PALZC,"Palomas, Zac.",Palomas,Zacatecas,Villanueva,Lerma-Santiago-Pacífico,22.347778,-102.798056,Riego,Río Juchipila,Libre,1970,1908.34,0.86002,1907.47998046875,8.74899959564209,1904.25,4.61100006103516,28,1902.92,4.938,1.07091735732735
1101438,2009-05-01,ELZBN,"Emilio López Zamora, B.C.",Ensenada,Baja California,Ensenada,Península de Baja California,31.890278,-116.6025,Uso Público Urbano,Arroyo Ensenada,Libre,1978,27,1.74,25.2600002288818,6.34200000762939,19.8899993896484,2.73200011253357,34,20.87,3.69,1.35065880234464
1101441,2009-05-01,ERECH,"El Rejón, Chih.",El Rejón,Chihuahua,Chihuahua,Río Bravo,28.614722,-106.119444,Riego,Arroyo El Rejón,Libre,1966,1479.8,1.48005,1478.31994628906,7.75500011444092,1477,6.528,10,1475.95,5.646,0.864889705882353
1101443,2009-05-01,FIMCH,"Francisco I. Madero, Chih.",Las Vírgenes,Chihuahua,Rosales,Río Bravo,28.166111,-105.628889,Riego,Río San Pedro,Libre,1949,1243.8,1.23994,1242.56005859375,477.622009277344,1239.30004882812,355.286010742188,57,1235.24,231.004,0.65019165690604
1101446,2009-05-01,GDLMX,"Sierra de Guadalupe, Méx.",Guadalupe,Estado de México,Tultitlán,Aguas del Valle de México,19.635556,-99.252222,Riego,Río Cuautitlán,Libre,1936,2308.75,1.92993,2306.82006835938,63.9000015258789,2305.19995117188,56.7000007629395,467,2299.63,35.85,0.632275123767414
1101448,2009-05-01,UREMC,"Urepetiro, Mich.",Urepetiro,Michoacán de Ocampo,Tlazazalca,Lerma-Santiago-Pacífico,19.962222,-102.137778,Riego,Río tlazazalca,Libre,1964,1752.5,1.5,1745.68005371094,10.9200000762939,1745,8.2819995880127,31,1743.93,3.075,0.371287147182515
1101449,2009-05-01,VBRMX,"Valle de Bravo, Méx.",Valle de Bravo,Estado de México,Valle de Bravo,Balsas,19.2075,-100.18,Generación de Energia y Uso Público Urbano,Río Valle de Bravo,Libre,1947,1835.37,2.5,1785.60998535156,450.75,1782.60998535156,393.440002441406,48,1820.63,237.327,0.603210142657887
1101451,2009-05-01,VEGJL,"Ing. Santiago Camarena, Jal.",La Vega,Jalisco,Teuchitlán,Lerma-Santiago-Pacífico,20.596389,-103.845833,Riego,Río salado y Teuchitlán,Libre,1960,1261,2.14001,1258.85998535156,80,1257,44.0349998474121,18,1256.42,34.264,0.778108325621208
1101453,2009-05-01,AGMNR,"Aguamilpa Solidaridad, Nay.",Aguamilpa,Nayarit,Tepic,Lerma-Santiago-Pacífico,21.839167,-104.802222,Riego y Generación de Energia,Río Santiago,Contr,1993,235,3,232,6950,220,5540,187,205.38,4124.63,0.744518050541516
1101459,2009-05-01,BDDPB,"Manuel Ávila Camacho, Pue.",Valsequillo o Balcón del Diablo,Puebla,Tzicatlacoyan,Balsas,18.9125,-98.108611,Riego,Río Atoyac,Libre,1946,2064,2,2062,391.489,2059,300.097,85,2054.37,197.709,0.658816982508989
1101463,2009-05-01,HPNMX,"Huapango, Méx.",Huapango,Estado de México,Aculco,Aguas del Valle de México,20.046389,-99.696944,Riego,Huapango,Libre,1765,2513,0.199951,2512.80004882812,126.5,2512.64990234375,121.5,8.8,2510.77,49.848,0.410271604938272
1101464,2009-05-01,IALGJ,"Ignacio Allende, Gto.",La Begoña,Guanajuato,San Miguel de Allende,Lerma-Santiago-Pacífico,20.848056,-100.825833,C. A. y Riego,Río La Laja,Contr,1968,1834.7,2.04998,1832.65002441406,221.693,1828.75,125.118,43,1825.17,84.9,0.678559439888745
1101466,2009-05-01,JARMC,"Jaripo, Mich.",Jaripo,Michoacán de Ocampo,Villamar,Lerma-Santiago-Pacífico,19.958333,-102.601944,Riego,Río Jaripo,Libre,1951,1548.5,2.2,1580.42,9.265,1578.91,6.028,#¡VALOR!,1538.26,0.767,0.127239548772395
1101468,2009-05-01,JORSI,"Josefa Ortiz de Domínguez, Sin.",El Sabino,Sinaloa,El Fuerte,Pacífico Norte,26.426944,-108.7025,Riego,Río Alamos,Contr,1967,113.5,2.93,112.650001525879,695.44,109.5,518.928,44,106.19,353.43,0.681077143649986
1101469,2009-05-01,JSBCP,"Juan Sabines, Chis.",El Portillo II o Cuxtepeques,Chiapas,La Concordia,Frontera Sur,15.996389,-92.898611,Riego,Río Cuxtepeques,Libre,1981,620.25,1.97998,618.27001953125,116.110000610352,612.119995117188,68.1500015258789,46,603.9,29.086,0.426793827568075
1101471,2009-05-01,LBQCH,"La Boquilla, Chih.",Lago Toronto,Chihuahua,San Francisco de Conchos,Río Bravo,27.544722,-105.414167,Riego y Generación de Energia,Río Conchos,Libre,1916,1322,2.90002,1319.09997558594,3278.098,1317,2893.57104492188,80,1314.26,2442.71,0.844185251399607
1101474,2009-05-01,LDCJL,"Lago de Chapala, Jal.",Chapala,Jalisco,Chapala,Lerma-Santiago-Pacífico,20.18,-103.12,Riego y Uso Público Urbano,Río Lerma,Libre,1980,0,0,99,9279.7099609375,98,8126.41015625,,95.72,5541.96,0.681969023645415
1101476,2009-05-01,ELPSL,"Gonzalo N. Santos, S.L.P.",El Peaje,San Luis Potosí,San Luis Potosí,Cuencas Centrales del Norte,22.092222,-101.098611,Uso Público Urbano,Arroyo Grande o Azul,Libre,1953,2049.6,1.73,2047.87,8.995,2044.84997558594,6.685,38,2039.18,3.491,0.522213911742708
1101478,2009-05-01,ERCTP,"Estudiante Ramiro Caballero Dorantes, Tamps.",Las Ánimas,Tamaulipas,El Mante,Golfo Norte,22.605,-98.691667, Riego,Arrollo Las Ánimas,Libre,1976,55,2.45,52.5499992370605,654.37,51.7000007629395,563.443,31.2,47.91,297.8,0.528536160711909
1101479,2009-05-01,MOCMC,"Melchor Ocampo, Mich.",El Rosario,Michoacán de Ocampo,Angamacutiro,Lerma-Santiago-Pacífico,20.127222,-101.724444,Riego,Río Angulo,Libre,1975,1716.5,2.08997,1714.41003417969,249.843002319336,1711.90002441406,194.453994750977,29.5,1705.13,82.27,0.423082077101874
1101481,2009-05-01,NGRAG,"El Niagara, Ags.",El Niagara,Aguascalientes,Aguascalientes,Lerma-Santiago-Pacífico,21.78,-102.371667,Riego,Río Aguascalientes,Libre,1963,1833,0.599976,1832.40002441406,31.6949996948242,1828.40002441406,16.1879997253418,31.5,1826.22,10.983,0.678465541533613
1101483,2009-05-01,PAGDR,"Peña del Águila, Dgo.",Peña del Águila,Durango,Durango,Pacífico Norte,24.203889,-104.656667,Riego,Río La Sauceda,Libre,1954,1896.8,1.52998,1895.27001953125,54.7210006713867,1892.5,27.9479999542236,25,1891.13,22.533,0.806247317765388
1101485,2009-05-01,PERHD,"La Esperanza, Hgo.",La Esperanza,Hidalgo,Cuautepec de Hinojosa,Golfo Norte,20.0575,-98.334722,Riego,San Lorenzo,Libre,1943,2210.6,0.999902,2209.60009765625,4.19999980926514,2207.69995117188,3.92000007629395,27,2205.14,3.098,0.790306107067456
1101486,2009-05-01,PMDMX,"Madín, Méx.",Madín,Estado de México,Naucalpan de Juárez,Aguas del Valle de México,19.526944,-99.260833,Uso Público Urbano,Río Tlanepantla,Contr,1959,2348.5,2.46,2346.04,17.964,2336.294,9.37,73,2336.23,15.957,1.70298826040555
1101488,2009-05-01,PMNMX,"El Molino, Méx.",Molinitos,Estado de México,Naucalpan de Juárez,Aguas del Valle de México,20.124167,-99.739722,Riego,Zarco y El Posal,Libre,1980,2491,0,2385.09008789062,8.69999980926514,2384.38989257812,7.69000005722046,12,2379.19,1.094,0.14226267774508
1101490,2009-05-01,VILMC,"José María Morelos y Pavón, Mich.",La Villita,Michoacán de Ocampo,Lázaro Cárdenas,Balsas,18.048333,-102.180278,Riego y Generación de Energia,Río Balsas,Contr,1973,59.73,3,56.73,714.593,51.2,531.414,135.13,50.03,501.1,0.942955962771022
1101491,2009-05-01,VVCMX,"Villa Victoria, Méx.",Villa Victoria,Estado de México,Villa Victoria,Balsas,19.461667,-100.055556,Uso Público Urbano,Río San Juan Malacatepec,Libre,1944,2561.96,0,2607.5,252.029998779297,2605.5,185.723007202148,19,2599.66,50.119,0.269858865387897
1101494,2009-05-01,TXMHD,"Taxhimay, Hgo.",Taxhimay,Estado de México,Tepeji del Río de Ocampo,Aguas del Valle de México,19.835278,-99.385,Riego y Uso Público Urbano,Río San Luis de las Peras,Libre,1912,2217.05,7.05,2210,53.3,2208,42.749,39,2204.73,30.694,0.718005099534492
1101495,2009-05-01,VCVJL,"Vicente C. Villaseñor, Jal.",Valle de Juárez,Jalisco,Valle de Juárez,Lerma-Santiago-Pacífico,19.939722,-102.941667,Riego,Río Quitupán,Libre,1950,1880,2,1878,18.1200008392334,1877,14.4399995803833,18,1875.81,10.234,0.708725782367948
1101505,2009-05-01,PTRAG,"Derivadora Pabellón, Ags.",Der. Potrerillos,Aguascalientes,San José de Gracia,Lerma-Santiago-Pacífico,22.235,-102.4375,Riego,Río San Pedro,Libre,1931,2099.86,0,2093,2.09999990463257,2092.60009765625,2.03800010681152,33.94,2086.15,1.188,0.582924405170243
1101507,2009-05-01,PVAHD,"Vicente Aguirre, Hgo.",Las Golondrinas,Hidalgo,Alfajayucan,Aguas del Valle de México,20.435556,-99.375833,Riego,Río Alfajayucan,Libre,1954,1865.9,7.4,1858.5,21.7999992370605,1858.15002441406,20.7999992370605,27,1847.7,1.56,0.0750000027509837
1101509,2009-05-01,SBBMX,"José Antonio Alzate, Méx.",San Bernabé,Estado de México,Temoaya,Lerma-Santiago-Pacífico,19.465833,-99.704722,Riego,Río Lerma,Libre,1962,2567,1.58008,2566.919921875,52.5089988708496,2565.5,35.3120002746582,24,2559,3.318,0.0939623916570134
1101513,2009-05-01,SLDGJ,"La Soledad, Gto.",La Soledad,Guanajuato,Dolores Hidalgo Cuna de la Independencia Nacional,Lerma-Santiago-Pacífico,21.04,-101.279722,Uso Público Urbano,Río Santa Ana,Libre,1956,2211.4,2.2501,2209.14990234375,2.37100005149841,2207.75,1.85699999332428,51,2207.5,4.2,2.26171244754904
1101515,2009-05-01,SNJSL,"San José, S.L.P.",San José,San Luis Potosí,San Luis Potosí,Cuencas Centrales del Norte,22.150278,-101.054444,Uso Público Urbano,El Salado,Libre,1903,1955.5,0.359985,1955.14001464844,5.1399998664856,1953.78002929688,5.1399998664856,32,1947.19,1.392,0.270817127657196
1101519,2009-05-01,TENJL,"Tenasco, Jal.",Boquilla de Zaragoza,Jalisco,Santa María de los Ángeles,Lerma-Santiago-Pacífico,22.171944,-103.198611,Riego,Arroyo Tenasco,Libre,1960,1777,0,1724.83996582031,13.8500003814697,1722.84997558594,10.5,33,1720.75,7.895,0.751904761904762
1101520,2009-05-01,TEPMC,"Tepuxtepec, Mich.",Tepuxtepec,Michoacán de Ocampo,Contepec,Lerma-Santiago-Pacífico,20.000278,-100.229167,Riego y Generación de Energia,Río Lerma,Contr,1930,2352,2,2350,537.527,2347.56,425.2,47,2343.23,260.835,0.613440733772342
1101522,2009-05-01,TMUMC,"Tercer Mundo, Mich.",Chincua,Michoacán de Ocampo,Senguio,Lerma-Santiago-Pacífico,19.766389,-100.299167,Riego,Río chincua,Libre,1972,2431.2,2.41992,2428.580078125,17.3320007324219,2427.580078125,14.9720001220703,30,2417.86,0.766,0.0511621689657105
1101524,2009-05-01,LDFMC,"Laguna del Fresno, Mich.",Laguna del Fresno,Michoacán de Ocampo,Maravatío,Lerma-Santiago-Pacífico,20.038333,-101.940833,Riego,Canal El Fresno,Libre,1946,2059,2,2057,13.132,2055.98,10.299,8.8,2052.51,2.179,0.2115739392174
1101525,2009-05-01,LDYGJ,"Laguna de Yuriria, Gto.",B. de Tavamatacheo,Guanajuato,Yuriria,Lerma-Santiago-Pacífico,20.286944,-101.073056,Riego,Río Lerma,Contr,1550,0,0,1731.40002441406,325.195007324219,1730.92,278.789,10,1728.59,87.917,0.315353188253482
1101527,2009-05-01,LLNCH,"Ing. Luis L. León, Chih.",El Granero,Chihuahua,Guadalupe,Río Bravo,28.984444,-105.28,Riego,Río Conchos,Contr,1968,1053,2.5,1050.5,832.409,1034.80004882812,292.464996337891,62,1040.26,435.914,1.49048264051531
1101529,2009-05-01,LOBZC,"Manuel Felgueres, Zac.",Lobatos,Zacatecas,Valparaíso,Lerma-Santiago-Pacífico,22.845278,-103.382778,Riego,Río Pajaritos,Libre,1980,2082.3,2.12007,2080.17993164062,9.4350004196167,2077.05004882812,6.90500020980835,35,2075.68,6.478,0.938160724571477
1101531,2009-05-01,MABGJ,"Mariano Abasolo, Gto.",San Antonio de Aceves,Guanajuato,Pénjamo,Lerma-Santiago-Pacífico,20.504444,-101.931944,Riego,Arroyo los Otates,Libre,1971,1755,1.92,1753.08,23.946,1751.3,20.079,43,1740.4,4.56,0.227102943373674
1101533,2009-05-01,CHLMC,"Constitución de Apatzingán, Mich.",Chilatan,Jalisco,Apatzingán,Balsas,19.287778,-102.774167,Riego y Generación de Energia,Río Tepalcatepec,Libre,1990,440,2.32001,437.679992675781,807.150024414062,429.450012207031,590.025024414062,107,414.4,328.963,0.557540759100318
1101537,2009-05-01,CNTCL,"El Centenario, Coah.",El Centenario,Coahuila de Zaragoza,Jiménez,Río Bravo,29.213611,-100.95,Riego,Río San Diego,Libre,1935,338,1.62,336.380004882812,25.5200004577637,336.149993896484,24.5890007019043,17,335.87,23.271,0.9463987691943
1101539,2009-05-01,CPAMC,"Copándaro, Mich.",Copándaro De Corrales,Michoacán de Ocampo,Copándaro,Lerma-Santiago-Pacífico,20.001667,-102.861389,Riego,Canal la Estancia,Libre,1927,1999,9.79,1989.21,9.717,1998.5,6.5,9.2,1994.7,0.122,0.0187692307692308
1101541,2009-05-01,CRTJL,"El Cuarenta, Jal.",El Cuarenta,Jalisco,Lagos de Moreno,Lerma-Santiago-Pacífico,21.497778,-101.7375,Riego,Río de Lagos,Libre,1949,2004,2.05005,2001.94995117188,38.9599990844727,1998.75,30.625,42,1995.05,21.615,0.705795918367347
1101543,2009-05-01,DNXMX,"Danxhó, Méx.",Danxho,Estado de México,Jilotepec,Aguas del Valle de México,19.884722,-99.559722,Riego,Coscomate,Libre,1951,2455.6,0.470117,2455.1298828125,32.6699981689453,2454,31.0499992370605,31,2449.69,14.887,0.479452507755016
1101497,2009-05-01,VGRTP,"Vicente Guerrero, Tamps.",Las Adjuntas,Tamaulipas,Padilla,Golfo Norte,23.959444,-98.666389, Riego,Soto La Marina,Contr,1967,148,4.12001,144.039993286133,5498.22998046875,140.440002441406,3910.68994140625,62,136.3,2483.31,0.635005596763579
1101498,2009-05-01,VILZC,"José María Morelos, Zac.",La Villita,Zacatecas,Tepechitlán,Lerma-Santiago-Pacífico,21.588889000000002,-103.3375,Riego,Río San Pedro,Libre,1986,1833.2,2.01006,1831.18994140625,11.164999961853,1829,9.01799964904785,39.2,1825.86,7.316,0.811266387748468
1101501,2009-05-01,ZMPHD,"Ing. Fernando Hiriart Balderrama, Hgo.",Zimapán,Hidalgo,Zimapán,Golfo Norte,20.663333,-99.501111,Generación de Energia,Moctezuma,Contr,1990,1565,2,1563,1460.10998535156,1560,1390.10998535156,203,1550.22,1161.15,0.835293618660211
1101502,2009-05-01,POLJL,"Ing. Guillermo Lugo Sanabria, Jal.",La Pólvora,Jalisco,Degollado,Lerma-Santiago-Pacífico,20.491111,-102.231944,Riego,Río Huáscato,Libre,1989,1669.1,4.1,1665,55,1663.46,51.675,59.1,1653.96,30.274,0.58585389453314
1101503,2009-05-01,PRGHD,"Javier Rojo Gómez, Hgo.",La Peña,Hidalgo,Alfajayucan,Aguas del Valle de México,20.359722,-99.329444,Riego,Río Alfajayucan,Contr,1979,1980.96,1.3,1975.7,52.8,1974,46,60,1961.8,18.04,0.392173913043478
1101504,2009-05-01,PRQHD,"Requena, Hgo.",Requena,Hidalgo,Tepeji del Río de Ocampo,Aguas del Valle de México,19.963056,-99.310833,Riego,Río Tepeji,Mixto,1922,2116.59,1.5,2110.5,60.5299987792969,2108.9599609375,52.423999786377,38,2102.84,17.76,0.338776134449305
1101506,2009-05-01,PUCMC,"Pucuato, Mich.",Pucuato,Michoacán de Ocampo,Hidalgo,Balsas,19.621389,-100.684167,Riego,Río Pucuato,Libre,1946,2501.25,1.25,2500,11.534,2499,9.485,15,2476.06,2.868,0.302372166578809
1101508,2009-05-01,RMEGR,"Revolución Mexicana, Gro.",El Guineo,Guerrero,Ayutla de los Libres,Pacífico Sur,16.823611,-99.166111,Riego,Río Nexpa,Libre,1984,110.7,3.11,107.589996337891,260,94.4000015258789,126.694000244141,70.7,87.81,81.409,0.64256397179917
1101511,2009-05-01,SGBDR,"San Gabriel, Dgo.",Federalismo Mexicano,Durango,Ocampo,Río Bravo,26.436667,-105.560833,Riego,Río Florido,Libre,1991,1785.6,2.20999,1783.39001464844,377.338012695312,1777.90002441406,245.430999755859,48,1777.34,234.084,0.953767047491365
1101514,2009-05-01,SLSGJ,"Solís, Gto.",Solís,Guanajuato,Acámbaro,Lerma-Santiago-Pacífico,20.051667,-100.667222,Riego,Río Lerma,Contr,1949,1901.7,3,1898.7,1214.14,1892.30004882812,785.539978027344,56.7,1887.6,476.159,0.606155018609919
1101517,2009-05-01,SRSJL,"Santa Rosa, Jal.",Santa Rosa,Jalisco,Amatitán,Lerma-Santiago-Pacífico,20.908889,-103.705556,Riego,Río Santiago,Contr,1964,747,0.5,748,258.468,744,219.09,114,728.72,235.86,1.07654388607422
1101521,2009-05-01,TMLJL,"Ramón Corona Madrigal General, Jal.",Trigomil,Jalisco,Ayutla,Lerma-Santiago-Pacífico,19.976111,-104.370278,Riego,Río Ayuquila,Libre,1993,1209.34,2.94001,1209.35998535156,324,1201.40002441406,250,107,1189.2,159.281,0.637124
1101523,2009-05-01,TPTMX,"San Andrés Tepetitlán, Méx.",Tepetitlán,Estado de México,San Felipe del Progreso,Lerma-Santiago-Pacífico,19.660833,-99.961389,Riego,Río Jaltepec,Libre,1964,2597.38,2.92004,2594.4599609375,81.0289993286133,2592.02001953125,59.9659996032715,35,2587.92,38.932,0.649234570549476
1101526,2009-05-01,LFGCL,"La Fragua, Coah.",La Fragua,Coahuila de Zaragoza,Jiménez,Río Bravo,28.82,-100.832222,Riego,San Rodrigo,Libre,1993,306.68,2.00001,304.679992675781,85.379997253418,300.299987792969,47.2949981689453,24.7,300.34,47.628,1.007040952404
1101530,2009-05-01,LREZC,"Gobernador Leobardo Reynoso, Zac.",Trujillo,Zacatecas,Fresnillo,Cuencas Centrales del Norte,23.18,-103.216944,Riego,Los Lazos,Libre,1946,2131.85,2.31997,2129.53002929688,125.919998168945,2127.35009765625,95.7200012207031,40.34,2125.22,91.143,0.952183439591169
1101532,2009-05-01,CHICP,"Manuel Moreno Torres, Chis.",Chicoasén,Chiapas,Chicoasén,Frontera Sur,16.941667,-93.100556,Generación de Energia,Río Grijalva,Contr,1980,405,7,395,1443.08996582031,392.5,1384.85998535156,265,392.38,1382,0.997934819850516
1101540,2009-05-01,CPRNL,"José López Portillo, N.L.",Cerro Prieto,Nuevo León,Linares,Río Bravo,24.9375,-99.399722,Uso Público Urbano,Río Pablillo,Contr,1984,288,2.5,285.5,393,282.519989013672,300,50,283.07,315.588,1.05196
1101542,2009-05-01,DBOMC,"El Bosque, Mich.",El Bosque,Michoacán de Ocampo,Zitácuaro,Balsas,19.387778,-100.421111,Riego y Uso Público Urbano,Río Zitácuaro,Libre,1954,1745,2,1743,250.5,1741.40002441406,202.399993896484,70,1724.31,57.191,0.282564237769937
