idmonitoreodiario,fechamonitoreo,clavesih,nombreoficial,nombrecomun,estado,nommunicipio,regioncna,latitud,longitud,uso,corriente,tipovertedor,inicioop,elevcorona,bordolibre,nameelev,namealmac,namoelev,namoalmac,alturacortina,elevacionactual,almacenaactual,llenano
2207861,2024-04-15,LREHD,"Los Reyes, Hgo.","Omiltepec, Pue.",Hidalgo,Acaxochitlán,Golfo Centro,20.174722,-98.131944,RI,R. Omiltepec,Libre,1913,2168.5,1.5,2167,29.263,2165,24.031,30,2157.35,7.552,0.314260746535724
2207806,2024-04-15,GDLMX,"Guadalupe, Méx.","Guadalupe,Méx.",México,Cuautitlán Izcalli,Aguas del Valle de México,19.635556,-99.252222,RI,R. Cuautitlán,Libre,1936,2308.75,1.92993,2306.820068,64.08,2305.199951,56.91,33,2299.82,36.48,0.641012124406958
2207807,2024-04-15,CNPMX,"La Concepción, Méx.","La Concepción, Méx.",México,Tepotzotlán,Aguas del Valle de México,19.695,-99.304444,RI,R. Tepotzotlán,Libre,1949,2355.64,3.09996,2352.540039,12.599,2352.100098,12.111,39,2343.32,5.02,0.414499215589133
2207808,2024-04-15,PMDMX,"Madín, Méx.","Madín, Méx.",México,Naucalpan de Juárez,Aguas del Valle de México,19.526944,-99.260833,AP,R. Tlanepantla,Contr,1959,2348.5,2.46,2346.04,17.964,2336.29,9.37,75,2332.24,6.998,0.746851654215581
2207809,2024-04-15,PRGHD,"Javier Rojo Gómez, Hgo.","La Peña, Hgo.",Hidalgo,Alfajayucan,Aguas del Valle de México,20.359722,-99.329444,RI,R. Alfajayucan,Contr,1979,1980.96,1.3,1977.839,43.317,1976.84,39.99,60,1968.98,21.365,0.53425856464116
2207810,2024-04-15,TXMHD,"Taxhimay, Méx.","Taxhimay, Méx.",México,Villa del Carbón,Aguas del Valle de México,19.834722,-99.385278,RI,R. San Luis de las P,Libre,1912,2217.05,7.05,2216.1,47.386,2214.1,39.914,43,2209.5,23.945,0.59991481685624
2207811,2024-04-15,PRQHD,"Requena, Hgo.","Requena, Hgo.",Hidalgo,Tula de Allende,Aguas del Valle de México,19.963056,-99.310833,RI,R. Tula,Mixto,NA,2116.59,1.5,2110.3,61.519,2109,51.57,38,2102.89,15.328,0.297227070001939
2207812,2024-04-15,ENDHD,"Endhó, Hgo.","Endhó, Hgo.",Hidalgo,Tepetitlán,Aguas del Valle de México,20.163889,-99.36,RI,R. Tula,Libre,1951,2023,3,2020,208.65,2018,182.9,60,2009.83,95.422,0.521716785128485
2207813,2024-04-15,PVAHD,"Vicente Aguirre, Hgo.","Las Golondrinas, Hgo.",Hidalgo,Alfajayucan,Aguas del Valle de México,20.435556,-99.375833,RI,R. Alfajayucan,Libre,1954,1865.9,7.4,1855.5,19.685,1854.9,17.799,27,1844.69,0.454,0.0255070509579189
2207814,2024-04-15,SJATL,"San José Atlanga, Tlax.","Atlanga,Tlax.",Tlaxcala,Atlangatepec,Balsas,19.556111,-98.200556,RI,R. Zahuapán,Libre,1959,2500,2.32988,2486.870117,47.97,2486.399902,42.63,24.2,2484.02,20.979,0.492118226600985
2207815,2024-04-15,BDDPB,"Manuel Avila Camacho, Pue.","Valsequillo o Balcón del Diablo, Pue.",Puebla,Puebla,Balsas,18.9125,-98.108611,RI,R. Atoyac,Libre,1946,2064,2,2062,391.489,2059.02,300.654,85,2055.5,213.571,0.710354759956627
2207816,2024-04-15,YOSOX,"Yosocuta, Oax.",San Marcos Arteaga,Oaxaca,San Marcos Arteaga,Balsas,17.724444,-97.826111,RI/AP,Río Huajuapan,Libre,NA,1513.7,0,1512.55,57.26,1509.7,47.226,53.7,1502.1,27.62,0.58484732986067
2207817,2024-04-15,PUCMC,"Pucuato, Mich.","Pucuato, Mich.",Michoacán,Hidalgo,Balsas,19.621389,-100.684167,RI,A. Los Charcos,Libre,1946,2501.25,1.25,2500,11.534,2499,9.485,15,2494.28,2.381,0.251027938850817
2207818,2024-04-15,SABMC,"Sabaneta, Mich.","Sabaneta, Mich.",Michoacán,Hidalgo,Balsas,19.622778,-100.669444,RI,A. Los Charcos,Libre,1948,2494.9,2.05,2508.95,5.875,2508,5.043,17,2507.28,4.446,0.881618084473527
2207819,2024-04-15,AGOMC,"Agostitlán, Mich.","Mata de Pinos, Mich.",Michoacán,Hidalgo,Balsas,19.579722,-100.608889,RI,A. El Chaparro,Libre,1955,2379,1.16,2377.84,18.754,2376.6,15.675,25,2374.3,10.75,0.685805422647527
2207820,2024-04-15,DBOMC,"El Bosque, Mich.","El Bosque, Mich.",Michoacán,Zitácuaro,Balsas,19.387778,-100.421111,AP,Río San Juan,Libre,1954,1745,2,1743,220.1,1741.4,202.4,70,1730.96,103.496,0.511343873517786
2207821,2024-04-15,VBRMX,"Valle de Bravo, Méx.","Valle de Bravo, Méx.",México,Valle de Bravo,Balsas,19.2075,-100.18,AP,R. Valle de Bravo,Libre,1947,1835.37,2.5,1833,449.42,1830,394.39,56,1811.89,105.821,0.268315626663962
2207822,2024-04-15,VVCMX,"Villa Victoria, Méx.","Villa Victoria,Méx.",México,Villa Victoria,Balsas,19.461667,-100.055556,AP,R. San Juan Malacate,Libre,1944,2561.96,0,2607.5,249.943,2605.5,185.723,19,2599.7,50.727,0.273132568394867
2207823,2024-04-15,EGLGR,"El Gallo, Gro.","El Gallo, Gro.",Guerrero,Cutzamala de Pinzón,Balsas,18.703056,-100.671111,GH/RI,R. Cutzamala,Libre,1998,370.5,2.5,368,545.9660034,362.7799988,400.0390015,67.5,359.17,317.32,0.793222657816278
2207824,2024-04-15,RODMR,"El Rodeo, Mor.","El Rodeo, Mor.",Morelos,Miacatlán,Balsas,18.765278,-99.331389,RI,R. Tembembe,Libre,1974,1166.5,2.30005,1166.5,33.13700104,1164.199951,26.98399925,8,1153.12,3.223,0.119441153631072
2207825,2024-04-15,LDTGR,"Laguna de Tuxpan, Gro.","Laguna de Tuxpan, Gro.",Guerrero,Iguala de la Independencia,Balsas,18.363333,-99.503056,RI,Antiguo canal de riego,Libre,1937,744.75,0,743.3499756,19.50300026,742.8400269,17.64699936,8,741.65,13.47,0.763302572024346
2207826,2024-04-15,AFIGR,"Andrés Figueroa, Gro.","Las Garzas, Gro.",Guerrero,Ajuchitlán del Progreso,Balsas,18.075833,-100.5175,RI,R. Ajuchitán,Libre,1984,385,2.39001,382.6099854,133.029,377,102.5,72.5,362.55,48.34,0.471609756097561
2207827,2024-04-15,VTRGR,"Valerio Trujano, Gro.","Tepecoacuilco, Gro.",Guerrero,Tepecoacuilco de Trujano,Balsas,18.295833,-99.466111,AP/RI,R. Tepecoacuilco,Libre,1964,844.3,1.51997,842.7800293,51.727,840,31.014,33.3,833.13,5.977,0.192719417037466
2207828,2024-04-15,VGRGR,"Vicente Guerrero, Gro.","Palos Altos, Gro.",Guerrero,Arcelia,Balsas,18.382778,-100.265833,AP/RI,R. Poliutla,Libre,1968,433,2.70001,430.2999878,300,425,249.49,67.5,412.11,120.36,0.482424145256322
2207829,2024-04-15,LCLGR,"La Calera, Gro.","La Calera, Gro.",Guerrero,Zirándaro,Balsas,18.418611,-101.003056,RI,R. Chiquito o El Oro,Libre,1964,124.3,1.68,122.6200027,34.1928,118,9.393,31.8,117.3,7.448,0.792930905993825
2207830,2024-04-15,ECAGR,"Ing. Carlos Ramírez Ulloa, Gro.","El Caracol, Gro.",Guerrero,General Heliodoro Castillo,Balsas,17.947778,-99.995556,GH,R. Balsas,Contr,1986,526,2.4,523.6,1183.23,521,1057.29,126,513.27,758.814,0.717697131345231
2207891,2024-04-15,SLSGJ,"Solís, Gto.","Solis, Gto.",Guanajuato,Acámbaro,Lerma-Santiago-Pacífico,20.055278,-100.669722,RI,R. Lerma,Contr,1949,1901.7,3,1898.7,1214.14,1892.54,800,56.7,1887.25,511.215,0.63901875
2207892,2024-04-15,PFBMX,"Francisco José Trinidad Fabela, Méx.","Islas de las Aves o El Salto, Méx.",México,Atlacomulco,Lerma-Santiago-Pacífico,19.829167,-99.790278,RI,R. Del Salto,Libre,1945,2697.5,1.69995,2697.800049,12.32,2696.699951,9.93,19.15,2691.07,1.835,0.184793554884189
2207893,2024-04-15,LDYGJ,"Laguna de Yuriria, Gto.","Bordo de Tavamatacheo, Gto.",Guanajuato,Yuriria,Lerma-Santiago-Pacífico,20.286944,-101.073056,RI,R. Lerma,Contr,1550,0,0,1731.400024,325.1950073,1730.92,278.79,10,1727.03,12.339,0.0442591197675669
2207894,2024-04-15,TMUMC,"Tercer Mundo, Mich.","Chincua, Mich.",Michoacán,Senguio,Lerma-Santiago-Pacífico,19.766389,-100.299167,RI,R. Chincua,Libre,1972,2431.2,2.41992,2428.580078,17.33200073,2427.580078,14.97200012,32,2424.44,8.601,0.574472343779275
2207895,2024-04-15,COIMC,"Cointzio, Mich.","Cointzio, Mich.",Michoacán,Morelia,Lerma-Santiago-Pacífico,19.629722,-101.259167,AP/RI,R. Grande de Morelia,Contr,1939,1997,1.50005,2001.319946,79.23300171,1999.47,68.52,46,1988.51,22.891,0.334077641564506
2207896,2024-04-15,MLPMC,"Malpaís, Mich.","La Ciénega, Mich.",Michoacán,Queréndaro,Lerma-Santiago-Pacífico,19.829167,-100.873611,RI,R. Quérendaro,Mixto,1938,1830.96,1,1843.56,27.249,1842.530029,18.512,7,1841.05,9.01,0.486711322385479
2207897,2024-04-15,PRSGJ,"La Purísima, Gto.","La Purísima, Gto.",Guanajuato,Guanajuato,Lerma-Santiago-Pacífico,20.867222,-101.287778,RI,R. Guanajuato,Contr,NA,1863,0,1860.7,181.926,1853.47,110,43,1844.06,44.339,0.403081818181818
2207898,2024-04-15,SLDGJ,"La Soledad, Gto.","La Soledad, Gto.",Guanajuato,Guanajuato,Lerma-Santiago-Pacífico,21.04,-101.279722,AP,R. Santa Ana,Libre,1956,2211.4,2.2501,2209.149902,2.371000051,2207.75,1.857,51,2200.64,0.131,0.0705438879913839
2207899,2024-04-15,EPLGJ,"El Palote, Gto.","El Palote, Gto.",Guanajuato,León,Lerma-Santiago-Pacífico,21.173611,-101.678889,AP,R. De Los Gómez,Libre,1954,1839.5,0.9,1838.6,17.161,1836.15,9.643,20.5,1830.91,0.221,0.0229181789899408
2207900,2024-04-15,GLNGJ,"La Golondrina, Gto.","La Golondrina,Gto.",Guanajuato,Pénjamo,Lerma-Santiago-Pacífico,20.439167,-101.7425,RI,R. Penjamo,Libre,1968,1838.7,1.58,1837.119995,5.96999979,1835.199951,4.670000076,45.7,1824.05,0.579,0.123982867361306
2207901,2024-04-15,MOCMC,"Melchor Ocampo, Mich.","El Rosario, Mich.",Michoacán,Angamacutiro,Lerma-Santiago-Pacífico,20.127222,-101.724444,RI,R. Angúlo,Libre,1975,1716.5,2.08997,1714.410034,249.8430023,1711.900024,194.4539948,34,1708.54,128.81,0.662418893129368
2207902,2024-04-15,AMEMC,"Aristeo Mercado, Mich.","Wilson ,Mich.",Michoacán,Jiménez,Lerma-Santiago-Pacífico,19.926111,-101.661111,RI,A. sin nombre,Libre,1926,1999.83,6.03,1993.8,28.305,1993.5,25.344,9.2,1989.96,2.702,0.106613005050505
2207903,2024-04-15,PTZMC,"Pátzcuaro, Mich.","Pátzcuaro, Mich.",Michoacán,Pátzcuaro,Lerma-Santiago-Pacífico,19.542778,-101.616944,RI,R. Jaripo,Libre,NA,\N,0,2042.35,1135.573,2038.57,646.582,\N,2035.45,336.61,0.52059908874667
2207904,2024-04-15,LANMC,"Los Angeles, Mich.",Tres Mezquites,Michoacán,José Sixto Verduzco,Lerma-Santiago-Pacífico,20.248889,-101.626667,RI,C. El Alto Las Cañas,Libre,NA,1689.95,0,1688.45,17.096,1687.95,14.59,10,1684,0.458,0.0313913639479095
2207905,2024-04-15,LDFMC,"Laguna del Fresno, Mich.","Laguna del Fresno, Mich.",Michoacán,Maravatío,Lerma-Santiago-Pacífico,19.838056,-100.406389,RI,R. Cachiví,Libre,1946,2059,2,2057,13.132,2055.98,10.299,8.8,2051.83,1.292,0.125449072725507
2207906,2024-04-15,MABGJ,"Mariano Abasolo, Gto.","San Antonio de Aceves, Gto.",Guanajuato,Pénjamo,Lerma-Santiago-Pacífico,20.507222,-101.931111,RI,A. los Otates,Libre,1971,1755,1.92,1753.08,23.946,1751.3,20.079,43,1744.39,8.377,0.417202051895014
2207907,2024-04-15,CPAMC,"Copándaro, Mich.","Copándaro de Dolores, Mich.",Michoacán,Jiquilpan,Lerma-Santiago-Pacífico,20.001667,-102.861389,RI,R. La Patera,Libre,1927,1999,9.79,1989.209,9.717,1987.659,2.752,5.7,1995.36,0.211,0.0766715116279069
2207908,2024-04-15,HRTJL,"Hurtado, Jal.","Valencia, Jal.",Jalisco,Acatlán de Juárez,Lerma-Santiago-Pacífico,20.466944,-103.651111,RI,A. San Antonio,Libre,1879,1464,1.34,1462.66,22.624,1462.66,22.624,10.35,1459.99,9.046,0.399840876944837
2207909,2024-04-15,JARMC,"Jaripo, Mich.","Jaripo, Mich.",Michoacán,Villamar,Lerma-Santiago-Pacífico,19.958333,-102.601944,RI,A. sin nombre,Libre,1951,1548.5,2.2,1580.42,9.265,1578.91,6.028,20,1576.51,2.189,0.363138686131386
2207910,2024-04-15,GUAMC,"Guaracha, Mich.","San Antonio, Mich.",Michoacán,Villamar,Lerma-Santiago-Pacífico,19.979167,-102.541389,RI,A. sin nombre,Libre,1913,1596.72,0,1580.11,29.79,1580.01,28.677,8,1577.37,4.393,0.153188966767793
2207911,2024-04-15,UREMC,"Urepetiro, Mich.","Urepetiro, Mich.",Michoacán,Tlazazalca,Lerma-Santiago-Pacífico,19.962222,-102.137778,RI,R. Tlazazalca,Libre,1964,1752.5,1.5,1745.68,10.923,1745,8.282,31,1741.91,2.558,0.30886259357643
2207912,2024-04-15,POLJL,"Ing. Guillermo Lugo Sanabria, Jal.","La Pólvora, Jal.",Jalisco,Degollado,Lerma-Santiago-Pacífico,20.491111,-102.231944,RI,R. Huascato,Libre,1989,1669.1,4.1,1665,56.15,1663.46,51.675,69,1647.85,20.175,0.390420899854862
2207913,2024-04-15,DGNMC,"De Gonzalo, Mich.","De Gonzalo, Mich.",Michoacán,Vista Hermosa,Lerma-Santiago-Pacífico,20.304444,-102.436944,RI,A. sin nombre,Libre,1890,1535.83,0.93,1534.9,10,1533.88,8.837,10,1531.6,0.098,0.0110897363358605
2207914,2024-04-15,LDCJL,"Lago de Chapala, Jal.","Chapala, Jal.",Jalisco,Chapala,Lerma-Santiago-Pacífico,20.290556,-103.201667,AP,R. Lerma,Libre,NA,0,0,99,9279.71,98,8126.41,0,93.64,3340.622,0.411082138361219
2207915,2024-04-15,LCLJL,"La Colonia, Jal.","La Colonia, Jal.",Jalisco,Zapotlán del Rey,Lerma-Santiago-Pacífico,20.43,-102.931944,RI,A. Los Sabinos,Libre,1927,0,0,103.4000015,6.5,103,5.775,6,102.55,4.421,0.765541125541125
2207916,2024-04-15,CHLJL,"Chila, Jal.","Chila, Jal.",Jalisco,Zapotlán del Rey,Lerma-Santiago-Pacífico,20.489722,-102.944167,RI,A. Chila,Libre,1945,1525.88,1,99,1,98.7,0.762,10,98.67,0.756,0.992125984251968
2207917,2024-04-15,BATQT,"El Batán, Qro.",Los Arcos,Querétaro,Corregidora,Lerma-Santiago-Pacífico,20.504167,-100.412222,RI,Río El Pueblito,Libre,NA,1914.85,0,1905.15,8.042,1902.1,5.791,45.5,1886.98,0.442,0.076325332412364
2207918,2024-04-15,IALGJ,"Ignacio Allende, Gto.","La Begoña, Gto.",Guanajuato,San Miguel de Allende,Lerma-Santiago-Pacífico,20.848056,-100.825833,RI,R. de la Laja,Contr,1968,1834.7,2.04998,1833.33,241.41,1830.75,170.79,43,1821.11,23.281,0.136313601498916
2207919,2024-04-15,PNLGJ,"Peñuelitas, Gto.","Peñuelitas, Gto.",Guanajuato,Dolores Hidalgo Cuna de la Independencia Nacional,Lerma-Santiago-Pacífico,21.105,-100.878333,RI,R. De la Erre,Libre,1960,1908.2,0.91,1907.29,30.169,1904.7,17.46,28,1896.54,0.008,4.58190148911798e-4
2207949,2024-04-15,EXCZC,"Miguel Alemán, Zac.","Excamé, Zac.",Zacatecas,Tepechitlán,Lerma-Santiago-Pacífico,21.645833,-103.35,RI,R. Tlaltenango,Contr,1949,1707,2.5,1704.5,70.91999817,1703.4,64.53,48,1690.16,13.667,0.211792964512629
2207950,2024-04-15,VILZC,"José María Morelos, Zac.","La Villita, Zac.",Zacatecas,Tepechitlán,Lerma-Santiago-Pacífico,21.588889000000002,-103.3375,RI,A. San Pedro,Libre,1986,1833.2,2.01006,1831.189941,11.16499996,1829,9.017999649,39.2,1822.21,4.359,0.483366618946738
2207951,2024-04-15,TCTJL,"Tacotán, Jal.","Tacotán, Jal.",Jalisco,Unión de Tula,Lerma-Santiago-Pacífico,20.036111,-104.320278,RI,R. Ayutla,Libre,1960,1407.5,1.20996,1406.290039,169,1403.060059,149.2389984,68.5,1387,81.55,0.546438939381142
2207952,2024-04-15,BBAJL,"Basilio Vadillo, Jal.","Las Piedras, Jal.",Jalisco,El Limón,Lerma-Santiago-Pacífico,19.913611,-104.061111,RI,R. Tuxcacuesco,Libre,1973,982.8,2.7,978.97,146.888,974.35,124.75,96,964.22,83.27,0.667494989979959
2207953,2024-04-15,TMLJL,"Ramón Corona Madrigal General, Jal.","Trigomil, Jal.",Jalisco,Ayutla,Lerma-Santiago-Pacífico,19.976111,-104.370278,RI,R. Ayuquila,Libre,1993,1209.34,2.94001,1209.359985,324,1201.400024,250,107,1184.47,131.39,0.525559999999999
2207954,2024-04-15,CRNJL,"Corrinchis, Jal.",Corrinchis,Jalisco,Mascota,Lerma-Santiago-Pacífico,20.479722,-104.780833,RI,Río Mascota,Libre,NA,1337,0,1336.1,29,1332.6,20,38,1329.49,13.658,0.6829
2207955,2024-04-15,VEGJL,"Ing. Santiago Camarena, Jal.","La Vega, Jal.",Jalisco,Teuchitlán,Lerma-Santiago-Pacífico,20.596389,-103.845833,RI,R. Ameca,Libre,1960,1261,2.14001,1258.859985,80,1257,44.03499985,18,1256.46,34.938,0.793414332213288
2207956,2024-04-15,LDACM,"Laguna de Amela, Col.","Tecomán, Col.",Colima,Tecomán,Lerma-Santiago-Pacífico,18.809167,-103.774167,RI,Canal Bajo Amela y Dren Zanja,Libre,NA,10.89,3.25,7.64,41.3,7.39,38.343,6.35,6.24,25.868,0.674647262864147
2207957,2024-04-15,TRJCM,"Solidaridad, Jal.","Trojes, Jal.",Jalisco,Pihuamo,Lerma-Santiago-Pacífico,18.967222,-103.396667,RI,R. El Cajón,Libre,1994,303.6,0,301.11,285.742,292.37,203.388,87,284.1,143.559,0.705838102542922
2207958,2024-04-15,CPEJL,"Cajón de Peña, Jal.","Tomatlán, Jal.",Jalisco,Tomatlán,Lerma-Santiago-Pacífico,19.9975,-105.129722,RI,R. Tomatlán,Contr,1976,142,2.8,139.2,707.62,131.66,500,68,126,365.718,0.731436
2207959,2024-04-15,VCVJL,"Vicente C. Villaseñor, Jal.","Valle de Juárez, Jal.",Jalisco,Valle de Juárez,Lerma-Santiago-Pacífico,19.939722,-102.941667,RI,R. Quitupan,Libre,1950,1880,2,1878,18.12000084,1877,14.43999958,18,1875.84,10.316,0.71440445291204
2207960,2024-04-15,LCDSO,"Lázaro Cárdenas, Son.","La Angostura, Son.",Sonora,Nacozari de García,Noroeste,30.437778,-109.378889,RI,R. Bavispe,Libre,1942,843.75,3.59998,840.1500244,1116.459961,830.7000122,703.3800049,91.75,810.04,133.131,0.189273222259036
2207961,2024-04-15,PECSO,"Plutarco Elías Calles, Son.","El Novillo, Son.",Sonora,Soyopa,Noroeste,28.976667,-109.642222,GH,R. Yaqui,Contr,1964,297.8,1.00001,296.8,3511.96,290.5,2833.07,133.8,248.45,363.629,0.128351576205317
2207962,2024-04-15,AOBSO,"Alvaro Obregón, Son.","Oviachic, Son.",Sonora,Cajeme,Noroeste,27.8225,-109.8925,AP/GH/RI,R. Yaqui,Libre,1952,115.1,2.9,112.1999969,4478.215,105.5,3023.14,90,81.56,408.776,0.135215702878464
2207963,2024-04-15,AGZCH,"Abraham González, Chih.","Guadalupe, Chih.",Chihuahua,Guerrero,Noroeste,28.481667,-107.482778,RI,R. Papigochi,Libre,1961,2052.9,1.59995,2051.300049,102.891,2047.800049,79.354,41.9,2035.26,20.023,0.25232502457343
2207964,2024-04-15,IRASO,"Ignacio R. Alatorre, Son.","Punta de Agua, Son.",Sonora,Guaymas,Noroeste,28.426389,-110.396944,RI,R. San Marcial o Mátape,Libre,1972,105,2.29,102.7099991,29.69000053,100,16.15999985,30,91.2,0,0
2207965,2024-04-15,ARCSO,"Adolfo Ruiz Cortines, Son.","Mocúzari, Son.",Sonora,Alamos,Noroeste,27.226111,-109.106667,AP/GH/RI,Río Mayo,Mixto,1955,148,2.53,145.4700012,1822.141,138.46,1200,88.5,97.51,9.658,0.00804833333333333
2207966,2024-04-15,CHTSO,"Cuauhtémoc, Son.","Santa Teresa, Son.",Sonora,Tubutama,Noroeste,30.873333,-111.516389,RI,R. Altar,Libre,1950,603,2.75,600.25,66.33000183,597,41.47000122,57.2,585.2,1.25,0.0301422706348307
2207967,2024-04-15,AGCSO,"Agua Caliente, Son.",Dique 10,Sonora,Cajeme,Noroeste,27.75,-109.887778,RI,Canal Alto Oviachic,Libre,NA,100.85,0,79.6,41.16,79.1,37.58,8.35,75.82,18.024,0.479616817456093
2207968,2024-04-15,ARLSO,"Abelardo Rodríguez Luján, Son.","Hermosillo, Son.",Sonora,Hermosillo,Noroeste,29.076667,-110.92,AP,R. Sonora,Contr,1948,231.6,3.20001,228.3999939,284.4700012,226.98,219.52,36,214,0,0
2207969,2024-04-15,PMOSO,"Ing. Rodolfo Félix Valdés, Son.","El Molinito, Son.",Sonora,Hermosillo,Noroeste,29.2125,-110.725556,AP,R. Sonora,Libre,NA,295.4,2.00001,293.4,222.47,289.36,121.202,31.4,277.66,8.921,0.0736043959670632
2207970,2024-04-15,CRRBN,"El Carrizo, B.C.","El Carrizo, B.C.",Baja California,Tijuana,Península de Baja California,32.479444,-116.696944,AP,A. Carrizo,Libre,1978,288.34,2.12,286.2200012,44.58499908,284.7000122,40.86600113,55.8,278.17,26.812,0.656095513595949
2207971,2024-04-15,ALRBN,"Abelardo L. Rodríguez, B.C.","Tijuana, B.C.",Baja California,Tijuana,Península de Baja California,32.444722,-116.908333,AP,R. Tijuana,Contr,1937,127,2,125,121.392,115.85,76.9,72,107.36,43.081,0.560221066319896
2207972,2024-04-15,AURBN,"Las Auras, B.C.",NA,Baja California,Tecate,Península de Baja California,32.544722,-116.531667,AP,A. Las Auras,Libre,NA,822,0,822,5.1,820,5.01,40,814.974,2.949,0.588622754491018
2207973,2024-04-15,ELZBN,"Emilio López Zamora, B.C.","Ensenada, B.C.",Baja California,Ensenada,Península de Baja California,31.890278,-116.6025,AP,A. Ensenada,Libre,1978,27,1.74,25.26000023,6.342000008,19.88999939,2.732000113,34,21.27,3.39,1.24084914340558
2207974,2024-04-15,LDCSI,"Luis Donaldo Colosio, Sin.","Huites, Sin.",Sinaloa,Choix,Pacífico Norte,26.844722,-108.367778,GH,R. Fuerte,Contr,1995,290.75,0.75,290,4567.08,274,3202.16,164.75,216.09,524.464,0.163784445499288
2207975,2024-04-15,PMHSI,"Miguel Hidalgo, Sin.","El Mahoné, Sin.",Sinaloa,El Fuerte,Pacífico Norte,26.509722,-108.58,AP/GH/RI,R. Fuerte,Mixto,1956,151.4,3.4,148,4171.273,140.83,3096.63,81,105.38,246.232,0.0795161191359639
2207976,2024-04-15,JORSI,"Josefa Ortiz de Domínguez, Sin.","El Sabino, Sin.",Sinaloa,El Fuerte,Pacífico Norte,26.426944,-108.7025,AP/RI,A. Alamos,Contr,1967,113.5,2.93,112.6500015,685.11,109.5,519.28,44,93.59,53.021,0.102104837467262
2207977,2024-04-15,GDOSI,"Gustavo Díaz Ordaz, Sin.","Bacurato, Sin.",Sinaloa,Sinaloa,Pacífico Norte,25.856667,-107.911111,AP/GH/RI,R. Sinaloa,Contr,1981,256,3.5,252.5,2687.074,237.06,1618.751,116,205.25,352.751,0.217915541056036
2207978,2024-04-15,GBESI,"Ing. Guillermo Blake Aguilar, Sin.","El Sabinal, Sin.",Sinaloa,Sinaloa,Pacífico Norte,26.103056,-108.3275,AP/RI,A. Ocoroni,Libre,1985,201.2,4.59,196.6100006,469.2,188.4499969,294.578,81.2,170.26,74.844,0.254071926620453
2207979,2024-04-15,EBLSI,"Lic. Eustaquio Buelna, Sin.","Guamúchil, Sin.",Sinaloa,Salvador Alvarado,Pacífico Norte,25.484722,-108.065556,AP/RI,R. Mocorito,Contr,1972,71.2,2.35,68.84999847,264.9500122,63.54,80.08,41,58.23,11.553,0.144268231768231
2207980,2024-04-15,ALMSI,"Adolfo López Mateos, Sin.","El Humaya o El Varejonal, Sin.",Sinaloa,Badiraguato,Pacífico Norte,25.101389,-107.388333,AP/RI,R. Humaya,Libre,1964,186.5,3.02,183.4799957,4034.52002,176,3086.610107,105.5,132.36,221.899,0.0718908421561777
2207981,2024-04-15,JGRSI,"Juan Guerrero Alcocer, Sin.","Vinoramas, Sin.",Sinaloa,Culiacán,Pacífico Norte,24.753611,-107.059444,RI,A. El Bledal,Libre,1994,178.3,2.02,176.2799988,102,168.5,54.684,50,152.22,7.006,0.128117913832199
2207982,2024-04-15,SNLSI,"Sanalona, Sin.","Sanalona, Sin.",Sinaloa,Culiacán,Pacífico Norte,24.815,-107.151389,AP/GH/RI,R. Tamazula,Libre,1948,165,2.83,162.17,987.522,156.2,687.988,81,133.08,73.167,0.106349238649511
2207983,2024-04-15,JLPSI,"José López Portillo, Sin.","Comedero, Sin.",Sinaloa,Cosalá,Pacífico Norte,24.571667,-106.807222,AP/GH/RI,R. San Lorenzo,Contr,1981,290,4.54999,286.9500122,3966.169922,272.16,2580.19,136,222.31,305.482,0.118395156945806
2207984,2024-04-15,CBRDR,"Caboraca, Dgo.","Canoas, Dgo.",Durango,Canatlán,Pacífico Norte,24.538333,-104.810278,RI,R. La Sauceda,Libre,1992,2003.75,2.46997,2001.280029,57.88000107,1998.25,45,37,1992.16,23.627,0.525044444444444
2207985,2024-04-15,PAGDR,"Peña del Aguila, Dgo.","Peña Del Aguila, Dgo.",Durango,Durango,Pacífico Norte,24.203889,-104.656667,RI,R. La Sauceda,Libre,1954,1896.8,1.52998,1895.27002,54.902,1892.5,27.948,25,1886.66,3.577,0.127987691426935
2207986,2024-04-15,GVCDR,"Presidente Guadalupe Victoria, Dgo.","El Tunal, Dgo.",Durango,Durango,Pacífico Norte,23.961111,-104.753056,RI,R. Tunal,Mixto,1962,1934.8,1.69,1934.61,94.617,1931,78.06,72.8,1920.41,38.932,0.498744555470151
2207987,2024-04-15,SBYDR,"Santiago Bayacora, Dgo.","Santiago Bayacora, Dgo.",Durango,Durango,Pacífico Norte,23.874444,-104.675833,RI,R. Santiago Bayacora,Libre,1990,1962,0.810059,1965.939941,169.8690033,1959.01001,130.0469971,66.75,1950.85,92.45,0.710896845460493
2207988,2024-04-15,FVLDR,"Francisco Villa, Dgo.","El Bosque, Dgo.",Durango,Poanas,Pacífico Norte,24.001667,-103.960833,RI,R. Poanas,Libre,1968,1998.7,2.57,1996.130005,96.56999969,1993,73.26000214,58.7,1989.32,51.047,0.696792226438228
2207989,2024-04-15,SLTSI,"Ing. Aurelio Benassini Vizcaíno, Sin.","El Salto o Elota, Sin.",Sinaloa,Elota,Pacífico Norte,24.121944,-106.695833,RI,R. Elota,Libre,1988,167.1,2.46,164.6399994,815.592,154.5,403.9,73,140.35,120.591,0.298566476850705
2207990,2024-04-15,SELDR,"Santa Elena, Dgo.","Santa Elena, Dgo.",Durango,Súchil,Pacífico Norte,23.623056,-104.054444,RI,R. Graseros,Libre,1977,2002.75,1.14001,2001.61,18.766,1999.8,15.08,30.75,1989.68,2.178,0.144429708222811
2207991,2024-04-15,RMEGR,"Revolución Mexicana, Gro.","El Guineo, Gro.",Guerrero,Ayutla de los Libres,Pacífico Sur,16.823611,-99.166111,RI,R. Nexpa,Libre,1984,110.7,3.11,107.5899963,259.502,94.40000153,126.694,70.7,91.18,103.07,0.813534974031919
2207992,2024-04-15,JDMOX,"Presidente Benito Juárez, Oax.","Bordo Benito Juárez, Oax.",Oaxaca,Santa María Jalapa del Marqués,Pacífico Sur,16.445556,-95.397778,RI,R. Tehuantepec,Libre,1961,138.4,2.64999,139.8500061,1726.747,124.25,720.317,85.5,109.67,218.056,0.302722273665622
2207993,2024-04-15,LBQCH,"La Boquilla, Chih.","Lago de Toronto, Chih.",Chihuahua,San Francisco de Conchos,Río Bravo,27.544722,-105.414167,GH/RI,R. Conchos,Libre,1916,1322,2.90002,1319.1,3192.75,1317,2846.78,82,1300.6,933.82,0.328026753033251
2207994,2024-04-15,SGBDR,"San Gabriel, Dgo.","San Gabriel, Dgo.",Durango,Ocampo,Río Bravo,26.436667,-105.560833,RI,R. Florido,Libre,1991,1785.6,2.20999,1783.390015,377.3380127,1777.900024,245.4309998,48,1770.29,117.97,0.480664627109586
2207995,2024-04-15,PAGCH,"Pico del Aguila, Chih.","Pico Del Aguila, Chih.",Chihuahua,Coronado,Río Bravo,26.546389,-105.254167,RI,R. Florido,Libre,1993,1625.9,2.5,1619,59.843,1616.900024,48.276,42,1610.3,20.199,0.418406661695252
2207996,2024-04-15,FIMCH,"Las Vírgenes, Chih.","Francisco I. Madero, Chih.",Chihuahua,Rosales,Río Bravo,28.166111,-105.628889,RI,R. San Pedro,Libre,1949,1243.8,1.23994,1242.560059,477.6220093,1239.3,333.32,57,1230,104.161,0.312495499819992
2207997,2024-04-15,LLNCH,"El Granero, Chih.","Ing. Luis L. León, Chih.",Chihuahua,Aldama,Río Bravo,28.984444,-105.28,RI,R. Conchos,Contr,1968,1053,2.5,1050.5,824.76181,1034.8,284.382,62,1033.21,249.993,0.879074624976264
2207998,2024-04-15,CHUCH,"Chihuahua, Chih.","Chihuahua, Chih.",Chihuahua,Chihuahua,Río Bravo,28.570556,-106.167778,AP,R.Â Chuviscar,Libre,1960,1546,1.71997,1544.280029,35.63100052,1540.819946,23.38299942,58,1537.25,14.201,0.60732157346134
2207999,2024-04-15,ERECH,"El Rejón, Chih.","El Rejón, Chih.",Chihuahua,Chihuahua,Río Bravo,28.614722,-106.119444,AP,A. El Rejón,Libre,1966,1479.8,1.48005,1478.319946,7.7550001139999996,1477,6.528,33,1476,5.685,0.870863970588235
2208000,2024-04-15,PAZCH,"Piedras Azules, Chih.",NA,Chihuahua,Allende,Río Bravo,27.249167,-105.211111,RI,Río Parral,Libre,NA,2000,0,1998.42,13.194,1996.5,8.712,22,1995.2,6.25,0.717401285583103
2208001,2024-04-15,CILAAMSMX,"Internacional La Amistad, Coah.","La Amistad, Coah.",Coahuila de Zaragoza,Acuña,Río Bravo,29.446944,-101.057222,AP/RI,R. Bravo,Contr,1968,351.22,0,349.03,2707.437,340.46,1769.66,87.57,320.3,192.033,0.108514064848614
2208002,2024-04-15,CNTCL,"El Centenario, Coah.","El Centenario, Coah.",Coahuila de Zaragoza,Jiménez,Río Bravo,29.213611,-100.95,RI,R. San Diego,Libre,1935,338,1.62,336.3800049,25.711,336.1499939,24.5890007,17,334.35,16.96,0.689739294692036
2208003,2024-04-15,SMGCL,"San Miguel, Coah.","San Miguel, Coah.",Coahuila de Zaragoza,Jiménez,Río Bravo,29.034167,-100.953889,AP/RI,R. San Diego,Libre,1935,343.5,1.54001,341.9599915,22.19300079,341.7399902,21.16799927,15,340.91,17.637,0.833191638710785
2208004,2024-04-15,LFGCL,"La Fragua, Coah.","La Fragua, Coah",Coahuila de Zaragoza,Jiménez,Río Bravo,28.82,-100.832222,RI,R. San Rodrigo,Libre,1993,306.68,2.00001,303.96,85.37999725,300.2999878,47.29499817,24.7,297.45,27.351,0.578306397257653
2208005,2024-04-15,CILAFLCMX,"Internacional Falcón, Tamps.","Falcón, Tamps.",Tamaulipas,Guerrero,Río Bravo,26.560278,-99.170556,AP/RI,R. Bravo,Contr,1953,98.45,0,93.482,1607.962,91.81,1351.63,50,81.59,523.392,0.387230233125929
2208006,2024-04-15,PSANL,"Salinillas, N.L.","Salinillas, N.L.",Nuevo León,Anáhuac,Río Bravo,27.429167,-100.372222,RI,R. Salado,Libre,1930,0,0,232,19.01099968,232,19.01099968,10,230.62,12.76,0.671190374771496
2208007,2024-04-15,VCRCL,"Venustiano Carranza, Coah.","Don Martín, Coah.",Coahuila de Zaragoza,Juárez,Río Bravo,27.515,-100.616111,AP/RI,R. Sabinas,Contr,1932,265.8,4.00001,261.7999878,1322.372,259.24,874.1,38.86,251.96,155.601,0.17801281317927
2208008,2024-04-15,LBCNL,"Rodrigo Gómez, N.L.","La Boca, N.L.",Nuevo León,Santiago,Río Bravo,25.428056,-100.128056,AP,A. La Chueca - San Juan,Contr,1961,450.04,0.839988,449.2000122,42.657,448.54,39.49,34,441.76,14.571,0.368979488478095
2207831,2024-04-15,LOLMC,"Los Olivos, Mich.","Los Olivos, Mich.",Michoacán,Tepalcatepec,Balsas,19.210833,-102.865556,RI,Los Otates,Libre,1961,423,2,421,16.27099991,418,10.26200008,37,413.37,4.129,0.402358211636264
2207832,2024-04-15,SJUMC,"San Juanico, Mich.","La Laguna, Mich.",Michoacán,Cotija,Balsas,19.839444,-102.651389,RI,R. Cotija,Libre,1950,1574.6,0,1604.56,71.69,1603.86,60.545,5.7,1601.6,33.024,0.5454455363779
2207833,2024-04-15,CHLMC,"Constitución de Apatzingán, Jal.","Chilatán, Jal.",Jalisco,Jilotlán de los Dolores,Balsas,19.287778,-102.774167,RI,R. Grande,Libre,1990,440,2.32001,437.6799927,807.1500244,429.4500122,590.0250244,107,414.07,306.266,0.519072899173121
2207834,2024-04-15,ZICMC,"Zicuirán, Mich.","La Peña, Mich.",Michoacán,La Huacana,Balsas,18.921111,-101.931944,RI,R. Zicuirán,Libre,1957,302.75,1.31,301.4400024,47.48500061,299,36.29399872,46,294.26,19.527,0.538022832662953
2207835,2024-04-15,INFMC,"Infiernillo, Mich.","Infiernillo, Mich.",Guerrero,Arteaga,Balsas,18.266667,-101.883333,GH,R. Balsas,Contr,1964,184,0.8,183.2,15194.8,169,9367.77,151.5,155.24,5237.022,0.559046816905197
2207836,2024-04-15,VILMC,"José María Morelos y Pavón, Mich.","La Villita, Mich.",Michoacán,Lázaro Cárdenas,Balsas,18.048333,-102.180278,AP/GH/RI,R. Balsas,Contr,1973,59.73,3,56.73,686.94,51.2,545.93,73,50.47,527.31,0.965893063213232
2207837,2024-04-15,LCRDR,"Lázaro Cárdenas, Dgo.","El Palmito, Dgo.",Durango,Indé,Cuencas Centrales del Norte,25.594167,-105.015833,RI,R. Nazas,Contr,1946,1635,3,1632,4278.541,1620.87,2770.51,100,1601.01,1130.908,0.408194881086875
2207838,2024-04-15,FZRDR,"Francisco Zarco, Dgo.","Las Tórtolas, Dgo.",Durango,Cuencamé,Cuencas Centrales del Norte,25.270833,-103.773611,RI,R. Nazas,Contr,1968,1213,2.94995,1210.050049,383.1600037,1208.2,309.24,39.5,1199.25,83.11,0.268755659035053
2207839,2024-04-15,LNRDR,"Los Naranjos, Dgo.","Los Naranjos, Dgo.",Durango,General Simón Bolívar,Cuencas Centrales del Norte,24.613056,-103.306944,RI,R. Santa Clara,Libre,1985,1663,1.91003,1661.089966,27.38999939,1658.400024,20.928,48,1652.45,10.239,0.489248853211009
2207840,2024-04-15,TGRDR,"El Tigre, Dgo.",El Tigre,Durango,San Juan de Guadalupe,Cuencas Centrales del Norte,24.563056,-102.785,RI,Arroyo El Tigre,Libre,NA,1581.62,0,1580.12,18.56,1576.92,14,34.5,1567.46,3.499,0.249928571428571
2207841,2024-04-15,SGOZC,"Santiago, Zac.",Santiago,Zacatecas,Miguel Auza,Cuencas Centrales del Norte,24.288611,-103.506111,RI,Río Santiago,Libre,NA,2001.8,0,2000.26,11.421,1997.26,6.2,25.6,1994.81,3.178,0.51258064516129
2207842,2024-04-15,ELCZC,"El Cazadero, Zac.","El Cazadero, Zac",Zacatecas,Río Grande,Cuencas Centrales del Norte,23.693333,-103.098333,RI,R. Aguanaval,Libre,1964,1920.12,1.50006,1919.939941,44.68000031,1916,22.178,27.12,1910.97,5.001,0.22549373252773
2207843,2024-04-15,LREZC,"Gobernador Leobardo Reynoso, Zac.","Trujillo, Zac.",Zacatecas,Fresnillo,Cuencas Centrales del Norte,23.18,-103.216944,RI,R. San Francisco o Los Lazos,Libre,1946,2131.85,2.31997,2129.53,125.921,2127.35,95.717,40.34,2117.06,17.959,0.187626022545629
2207844,2024-04-15,STRZC,"Santa Rosa, Zac.","Santa Rosa, Zac.",Zacatecas,Fresnillo,Cuencas Centrales del Norte,22.923611,-103.108889,RI,A. El Arenal,Libre,1937,2250.19,0.550107,2249.639893,14.04100037,2248.639893,10.47599983,15,2244.81,1.232,0.117602140129091
2207845,2024-04-15,APRDR,"Ing. Benjamín Ortega Cantero, Dgo.","Agua Puerca, Dgo.",Durango,Hidalgo,Cuencas Centrales del Norte,26.226389,-104.493889,RI,A. Grande del Derrame,Libre,1984,1436.4,2.30002,1434.099976,56.06000137,1430.199951,30.764,34.8,1426.1,13.381,0.434956442595241
2207846,2024-04-15,VHGDR,"Villa Hidalgo, Dgo.","Villa Hidalgo, Dgo.",Durango,Hidalgo,Cuencas Centrales del Norte,26.2425,-104.928889,RI,A. Cerro Gordo,Libre,1977,1731.28,1.73,1729.55,39.555,1726.23,23.08,34.2,1721.78,9.128,0.395493934142114
2207847,2024-04-15,SNJSL,"San José, S.L.P.","San José, S.L.P.",San Luis Potosí,San Luis Potosí,Cuencas Centrales del Norte,22.150278,-101.054444,AP,R. Santiago,Libre,1903,1955.5,0.359985,1933.7,5.656,1933.3,5.223,32,1924.09,0.406,0.0777331035803178
2207848,2024-04-15,ELPSL,"Gonzalo N. Santos, S.L.P.","El Peaje, S.L.P.",San Luis Potosí,San Luis Potosí,Cuencas Centrales del Norte,22.092222,-101.098611,AP,A. Grande o Azul,Libre,1953,2049.6,1.73,2047.87,9.054,2044.849976,6.685,39,2029.11,0.331,0.0495138369483919
2207849,2024-04-15,EPOSL,"El Potosino, S.L.P.","El Potosino, S.L.P.",San Luis Potosí,San Luis Potosí,Cuencas Centrales del Norte,22.099722,-101.078056,RI,A. El Potosino,Libre,1990,2000.85,0.150024,2000.849976,5.198999882,1996.800049,3.292999983,30.85,1979.7,0.02,0.00607348925091081
2207850,2024-04-15,ELOSL,"Cañada del Lobo, S.L.P.","Cañada del Lobo, S.L.P.",San Luis Potosí,San Luis Potosí,Cuencas Centrales del Norte,22.094722,-100.9675,CA,R. Españita,Libre,1987,1963.7,1.54998,1962.1,2.161,1958.8,1.244,28,1952.63,0.222,0.178456591639871
2207851,2024-04-15,IVGSL,"Valentín Gama, S.L.P.","Ojo Caliente, S.L.P.",San Luis Potosí,Villa de Reyes,Cuencas Centrales del Norte,21.88,-100.820556,RI,R. Santa María,Libre,1970,1789.55,1.45002,1788.099976,22.39999962,1783.800049,9.510000229,24,1774.12,0.141,0.0148264980656921
2207852,2024-04-15,ANGCP,"Doctor Belisario Domínguez, Chis.","La Angostura, Chis.",Chiapas,Acala,Frontera Sur,16.401389000000002,-92.778889,GH,R. Grijalva,Contr,1976,543,3.5,539.5,19736.4,533,13169.63,147,518.56,5796.83,0.440166504298146
2207853,2024-04-15,CHICP,"Manuel Moreno Torres, Chis.","Chicoasén, Chis.",Chiapas,Osumacinta,Frontera Sur,16.941667,-93.100556,GH,R. Grijalva,Contr,1980,405,7,395,1318.6,392.5,205.98,261,391.03,176.313,0.855971453539178
2207854,2024-04-15,MALCP,"Nezahualcóyotl, Chis.","Malpaso, Chis.",Chiapas,Tecpatán,Frontera Sur,17.178611,-93.598889,GH,R. Grijalva o Mezcalapa,Contr,\N,192,4,188,14056.32,182.5,9317.39,138,164.26,4330.22,0.464746028662533
2207855,2024-04-15,JSBCP,"Juan Sabines, Chis.","El Portillo II o Cuxtepeques, Chis.",Chiapas,La Concordia,Frontera Sur,15.996389,-92.898611,RI,R. Cuxtepeques,Libre,1981,620.25,1.97998,618.2700195,116.1100006,612.1199951,68.15000153,46,606.09,37.713,0.553382232623993
2207856,2024-04-15,PENCP,"Angel Albino Corzo, Chis.","Peñitas, Chis.",Chiapas,Ostuacán,Frontera Sur,17.446111,-93.458611,GH,R. Grijalva,Contr,1986,98,5,95.5,578.63,87.4,215.041,58,85.44,170.221,0.791574629954287
2207857,2024-04-15,NNEPB,"Necaxa, Pue.","Necaxa, Pue.",Puebla,Juan Galindo,Golfo Centro,20.216667,-98.000556,GH,R. Necaxa,Libre,1908,1344,1,1343,39.283,1338,29.055,59,1333.59,21.111,0.726587506453278
2207858,2024-04-15,TENPB,"Tenango, Pue.","Tenango, Pue.",Puebla,Huauchinango,Golfo Centro,20.199444,-97.983333,GH,R. Coacuila,Libre,1912,1353,2,1351.4,46.576,1345.6,28.479,39,1338.17,11.833,0.415499139716984
2207859,2024-04-15,NEXPB,"Nexapa, Pue.","Nexapa, Pue.",Puebla,Tlaola,Golfo Centro,20.168333,-97.984722,GH,R. Nexapa,Libre,1912,1364,1,1362.35,15.313,1360,12.5,44,1360.25,12.846,1.02768
2207860,2024-04-15,LLAHD,"La Laguna, Hgo.","Tejocotal, Pue.",Hidalgo,Acaxochitlán,Golfo Centro,20.135556,-98.128333,RI,A. Huitzilin,Libre,1903,2185,1,2184.5,49.227,2183,40.638,19,2175.33,6.124,0.150696392539002
2207920,2024-04-15,SRSJL,"Manuel M. Diéguez, Jal.","Santa Rosa, Jal.",Jalisco,Amatitán,Lerma-Santiago-Pacífico,20.908889,-103.705556,GH,R. Santiago,Contr,1964,747,0.5,748,418,746.46,393.36,114,740,325,0.826215171852755
2207921,2024-04-15,ESLJL,"El Salto, Jal.","El Salto, Jal.",Jalisco,Valle de Guadalupe,Lerma-Santiago-Pacífico,21.037222,-102.705,AP,R. El Salto,Libre,1940,1814.5,2,1812.5,118.54,1810.160034,85,42,1808.2,69.648,0.819388235294117
2207922,2024-04-15,SA1JL,"La Sauceda, Jal.","Garabatillos, Jal.",Jalisco,Lagos de Moreno,Lerma-Santiago-Pacífico,21.359167,-101.835556,RI,R. La Sauceda,Libre,1982,1923,1.96997,1921.030029,21.5,1918.900024,16,38.1,1912.17,4.37,0.273125
2207923,2024-04-15,ANVAG,"Cincuenta Aniversario, Ags.",San José de Gracia,Aguascalientes,San José de Gracia,Lerma-Santiago-Pacífico,22.188611,-102.464167,AP/RI,Río Blanco,Libre,NA,89.2,0,2088.57,5.039,2086,4.1,39.2,2078.32,2.286,0.557560975609756
2207924,2024-04-15,PTRAG,"Derivadora Pabellón, Ags.","Derecha Potrerillos, Ags.",Aguascalientes,Rincón de Romos,Lerma-Santiago-Pacífico,22.235,-102.4375,RI,R. San Pedro,Libre,1931,2099.86,0,2093,2.0999999049999998,2092.600098,2.038000107,35,2086.6,1.242,0.609420968985258
2207925,2024-04-15,PECAG,"Plutarco Elías Calles, Ags.","Calles, Ags.",Aguascalientes,San José de Gracia,Lerma-Santiago-Pacífico,22.141111,-102.417222,AP/RI,R. Santiago,Libre,1931,2022.6,0.6,2022,407.438,2020,358.121,67,1998.46,39.434,0.110113620815311
2207926,2024-04-15,JCQAG,"Jocoque, Ags.","Derecha Jocoque, Ags.",Aguascalientes,San José de Gracia,Lerma-Santiago-Pacífico,22.121667,-102.356944,RI,R. San Pedro,Libre,1929,1944.95,1.54998,1943.400024,11.399999619999999,1942.449951,10.975000380000001,44,1940.05,9.345,0.851480608331423
2207927,2024-04-15,ABRAG,"Abelardo L. Rodríguez, Ags.","Abelardo L. Rodríguez, Ags.",Aguascalientes,Jesús María,Lerma-Santiago-Pacífico,21.916944,-102.427778,RI,R. Morcinique,Libre,1934,1890.2,1.47,1890,18.816,1888.88,15.997,25,1882.14,4.683,0.292742389197974
2207928,2024-04-15,NGRAG,"El Niágara, Ags.","El Niágara, Ags.",Aguascalientes,Aguascalientes,Lerma-Santiago-Pacífico,21.78,-102.371667,RI,R. Aguascalientes,Libre,1963,1833,0.599976,1832.400024,31.69499969,1828.400024,16.18799973,31.5,1828.28,15.843,0.978687933299094
2207929,2024-04-15,CRTJL,"El Cuarenta, Jal.","El Cuarenta, Jal.",Jalisco,Lagos de Moreno,Lerma-Santiago-Pacífico,21.497778,-101.7375,RI,A. Azul,Libre,1949,2004,2.05005,2001.949951,38.95999908,1998.75,30.625,42,1985.62,5.344,0.174497959183673
2207930,2024-04-15,ESTJL,"El Estribón, Jal.","El Estribón, Jal.",Jalisco,Yahualica de González Gallo,Lerma-Santiago-Pacífico,21.185556,-102.900556,RI,A. Las Pilas,Libre,1946,1882.5,1.08997,1881.410034,7.739999771,1880,6.377999783,29,1878.15,5.048,0.791470707392465
2207931,2024-04-15,PMOZC,"Los Moraleños, Zac.",Moraleños,Zacatecas,Jalpa,Lerma-Santiago-Pacífico,21.711111,-102.903611,RI,Río Calvillo,Libre,NA,1324.75,0,1322.93,26.07,1318.96,20.932,47.05,1310.07,8.804,0.420600038218994
2207932,2024-04-15,PALZC,"Palomas, Zac.","Palomas, Zac.",Zacatecas,Villanueva,Lerma-Santiago-Pacífico,22.347778,-102.798056,RI,R. Palomas,Libre,1970,1908.34,0.86002,1907.47998,8.761,1904.25,4.62,28,1902.27,2.815,0.609307359307359
2207933,2024-04-15,TAYZC,"Ing. Julián Adame Alatorre, Zac.","Tayahua, Zac.",Zacatecas,Villanueva,Lerma-Santiago-Pacífico,22.120556,-102.864167,RI,R. Juchipila,Libre,1976,1701.7,0.289966,1701.410034,50.3769989,1696.01001,31.59799957,54.3,1685.95,10.698,0.338565736615712
2207934,2024-04-15,CHIZC,"El Chique, Zac.","El Chique, Zac.",Zacatecas,Tabasco,Lerma-Santiago-Pacífico,21.997222,-102.896111,RI,R. Juchipila,Libre,1958,1588.48,2.00002,1586.47998,192.5670013,1580.180054,138.9089966,61,1568.19,62.772,0.451892976959276
2207935,2024-04-15,CDRAG,"La Codorniz, Ags.","La Codorniz, Ags.",Aguascalientes,Calvillo,Lerma-Santiago-Pacífico,21.9975,-102.676944,RI,R. De La Labor,Libre,1966,1840,2.23999,1837.76001,6.527999878,1836,5.366000175,36,1822.48,0.443,0.0825568366665213
2207936,2024-04-15,MNLAG,"Media Luna, Ags.","Media Luna, Ags.",Aguascalientes,Calvillo,Lerma-Santiago-Pacífico,21.8075,-102.788333,RI,R. Calvillo,Libre,1976,1624.1,2.14004,1621.959961,21.19599915,1619.199951,15,40.6,1609.51,2.608,0.173866666666666
2207937,2024-04-15,CUQJL,"Cuquío, Jal.","Los Gigantes, Jal.",Jalisco,Cuquío,Lerma-Santiago-Pacífico,20.948056,-103.039444,RI,A. Achichilco,Libre,1967,1808.5,1.92004,1806.579956,8.850000381,1805.5,7.5,24,1802.7,4.325,0.576666666666666
2207938,2024-04-15,REDJL,"La Red, Jal.","La Red, Jal.",Jalisco,Acatic,Lerma-Santiago-Pacífico,20.718889,-102.815278,RI,R. Calderón,Libre,1968,1796.5,1.80005,1794.699951,18.299999239999998,1792.5,14.25,24,1786.71,5.647,0.396280701754385
2207939,2024-04-15,EGCJL,"Ing. Elías González Chávez, Jal.","Puente Calderón, Jal.",Jalisco,Zapotlanejo,Lerma-Santiago-Pacífico,20.681389,-102.976111,AP,R. Calderón,Libre,1991,1622,2,1620,100,1618,80,36,1608.94,20.233,0.2529125
2207940,2024-04-15,AGMNR,"Aguamilpa Solidaridad, Nay.","Aguamilpa, Nay.",Nayarit,Tepic,Lerma-Santiago-Pacífico,21.839167,-104.802222,GH,R. Santiago,Contr,1993,235,3,232,6950,222,5785.16,187,197.17,3493.789,0.603922622710521
2207941,2024-04-15,CJNNR,"Leonardo Rodríguez Alcaine, Nay.","Leonardo Rodríguez Alcáine, Nay.",Nayarit,Santa María del Oro,Lerma-Santiago-Pacífico,21.428333,-104.450833,GH,R. Santiago,Contr,2006,394.5,0.5,394,2393.11,391,2282.13,186,370.09,1558.763,0.683029888744287
2207942,2024-04-15,RSRNR,"San Rafael, Nay.",San Rafael,Nayarit,Tepic,Lerma-Santiago-Pacífico,21.780833,-104.8875,RI/GH,Río Grande de Santiago,Contr,NA,67.85,0,66.1,35.591,63.41,26.179,51.85,61.9,21.623,0.825967378433095
2207943,2024-04-15,PLYJL,"Ing. Alfredo Elías Ayub, Jal.","La Yesca, Jal.",Nayarit,Hostotipaquillo,Lerma-Santiago-Pacífico,21.196944,-104.105833,GH,R. Santiago,Contr,2012,579,1,578,2392.88,575,2292.92,207,546.67,1497.917,0.653279224743994
2207944,2024-04-15,STEZC,"Independencia Nacional, Zac.",Santa Teresa,Zacatecas,Monte Escobedo,Lerma-Santiago-Pacífico,22.326667,-103.495833,RI,Arroyo Santa Teresa,Libre,NA,1951.6,0,1949.33,13.944,1946,9.172,31.6,1941.45,4.389,0.478521587440034
2207945,2024-04-15,LOBZC,"Manuel Felgueres, Zac.","Lobatos, Zac.",Zacatecas,Valparaíso,Lerma-Santiago-Pacífico,22.845278,-103.382778,RI,R. Cuevecillas,Libre,1980,2082.3,2.12007,2080.179932,9.43500042,2077.050049,6.90500021,35,2072.21,3.973,0.575380141805962
2207946,2024-04-15,BTEZC,"Ramón López Velarde, Zac.","Boca del Tesorero, Zac.",Zacatecas,Jerez,Lerma-Santiago-Pacífico,22.824167,-102.953333,RI,R. Jeréz,Libre,1975,2100.5,2.34009,2098.159912,36.74399948,2096,26.21999931,30,2089.84,7.449,0.28409611731603
2207947,2024-04-15,ACHZC,"Achimec, Jal.","Vaqueros, Jal.",Jalisco,Huejúcar,Lerma-Santiago-Pacífico,22.327222,-103.225278,RI,R. Huejúcar,Libre,\N,1846.3,2.02998,1844.27,12.212,1841.5,7.364,28.5,1835.11,1.156,0.15697990222705
2207948,2024-04-15,TENJL,"Tenasco, Jal.","Boquilla de Zaragoza, Jal.",Jalisco,Santa María de los Ángeles,Lerma-Santiago-Pacífico,22.171944,-103.198611,RI,A. Tenasco,Libre,1960,1777,0,1724.839966,13.850000380000001,1722.849976,10.49,32,1717.21,4.338,0.413536701620591
2208009,2024-04-15,CCHNL,"Cuchillo Solidaridad, N.L.","El Cuchillo, N.L.",Nuevo León,China,Río Bravo,25.711667,-99.276944,AP/RI,Río San Juan,Contr,1994,169.2,3,166.6600037,1784.292,162.35,1123.143,44,154.94,416.988,0.371268841100376
2208010,2024-04-15,MRGTP,"Marte Rodolfo Gómez, Tamps.","El Azúcar, Tamps.",Tamaulipas,Camargo,Río Bravo,26.204722,-98.925556,RI,Río San Juan,Libre,1946,86,3,83,2208.663,76.3,781.7,49,73.32,425.834,0.544753741844697
2208011,2024-04-15,LBLTP,"Derivadora Las Blancas, Tamps.","Las Blancas, Tamps.",Tamaulipas,Mier,Río Bravo,26.408889,-99.233611,RI,R. Sombreretillo,Libre,2000,93.3,1.5,91.80000305,133.43206,89.91999817,83.784,32.38,84.96,23.585,0.281497660651198
2208012,2024-04-15,TNTCH,"El Tintero, Chih.","El Tintero, Chih.",Chihuahua,Buenaventura,Río Bravo,29.5625,-107.384167,RI,R. Santa María,Libre,1950,1712,2.96997,1709.030029,216.7030029,1703,125.0749969,56,1686.87,15.066,0.120455729549572
2208013,2024-04-15,LJSCH,"Las Lajas, Chih.","Las Lajas, Chih.",Chihuahua,Buenaventura,Río Bravo,29.88,-107.025833,RI,R. El Carmen o Santa Clara,Libre,1964,1563.8,2.18,1561.619995,106.5469971,1558.699951,83.26599884,47,1543.97,12.452,0.149544834307784
2208014,2024-04-15,CPRNL,"José López Portillo, N.L.","Cerro Prieto, N.L.",Nuevo León,Linares,Río Bravo,24.9375,-99.399722,AP,A. Pablillo - Hualauises,Contr,1984,288,2.5,285.5,393,282.52,300,50,264.24,23.2,0.0773333333333333
2208015,2024-04-15,TMPTP,"Tampico, Tamps.",Sistema lagunario Chairel,Tamaulipas,Tampico,Golfo Norte,22.238333,-97.876111,NA,L. El Chairel,Libre,NA,\N,0,1.4,854,1,676,\N,-0.07,218,0.322485207100591
2207862,2024-04-15,SOLPB,"La Soledad, Pue.","La Soledad, Pue.",Puebla,Tlatlauquitepec,Golfo Centro,19.960833,-97.446667,GH,R. Apulco y Xiucayucan,Contr,1962,806.5,1.5,805,14.98,804.5,13.9,91.5,799.91,6.244,0.449208633093525
2207863,2024-04-15,PEMVC,"El Moralillo, Ver.",Piedra Labrada,Veracruz de Ignacio de la Llave,Tepetzintla,Golfo Centro,21.184444,-97.814444,AP,Río Buenavista,Libre,NA,116,0,115.94,8.126,110.78,2.5,15.5,110.14,2.076,0.8304
2207864,2024-04-15,TEMOX,"Presidente Alemán, Oax.","Temascal, Oax.",Oaxaca,San Miguel Soyaltepec,Golfo Centro,18.232222,-96.412222,GH,R. Papaloapan,Contr,1955,74.79,3.5,68.5,9105.54,66.5,8119.09,76,58.74,4823.95,0.594149097990045
2207865,2024-04-15,CDOOX,"Miguel de la Madrid Hurtado, Oax.","Cerro de Oro, Oax.",Oaxaca,San Lucas Ojitlán,Golfo Centro,17.999167,-96.263611,CA,R. Papaloapan,Contr,1988,75.6,2.8,70.01,3547.16,64.86,2599.51,70,58.91,1698.36,0.65333851379683
2207866,2024-04-15,LDCVC,"Canseco, Ver.","Laguna de Catemaco, Ver.",Veracruz de Ignacio de la Llave,Catemaco,Golfo Centro,18.415833,-95.118333,GH,R. Grande,Contr,1960,334.5,1,333.5,552.7,332.7,493.02,7.2,331.77,424.618,0.861259178126648
2207867,2024-04-15,LCAVC,"La Cangrejera, Ver.","La Crangrejera, Ver.",Veracruz de Ignacio de la Llave,Coatzacoalcos,Golfo Centro,18.109444,-94.330833,AP,R. Teapa,Libre,1980,23.87,2.22,21.64999962,31.60000038,21.25,28.53700066,15.87,15.27,2.903,0.101727579383249
2207868,2024-04-15,PJMTP,"Pedro José Méndez, Tamps.","Pedro J. Méndez, Tamps.",Tamaulipas,Hidalgo,Golfo Norte,24.2475,-99.555833,RI,Río San Juan,Libre,1982,453,3.60001,449.3999939,38.36000061,447.2200012,31.26000023,55,433.72,5.676,0.18157389501721
2207869,2024-04-15,VGRTP,"Vicente Guerrero, Tamps.","Las Adjuntas, Tamps.",Tamaulipas,Padilla,Golfo Norte,23.959444,-98.666389,AP/RI,R. Soto La Marina,Contr,1967,148,4.12001,144.0399933,5498.22998,140.44,3910.69,62,125.41,344.08,0.0879844733282361
2207870,2024-04-15,RSPTP,"República Española, Tamps.","Real Viejo o El Sombrero, Tamps.",Tamaulipas,Aldama,Golfo Norte,23.259444,-97.991944,AP,A. San Pedro,Libre,1974,92,2.57,89.43000031,105.9899979,83,54.77999878,30,74.94,8.9,0.162468057652629
2207871,2024-04-15,JLPQT,"Jalpan, Qro.",Jalpan,Querétaro,Jalpan de Serra,Golfo Norte,21.230278,-99.479722,RI/AP,Río Jalpan,Libre,NA,785,0,784.55,11.2,780.55,8,41,769.9,2.31,0.28875
2207872,2024-04-15,TIESL,"La Muñeca, S.L.P.","La Muñeca, S.L.P.",San Luis Potosí,Tierra Nueva,Golfo Norte,21.629444,-100.548333,AP,Río Jofre,Libre,1981,1843.75,2,1841.75,31,1837.699951,24.14,40.25,1826.2,5.7,0.236122618061309
2207873,2024-04-15,ZMPHD,"Ing. Fernando Hiriart Balderrama, Hgo.","Zimapán, Hgo.",Hidalgo,Zimapán,Golfo Norte,20.663333,-99.501111,GH,R. Moctezuma,Contr,1990,1565,2,1563,1460,1560,1390,203,1544.59,1120.711,0.80626690647482
2207874,2024-04-15,CHYVC,"Paso de Piedras, Ver.","Chicayán, Ver.",Veracruz de Ignacio de la Llave,Pánuco,Golfo Norte,21.7375,-98.155833,RI,R. Chicayán,Contr,1979,32.25,3.97,28.28,572.32,23.64,249.97,34,18.68,64.788,0.259183101972236
2207875,2024-04-15,ERCTP,"Estudiante Ramiro Caballero Dorantes, Tamps.","Las Animas, Tamps.",Tamaulipas,González,Golfo Norte,22.605,-98.691667,AP/RI,A. Las Animas,Libre,1976,55,2.45,52.55,654.37,51.7,563.443,31.2,42.71,65.339,0.115963815328258
2207876,2024-04-15,SLZTP,"Lic. Emilio Portes Gil, Tamps.","San Lorenzo, Tamps.",Tamaulipas,Xicoténcatl,Golfo Norte,22.943889,-98.791389,AP/RI,A. El Sargento,Libre,1983,125,1.1,123.9000015,255.65,122.9499969,230.78,50.4,109.17,52.722,0.228451338937516
2207877,2024-04-15,IDFQT,"San Ildefonso, Qro.","El Tepozán, Qro.",Querétaro,Amealco de Bonfil,Golfo Norte,20.198611,-99.9625,RI,Río San Juan,Libre,1942,2261.93,1.87,2242.5,58.026,2239,47.812,62.7,2212.06,1.321,0.0276290471011461
2207878,2024-04-15,CNSQT,"Constitución de 1917, Qro.","Hidalgo, Qro.",Querétaro,San Juan del Río,Golfo Norte,20.418611,-100.080278,RI,Dren Caracol,Contr,1969,1937,1.55005,1928.39,76.461,1927.06,66.08,35,1911.3,1.195,0.0180841404358353
2207879,2024-04-15,VNTQT,"La Venta, Qro.","La Venta, Qro.",Querétaro,Pedro Escobedo,Golfo Norte,20.498611,-100.190556,RI,Dren Culebra,Libre,1907,1896,0.619946,1907.680054,3.77699995,1906.680054,2.479000092,4.3,1904,0,0
2207880,2024-04-15,LLAQT,"La Llave, Qro.","Divino Redentor, Qro.",Querétaro,San Juan del Río,Golfo Norte,20.461944,-99.994722,RI,Dren Culebra,Libre,1885,0,0.0500244,1891.099976,14.41399956,1890,9.312000275,5,1887.5,0,0
2207881,2024-04-15,CNTQT,"El Centenario, Qro.","El Centenario, Qro.",Querétaro,Tequisquiapan,Golfo Norte,20.513333,-99.897778,RI,Río San Juan,Mixto,1910,1898,0.51001,1882.5,14.178,1881.55,9.781,13,1871.25,0,0
2207882,2024-04-15,PNDMX,"Ñadó, Méx.","Ñadó, Méx.",México,Aculco,Aguas del Valle de México,20.038611,-99.864444,RI,Río Ñadó,Libre,1980,2477.5,2,2475.5,18.5,2474,16.799999239999998,52.5,2458.38,3.99,0.237500010744048
2207883,2024-04-15,HPNMX,"Huapango, Méx.","Huapango, Méx.",México,Timilpan,Aguas del Valle de México,20.046389,-99.696944,RI,Río Huapango,Libre,1765,2513,0.199951,2512.8,126.5,2512.65,121.3,14,2507.4,2.16,0.0178070898598516
2207884,2024-04-15,PMNMX,"El Molino, Méx.","El Molino, Méx.",México,Aculco,Aguas del Valle de México,20.124167,-99.739722,RI,A. Zarco,Libre,1980,2491,0,2385.09,8.7,2384.39,7.686,12,2378,0.302,0.0392922196200884
2207885,2024-04-15,PERHD,"La Esperanza, Hgo.","La Esperanza, Hgo.",Hidalgo,Cuautepec de Hinojosa,Golfo Norte,20.0575,-98.334722,RI,R. Santa María,Libre,1943,2210.6,0.999902,2209.600098,4.199999809,2207.699951,3.920000076,28.7,2207.7,3.92,0.999999980612245
2207886,2024-04-15,DNXMX,"Danxho, Méx.","Danxho, Méx.",México,Jilotepec,Aguas del Valle de México,19.884722,-99.559722,RI,R. Coscomate,Libre,1951,2455.6,0.470117,2455.13,32.67,2454,31.046,31,2447.94,10.883,0.350544353539908
2207887,2024-04-15,SBBMX,"José Antonio Alzate, Méx.","San Bernabé, Méx.",México,Temoaya,Lerma-Santiago-Pacífico,19.465833,-99.704722,RI,R. Lerma,Libre,1962,2567,1.58008,2566.919922,52.50899887,2565.5,35.31200027,24,2559.95,4.736,0.13411871215983
2207888,2024-04-15,PIRMX,"Ignacio Ramírez, Méx.","La Gavia, Méx.",México,Almoloya de Juárez,Lerma-Santiago-Pacífico,19.461667,-99.775,RI,R. La Gavia,Libre,1965,2553.76,3.28002,2550.47998,36.29999924,2548.44,20.227,23.5,2547.06,11.957,0.591140554704108
2207889,2024-04-15,TPTMX,"San Andrés Tepetitlán, Méx.","Tepetitlán,Méx.",México,San Felipe del Progreso,Lerma-Santiago-Pacífico,19.660833,-99.961389,RI,R. San José,Libre,1964,2597.38,2.92004,2594.459961,81.02899933,2592.02002,59.9659996,35,2588.04,33.192,0.553513661431568
2207890,2024-04-15,TEPMC,"Tepuxtepec, Mich.","Tepuxtepec, Mich.",Michoacán,Contepec,Lerma-Santiago-Pacífico,20.000278,-100.229167,GH/RI,R. Lerma,Contr,1930,2352,2,2350,537.527,2348.11,449.97,47,2343.61,273.757,0.608389448185434
