idmonitoreodiario,fechamonitoreo,clavesih,nombreoficial,nombrecomun,estado,nommunicipio,regioncna,latitud,longitud,uso,corriente,tipovertedor,inicioop,elevcorona,bordolibre,nameelev,namealmac,namoelev,namoalmac,alturacortina,elevacionactual,almacenaactual,llenano
1239921,2011-04-15,DNXMX,"Danxhó, Méx.",Danxho,Estado de México,Jilotepec,Aguas del Valle de México,19.884722,-99.559722,Riego,Coscomate,Libre,1951,2455.6,0.470117,2455.1298828125,32.6699981689453,2454,31.0499992370605,31,2447.2,9.44,0.304025772365644
1239914,2011-04-15,ALRBN,"Abelardo L. Rodríguez, B.C.",Abelardo L. Rodríguez o Tijuana,Baja California,Tijuana,Península de Baja California,32.444722,-116.908333,Uso Público Urbano,Río Tijuana,Contr,1937,127,2,125,121.392,115.85,76.902,72,98.09,28.234,0.367142597071598
1239915,2011-04-15,AMEMC,"Aristeo Mercado, Mich.",Wilson,Michoacán de Ocampo,Copándaro,Lerma-Santiago-Pacífico,19.926111,-101.661111,Riego y Generación de Energia,Arroyo Seco,Libre,1926,1999.83,6.03,1993.8,28.981,1993.5,25.344,9.2,1996.4,5.47,0.215830176767677
1239916,2011-04-15,CILAAMSMX,"Internacional La Amistad, Coah.",La Amistad,Coahuila de Zaragoza,Acuña,Río Bravo,29.446944,-101.057222,Riegoy Generación de Energia,Río Bravo,Contr,1968,351.22,2.14001,349.079986572266,7000,340.462,4040.325,34.2,340.44,4033.39,0.998283553922024
1239917,2011-04-15,ANGCP,"Doctor Belisario Domínguez, Chis.",Angostura,Chiapas,Acala,Frontera Sur,16.401389000000002,-92.778889,Generación de Energia,Río Grijalva,Contr,1976,543,3.5,539.5,19736.4296875,533,15549.16015625,147,525.95,11625.73,0.747675751177277
1239918,2011-04-15,AOBSO,"Álvaro Obregón, Son.",El Oviachic,Sonora,Cajeme,Noroeste,27.8225,-109.8925,Generación de Energia,Río Yaqui,Libre,1952,115.1,2.9,112.199996948242,4409.35986328125,105.5,3023.13989257812,25,97.47,1836.4,0.607447906895874
1239919,2011-04-15,APRDR,"Ing. Benjamín Ortega Cantero, Dgo.",Agua Puerca,Durango,Mapimí,Cuencas Centrales del Norte,26.226389,-104.493889, Riego,Arrollo El Derrame,Libre,1984,1436.4,2.30002,1434.09997558594,56.060001373291,1430.19995117188,30.764,34.8,1424.62,15.372,0.499674944740606
1239920,2011-04-15,DGNMC,"De Gonzalo, Mich.",De Gonzalo,Michoacán de Ocampo,Vista Hermosa,Lerma-Santiago-Pacífico,20.304444,-102.436944,Riego,Río Las Nutrias,Libre,1890,1535.83,0.93,1534.9,10,1533.88,8.837,10,1532.62,1.153,0.130474142808645
1239922,2011-04-15,EBLSI,"Lic. Eustaquio Buelna, Sin.",Guamuchil,Sinaloa,Salvador Alvarado,Pacífico Norte,25.484722,-108.065556,Riego y Uso Público Urbano,Río Mocorito,Contr,1972,71.2,2.35,68.8499984741211,264.950012207031,63.54,80.08,29,61.83,48.553,0.606306193806194
1239923,2011-04-15,ECAGR,"Ing. Carlos Ramírez Ulloa, Gro.",El Caracol,Guerrero,Apaxtla,Balsas,17.947778,-99.995556,Generación de Energia,Río Balsas,Contr,1986,526,2.4,523.6,1202.398,521,1084.85,126,516.04,1246.93,1.1494031432917
1239924,2011-04-15,EGCJL,"Ing. Elías González Chávez, Jal.",Puente Calderón,Jalisco,Zapotlanejo,Lerma-Santiago-Pacífico,20.681389,-102.976111,Uso Público Urbano,Río Calderón,Libre,1991,1622,2,1620,100,1618,80,36,1615.77,60.431,0.7553875
1239925,2011-04-15,EGLGR,"El Gallo, Gro.",El Gallo,Guerrero,Cutzamala de Pinzón,Balsas,18.703056,-100.671111,Riego,Río Cutzamala,Libre,1998,370.5,2.5,368,545.966003417969,362.779998779297,400.039001464844,67.5,356.87,302.611,0.756453742989842
1239894,2011-04-15,CLNCH,"Ing. Andrew Weiss, Chih.",La Colina,Chihuahua,San Francisco de Conchos,Río Bravo,27.576389,-105.382222,Riego y Generación de Energia,Rio Conchos,Libre,1926,1251,1.15002,1249.84997558594,26.9699993133545,1249.09997558594,23.6700000762939,20.75,1249.28,24.436,1.0323616358782
1239895,2011-04-15,CNPMX,"La Concepción, Méx.",La Concepción,Estado de México,Tepotzotlán,Aguas del Valle de México,19.695,-99.304444,Riego,Río Tepotzotlán,Libre,1949,2355.64,3.09996,2352.5400390625,13.6999998092651,2352.10009765625,12.1110000610352,39,2345.87,6.694,0.552720664376567
1239896,2011-04-15,CNSQT,"Constitución de 1917, Qro.",Hidalgo,Querétaro,San Juan del Río,Golfo Norte,20.418611,-100.080278,Riego,Arrollo Caracol,Contr,1969,1937,1.55005,1928.44995117188,75.3000030517578,1927.65002441406,69.8619995117188,35,1913.17,2.88,0.0412241278538972
1239897,2011-04-15,CNTCL,"El Centenario, Coah.",El Centenario,Coahuila de Zaragoza,Jiménez,Río Bravo,29.213611,-100.95,Riego,Río San Diego,Libre,1935,338,1.62,336.380004882812,25.5200004577637,336.149993896484,24.5890007019043,17,335.03,19.608,0.797429722244933
1239898,2011-04-15,CNTQT,"El Centenario, Qro.",El Centenario,Querétaro,Querétaro,Golfo Norte,20.513333,-99.897778,Riego,San Juan,Mixto,1910,1898,0.51001,1881.98999023438,14.178,1881.57995605469,9.882,13,1873.92,0.08,0.00809552722121028
1239899,2011-04-15,COIMC,"Coíntzio, Mich.",Cointzio,Michoacán de Ocampo,Contepec,Lerma-Santiago-Pacífico,19.629722,-101.259167,Riego y Uso Público Urbano,Río Grande de Morelia,Contr,1939,1997,1.50005,2001.31994628906,79.2330017089844,1999.46997070312,68.5199966430664,46,1987.98,56.512,0.824751937662544
1239900,2011-04-15,CPAMC,"Copándaro, Mich.",Copándaro De Corrales,Michoacán de Ocampo,Copándaro,Lerma-Santiago-Pacífico,20.001667,-102.861389,Riego,Canal la Estancia,Libre,1927,1999,9.79,1989.21,9.717,1998.5,6.5,9.2,1995.75,0.916,0.140923076923077
1239901,2011-04-15,CPEJL,"Cajón de Peña, Jal.",Tomatlán o El Tule,Jalisco,Tomatlán,Lerma-Santiago-Pacífico,19.9975,-105.129722,Riego,Río Tomatlán,Contr,1976,142,2.8,139.199996948242,707.690002441406,130.37,466.69,68,125.68,358.402,0.767965887419915
1239902,2011-04-15,CPRNL,"José López Portillo, N.L.",Cerro Prieto,Nuevo León,Linares,Río Bravo,24.9375,-99.399722,Uso Público Urbano,Río Pablillo,Contr,1984,288,2.5,285.5,393,282.519989013672,300,50,283.42,326.25,1.0875
1239903,2011-04-15,CRRBN,"El Carrizo, B.C.",El Carrizo,Baja California,Tecate,Península de Baja California,32.479444,-116.696944,Uso Público Urbano,Arroyo El Carrizo,Libre,1978,288.34,2.12,286.220001220703,44.5849990844727,284.700012207031,40.8660011291504,55.8,284.27,38.256,0.936132700606015
1239904,2011-04-15,CRTJL,"El Cuarenta, Jal.",El Cuarenta,Jalisco,Lagos de Moreno,Lerma-Santiago-Pacífico,21.497778,-101.7375,Riego,Río de Lagos,Libre,1949,2004,2.05005,2001.94995117188,38.9599990844727,1998.75,30.625,42,1994.24,19.904,0.649926530612245
1239905,2011-04-15,CUQJL,"Cuquío, Jal.",Los Gigantes,Jalisco,Cuquío,Lerma-Santiago-Pacífico,20.948056,-103.039444,Riego,Arroyo Achichilco,Libre,1967,1808.5,1.92004,1806.57995605469,8.85000038146973,1805.5,7.5,24,1802.22,3.845,0.512666666666667
1239906,2011-04-15,DBOMC,"El Bosque, Mich.",El Bosque,Michoacán de Ocampo,Zitácuaro,Balsas,19.387778,-100.421111,Riego y Uso Público Urbano,Río Zitácuaro,Libre,1954,1745,2,1743,250.5,1741.40002441406,202.399993896484,70,1730.11,97.036,0.479426891927814
1239907,2011-04-15,ABRAG,"Abelardo L. Rodríguez., Ags.",Abelardo L. Rodríguez,Aguascalientes,Jesús María,Lerma-Santiago-Pacífico,21.916944,-102.427778,Uso Público Urbano,Río Morcinique,Libre,1934,1890.2,1.47,1890,18.8400001525879,1888.90002441406,15.9899997711182,25,1882.25,4.805,0.300500316996815
1239908,2011-04-15,ACHZC,"Achimec, Jal.",Vaqueros,Jalisco,Huejúcar,Lerma-Santiago-Pacífico,22.327222,-103.225278,Riego,Río Tepetongo,Libre,1969,1846.3,2.02998,1844.27001953125,12.2119998931885,1841.5,7.36399984359741,28.5,1838.85,5.369,0.729087467956432
1239909,2011-04-15,AFIGR,"Andrés Figueroa, Gro.",Las Garzas,Guerrero,Ajuchitlán del Progreso,Balsas,18.075833,-100.5175,Riego,Río Ajuchitlán,Libre,1984,385,2.39001,382.609985351562,123.099998474121,377,102.5,72.5,363.76,51.72,0.504585365853659
1239910,2011-04-15,AGMNR,"Aguamilpa Solidaridad, Nay.",Aguamilpa,Nayarit,Tepic,Lerma-Santiago-Pacífico,21.839167,-104.802222,Riego y Generación de Energia,Río Santiago,Contr,1993,235,3,232,6950,220,5540,187,210.95,4595,0.82942238267148
1239911,2011-04-15,AGOMC,"Agostitlán, Mich.",Mata De Pinos,Michoacán de Ocampo,Hidalgo,Balsas,19.579722,-100.608889,Riego,Río Agostitlán,Libre,1955,2379,1.16,2377.84,18.754,2376.6,15.675,25,2479.12,10.179,0.649377990430622
1239912,2011-04-15,AGZCH,"Abraham González, Chih.",Guadalupe,Chihuahua,Guerrero,Noroeste,28.481667,-107.482778, Riego,Papigochi,Libre,1961,2052.9,1.59995,2051.30004882812,102.891,2047.80004882812,79.354,30,2045.41,70.74,0.89144844620309
1239913,2011-04-15,ALMSI,"Adolfo López Mateos, Sin.",El Humaya o El Varejonal,Sinaloa,Badiraguato,Pacífico Norte,25.101389,-107.388333,Riego y Generación de Energia,Río Humaya,Libre,1964,186.5,3.02,183.479995727539,4034.52001953125,176,3086.61010742188,105.5,153.19,1056.77,0.342372364251304
1239940,2011-04-15,LFGCL,"La Fragua, Coah.",La Fragua,Coahuila de Zaragoza,Jiménez,Río Bravo,28.82,-100.832222,Riego,San Rodrigo,Libre,1993,306.68,2.00001,304.679992675781,85.379997253418,300.299987792969,47.2949981689453,24.7,300.31,47.378,1.00175498116647
1239941,2011-04-15,LJSCH,"Las Lajas, Chih.",Las Lajas,Chihuahua,Buenaventura,Río Bravo,29.88,-107.025833,Riego,Río Del Carmen,Libre,1964,1563.8,2.18,1561.61999511719,106.546997070312,1558.69995117188,83.265998840332,47,1550.34,33.645,0.404066491348005
1239942,2011-04-15,LLAHD,"La Laguna, Hgo.",Tejocotal,Hidalgo,Acaxochitlán,Golfo Centro,20.135556,-98.128333,Generación de Energia,Ríos Necaxa y Coacuila,Libre,1903,2185,1,2184,45,2183,43.5299987792969,19,2181.2,30.557,0.70197566866308
1239943,2011-04-15,LLAQT,"La Llave, Qro.",Divino Redentor,Querétaro,San Juan del Río,Golfo Norte,20.461944,-99.994722,Riego,A. El Caracol,Libre,1885,0,0.0500244,1891.09997558594,14.4139995574951,1890,9.3120002746582,3.4,1887.5,0.01,0.00107388312983776
1239944,2011-04-15,LLNCH,"Ing. Luis L. León, Chih.",El Granero,Chihuahua,Guadalupe,Río Bravo,28.984444,-105.28,Riego,Río Conchos,Contr,1968,1053,2.5,1050.5,832.409,1034.80004882812,292.464996337891,62,1041.01,459.594,1.57144959483979
1239945,2011-04-15,LNRDR,"Los Naranjos, Dgo.",Naranjos,Durango,General Simón Bolívar,Cuencas Centrales del Norte,24.613056,-103.306944,Riego,Santa Clara,Libre,1985,1663,1.91003,1661.08996582031,27.3899993896484,1658.40002441406,20.928,48,1644.61,6.577,0.314267966360856
1239946,2011-04-15,LOBZC,"Manuel Felgueres, Zac.",Lobatos,Zacatecas,Valparaíso,Lerma-Santiago-Pacífico,22.845278,-103.382778,Riego,Río Pajaritos,Libre,1980,2082.3,2.12007,2080.17993164062,9.4350004196167,2077.05004882812,6.90500020980835,35,2070.22,3.426,0.496162186227521
1239947,2011-04-15,LOLMC,"Los Olivos, Mich.",Los Olivos,Michoacán de Ocampo,Tepalcatepec,Balsas,19.210833,-102.865556,Riego,Río Otates,Libre,1961,423,2,421,16.2709999084473,418,10.2620000839233,39,412.21,12.115,1.18056908019126
1239948,2011-04-15,ARCSO,"Adolfo Ruíz Cortínes, Son.",Mocuzari,Sonora,Alamos,Noroeste,27.226111,-109.106667,Riego y Generación de Energia,Río Mayo,Mixto,1955,148,2.53,145.470001220703,1822.55004882812,136.3,1039.84,88.5,112.41,115.403,0.11098149715340801
1239949,2011-04-15,ARLSO,"Abelardo Rodríguez Lujan, Son.",Hermosillo,Sonora,Hermosillo,Noroeste,29.076667,-110.92,Uso Público Urbano,Río Sonora,Contr,1948,231.6,3.20001,228.399993896484,284.470001220703,226.979995727539,219.5,36,214,0.01,4.55581e-5
1239950,2011-04-15,BBAJL,"Basilio Vadillo, Jal.",Las Piedras,Jalisco,El Limón,Lerma-Santiago-Pacífico,19.913611,-104.061111,Riego,Río San Miguel,Libre,1973,982.8,2.7,978.97,146.888,974.34,124.689,96,965.94,107.346,0.860909943940524
1239951,2011-04-15,BDDPB,"Manuel Ávila Camacho, Pue.",Valsequillo o Balcón del Diablo,Puebla,Tzicatlacoyan,Balsas,18.9125,-98.108611,Riego,Río Atoyac,Libre,1946,2064,2,2062,391.489,2059,300.097,85,2057.36,263.004,0.876396631755732
1239952,2011-04-15,BTEZC,"Ramón López Velarde, Zac.",Boca del Tesorero,Zacatecas,Jerez,Lerma-Santiago-Pacífico,22.824167,-102.953333,Riego,Río Boca del Tesorero,Libre,1975,2100.5,2.34009,2098.15991210938,36.7439994812012,2096,26.2199993133545,28.8,2089.47,7.8,0.297482845319041
1239953,2011-04-15,CBRDR,"Caboraca, Dgo.",Canoas,Durango,Canatlán,Pacífico Norte,24.538333,-104.810278,Riego,Río La Sauceda,Libre,1992,2003.75,2.46997,2001.28002929688,57.8800010681152,1998.25,45,37,1995.59,34.583,0.768511111111111
1239954,2011-04-15,CCHNL,"Cuchillo Solidaridad, N.L.",El Cuchillo,Nuevo León,China,Río Bravo,25.711667,-99.276944,Riego y Uso Público Urbano,Río San Juan,Contr,1994,169.2,3,166.660003662109,1784.2900390625,162.350006103516,1123.14294433594,44,163.97,1341.48,1.19439827919068
1239955,2011-04-15,CDOOX,"Miguel de la Madrid Hurtado, Oax.",Cerro de Oro,Oaxaca,San Lucas Ojitlán,Golfo Centro,17.999167,-96.263611,Generación de Energia,Río Papaloapan,Contr,1988,75.6,2.8,72.8000030517578,3550,64.8600006103516,2599.51000976562,70,57.21,1483.67,0.570749869947133
1239956,2011-04-15,CDRAG,"La Codorniz, Ags.",La Codorniz,Aguascalientes,Calvillo,Lerma-Santiago-Pacífico,21.9975,-102.676944,Riego,Río de La Labor,Libre,1966,1840,2.23999,1837.76000976562,6.52799987792969,1836,5.36600017547607,36,1831.03,2.892,0.538948920131822
1239957,2011-04-15,CHICP,"Manuel Moreno Torres, Chis.",Chicoasén,Chiapas,Chicoasén,Frontera Sur,16.941667,-93.100556,Generación de Energia,Río Grijalva,Contr,1980,405,7,395,1443.08996582031,392.5,1384.85998535156,265,392.49,1384.24,0.999552311888479
1239958,2011-04-15,CHIZC,"El Chique, Zac.",El Chique,Zacatecas,Tabasco,Lerma-Santiago-Pacífico,21.997222,-102.896111,Riego,Río Juchipila,Libre,1958,1588.48,2.00002,1586.47998046875,192.567001342773,1580.18005371094,138.908996582031,61,1568.74,68.722,0.49472677573779
1239959,2011-04-15,CHLJL,"Chila, Jal.",Chila,Jalisco,Zapotlán del Rey,Lerma-Santiago-Pacífico,20.489722,-102.944167,Riego,Arroyo Chila,Libre,1945,1525.88,1,99,1,98.7,0.762,10,96.54,0.37,0.485564304461942
1239960,2011-04-15,CHLMC,"Constitución de Apatzingán, Mich.",Chilatan,Jalisco,Apatzingán,Balsas,19.287778,-102.774167,Riego y Generación de Energia,Río Tepalcatepec,Libre,1990,440,2.32001,437.679992675781,807.150024414062,429.450012207031,590.025024414062,107,419.17,401.293,0.680128779958974
1239961,2011-04-15,CHTSO,"Cuauhtémoc, Son.",Santa Teresa,Sonora,Atil,Noroeste,30.873333,-111.516389, Riego,Atil,Libre,1950,603,2.75,600.25,66.3300018310547,597,41.4700012207031,57.2,588.66,19.98,0.481794053818965
1239962,2011-04-15,SLZTP,"Lic. Emilio Portes Gil, Tamps.",San Lorenzo,Tamaulipas,Xicoténcatl,Golfo Norte,22.943889,-98.791389,Riego,El Sauz,Libre,1983,125,1.1,123.900001525879,272,122.949996948242,230.779998779297,40.5,119.84,165.295,0.716244912359487
1239963,2011-04-15,SMGCL,"San Miguel, Coah.",San Miguel,Coahuila de Zaragoza,Jiménez,Río Bravo,29.034167,-100.953889,Riego,Río San Diego,Libre,1935,343.5,1.54001,341.959991455078,22.193000793457,341.739990234375,21.1679992675781,15,341.05,18.176,0.858654602650105
1239964,2011-04-15,SNJSL,"San José, S.L.P.",San José,San Luis Potosí,San Luis Potosí,Cuencas Centrales del Norte,22.150278,-101.054444,Uso Público Urbano,El Salado,Libre,1903,1955.5,0.359985,1955.14001464844,5.1399998664856,1953.78002929688,5.1399998664856,32,1947.67,1.587,0.308754871833312
1239965,2011-04-15,SNLSI,"Sanalona, Sin.",Sanalona,Sinaloa,Culiacán,Pacífico Norte,24.815,-107.151389,Riego,Río Tamazula,Libre,1948,165,2.83,162.17,987.522,156.2,687.988,81,140.97,196.586,0.285740448961319
1239992,2011-04-15,MALCP,"Nezahualcóyotl, Chis.","Malpaso, Raudales de Malpaso",Chiapas,Tecpatán,Frontera Sur,17.178611,-93.598889,Riego y Generación de Energia,Río Grijalva,Contr,1964,192,4,188,14056,182.5,12373.099609375,137.5,177.27,10850.87,0.876972653786637
1239993,2011-04-15,MLPMC,"Malpaís, Mich.",La Cienega,Michoacán de Ocampo,Queréndaro,Lerma-Santiago-Pacífico,19.829167,-100.873611,Riego,Río Queréndaro,Libre,1938,1830.96,1,1843.56,27.249,1842.530029,18.512,6.1,1825.8,6.885,0.371920916162489
1239994,2011-04-15,MNLAG,"Media Luna, Ags.",Media Luna,Aguascalientes,Calvillo,Lerma-Santiago-Pacífico,21.8075,-102.788333,Riego,Río Calvillo,Libre,1976,1624.1,2.14004,1621.9599609375,21.1959991455078,1619.19995117188,15,22.24,1609.07,2.303,0.153533333333333
1239995,2011-04-15,MOCMC,"Melchor Ocampo, Mich.",El Rosario,Michoacán de Ocampo,Angamacutiro,Lerma-Santiago-Pacífico,20.127222,-101.724444,Riego,Río Angulo,Libre,1975,1716.5,2.08997,1714.41003417969,249.843002319336,1711.90002441406,194.453994750977,29.5,1704.39,72.429,0.372473705632814
1239996,2011-04-15,MRGTP,"Marte R. Gómez, Tamps.",El Azucar,Tamaulipas,Camargo,Río Bravo,26.204722,-98.925556,Riego,Río San Juan,Libre,1946,86,3,83,2208.65991210938,76.3000030517578,781.700012207031,49,76.01,741.117,0.948083649004366
1239997,2011-04-15,NEXPB,"Nexapa, Pue.",Nexapa,Puebla,Huauchinango,Golfo Centro,20.168333,-97.984722,Generación de Energia,Río Nexapa,Libre,1912,1364,1,1363,16,1360,12.5,44,1360.27,12.874,1.02992
1239998,2011-04-15,NGRAG,"El Niagara, Ags.",El Niagara,Aguascalientes,Aguascalientes,Lerma-Santiago-Pacífico,21.78,-102.371667,Riego,Río Aguascalientes,Libre,1963,1833,0.599976,1832.40002441406,31.6949996948242,1828.40002441406,16.1879997253418,31.5,1826.68,11.936,0.737336311002932
1239999,2011-04-15,NNEPB,"Necaxa, Pue.",Necaxa,Puebla,Juan Galindo,Golfo Centro,20.216667,-98.000556,Generación de Energia,Río Necaxa,Libre,1908,1344,1,1344,43,1338,29.0550003051758,59,1335.13,23.788,0.818723102741199
1240000,2011-04-15,PAGCH,"Pico del Águila, Chih.",Pico del Águila,Chihuahua,Coronado,Río Bravo,26.546389,-105.254167,Riego,Río Florido,Libre,1993,1625.9,2.5,1619,62.0200004577637,1616.90002441406,51.106,42,1611.8,27.912,0.546158963722459
1240001,2011-04-15,PAGDR,"Peña del Águila, Dgo.",Peña del Águila,Durango,Durango,Pacífico Norte,24.203889,-104.656667,Riego,Río La Sauceda,Libre,1954,1896.8,1.52998,1895.27001953125,54.7210006713867,1892.5,27.9479999542236,25,1891.78,26.898,0.962430229141855
1240002,2011-04-15,PALZC,"Palomas, Zac.",Palomas,Zacatecas,Villanueva,Lerma-Santiago-Pacífico,22.347778,-102.798056,Riego,Río Juchipila,Libre,1970,1908.34,0.86002,1907.47998046875,8.74899959564209,1904.25,4.61100006103516,28,1903.27,5.28,1.1450878182844
1240003,2011-04-15,TMLJL,"Ramón Corona Madrigal General, Jal.",Trigomil,Jalisco,Ayutla,Lerma-Santiago-Pacífico,19.976111,-104.370278,Riego,Río Ayuquila,Libre,1993,1209.34,2.94001,1209.35998535156,324,1201.40002441406,250,107,1190.39,166.749,0.666996
1240004,2011-04-15,TMUMC,"Tercer Mundo, Mich.",Chincua,Michoacán de Ocampo,Senguio,Lerma-Santiago-Pacífico,19.766389,-100.299167,Riego,Río chincua,Libre,1972,2431.2,2.41992,2428.580078125,17.3320007324219,2427.580078125,14.9720001220703,30,2418.29,1.009,0.0673924653869477
1240005,2011-04-15,TNTCH,"El Tintero, Chih.",El Tintero,Chihuahua,Namiquipa,Río Bravo,29.5625,-107.384167,Riego,Río Santa María,Libre,1950,1712,2.96997,1709.03002929688,216.703002929688,1703,125.074996948242,56,1693.84,41.95,0.33539876892709
1240006,2011-04-15,TPTMX,"San Andrés Tepetitlán, Méx.",Tepetitlán,Estado de México,San Felipe del Progreso,Lerma-Santiago-Pacífico,19.660833,-99.961389,Riego,Río Jaltepec,Libre,1964,2597.38,2.92004,2594.4599609375,81.0289993286133,2592.02001953125,59.9659996032715,35,2587.98,39.28,0.655037859118037
1240007,2011-04-15,TRJCM,"Solidaridad, Col.",Trojes,Jalisco,Armería,Lerma-Santiago-Pacífico,18.967222,-103.396667,Riego y Generación de Energia,Río Barreras,Libre,1994,303.6,2.49001,301.109985351562,294.079986572266,292.369995117188,220.807006835938,87,281.4,145.346,0.658249038754436
1240008,2011-04-15,TULJL,"El Tule, Jal.",El Tule,Jalisco,Arandas,Lerma-Santiago-Pacífico,20.7425,-102.433056,Riego,Río Zula,Libre,1990,1861.08,2.23002,1858.84997558594,42,1856.55004882812,30,15.5,1853.26,14.536,0.484533333333333
1240009,2011-04-15,TXMHD,"Taxhimay, Hgo.",Taxhimay,Estado de México,Tepeji del Río de Ocampo,Aguas del Valle de México,19.835278,-99.385,Riego y Uso Público Urbano,Río San Luis de las Peras,Libre,1912,2217.05,7.05,2210,53.3,2208,42.749,39,2203.93,27.932,0.653395401062013
1240010,2011-04-15,UREMC,"Urepetiro, Mich.",Urepetiro,Michoacán de Ocampo,Tlazazalca,Lerma-Santiago-Pacífico,19.962222,-102.137778,Riego,Río tlazazalca,Libre,1964,1752.5,1.5,1745.68005371094,10.9200000762939,1745,8.2819995880127,31,1744.8,5.25,0.633904885433563
1240011,2011-04-15,VBRMX,"Valle de Bravo, Méx.",Valle de Bravo,Estado de México,Valle de Bravo,Balsas,19.2075,-100.18,Generación de Energia y Uso Público Urbano,Río Valle de Bravo,Libre,1947,1835.37,2.5,1785.60998535156,450.75,1782.60998535156,393.440002441406,48,1825.75,319.113,0.811084277195541
1240012,2011-04-15,VCRCL,"Venustiano Carranza, Coah.",Don Martín,Coahuila de Zaragoza,Juárez,Río Bravo,27.515,-100.616111,Riego,Río Salado,Contr,1932,265.8,4.00001,261.799987792969,1322.36999511719,259.24,874.1,35,260.98,1166.64,1.33467566639973
1240013,2011-04-15,VCVJL,"Vicente C. Villaseñor, Jal.",Valle de Juárez,Jalisco,Valle de Juárez,Lerma-Santiago-Pacífico,19.939722,-102.941667,Riego,Río Quitupán,Libre,1950,1880,2,1878,18.1200008392334,1877,14.4399995803833,18,1876.95,14.258,0.987396150576725
1240014,2011-04-15,VEGJL,"Ing. Santiago Camarena, Jal.",La Vega,Jalisco,Teuchitlán,Lerma-Santiago-Pacífico,20.596389,-103.845833,Riego,Río salado y Teuchitlán,Libre,1960,1261,2.14001,1258.85998535156,80,1257,44.0349998474121,18,1256.25,31.411,0.713318953306321
1240015,2011-04-15,VGRGR,"Vicente Guerrero, Gro.",Palos Altos,Guerrero,Arcelia,Balsas,18.382778,-100.265833,Riego,Río Poliutla,Libre,1968,433,2.70001,430.299987792969,300,425,249.49,67.5,414.26,137.6,0.551525111226903
1240016,2011-04-15,PECAG,"Plutarco Elías Calles, Ags.",Calles,Aguascalientes,San José de Gracia,Lerma-Santiago-Pacífico,22.141111,-102.417222,Riego,Río Santiago,Libre,1931,2022.6,0.6,2022,407.438,2020,358.121,67,2004.01,85.2,0.237908416429084
1240017,2011-04-15,PECSO,"Plutarco Elías Calles, Son.",El Novillo,Sonora,Bacanora,Noroeste,28.976667,-109.642222,Riego y Generación de Energia,Río Yaqui,Contr,1964,297.8,1.00001,296.799987792969,3443.5,290.5,2833.07006835938,133.8,284.15,2219.68,0.783489270099632
1240044,2011-04-15,PRGHD,"Javier Rojo Gómez, Hgo.",La Peña,Hidalgo,Alfajayucan,Aguas del Valle de México,20.359722,-99.329444,Riego,Río Alfajayucan,Contr,1979,1980.96,1.3,1975.7,52.8,1974,46,60,1960.54,16.4,0.356521739130435
1240045,2011-04-15,PRQHD,"Requena, Hgo.",Requena,Hidalgo,Tepeji del Río de Ocampo,Aguas del Valle de México,19.963056,-99.310833,Riego,Río Tepeji,Mixto,1922,2116.59,1.5,2110.5,60.5299987792969,2108.9599609375,52.423999786377,38,2102.79,17.56,0.334961087890192
1240046,2011-04-15,PRSGJ,"La Purísima, Gto.",La Purísima,Guanajuato,Guanajuato,Lerma-Santiago-Pacífico,20.867222,-101.287778,Riego,Río Guanajuato,Contr,1979,1863,2.20996,1860.7900390625,181.926,1852.06994628906,98.23,52,1844.63,57.404,0.584383589534765
1240048,2011-04-15,PTRAG,"Derivadora Pabellón, Ags.",Der. Potrerillos,Aguascalientes,San José de Gracia,Lerma-Santiago-Pacífico,22.235,-102.4375,Riego,Río San Pedro,Libre,1931,2099.86,0,2093,2.09999990463257,2092.60009765625,2.03800010681152,33.94,2082.56,0.81,0.397448458070621
1240049,2011-04-15,PUCMC,"Pucuato, Mich.",Pucuato,Michoacán de Ocampo,Hidalgo,Balsas,19.621389,-100.684167,Riego,Río Pucuato,Libre,1946,2501.25,1.25,2500,11.534,2499,9.485,15,2478.98,6.863,0.723563521349499
1240050,2011-04-15,PVAHD,"Vicente Aguirre, Hgo.",Las Golondrinas,Hidalgo,Alfajayucan,Aguas del Valle de México,20.435556,-99.375833,Riego,Río Alfajayucan,Libre,1954,1865.9,7.4,1858.5,21.7999992370605,1858.15002441406,20.7999992370605,27,1849.78,3.33,0.160096159718446
1240051,2011-04-15,REDJL,"La Red, Jal.",La Red,Jalisco,Tepatitlán de Morelos,Lerma-Santiago-Pacífico,20.718889,-102.815278,Riego,Río Calderón,Libre,1968,1796.5,1.80005,1794.69995117188,18.2999992370605,1792.5,14.25,24,1788.1,7.284,0.511157894736842
1240052,2011-04-15,RMEGR,"Revolución Mexicana, Gro.",El Guineo,Guerrero,Ayutla de los Libres,Pacífico Sur,16.823611,-99.166111,Riego,Río Nexpa,Libre,1984,110.7,3.11,107.589996337891,260,94.4000015258789,126.694000244141,70.7,88.94,88.333,0.697215336399367
1240053,2011-04-15,RODMR,"El Rodeo, Mor.",El Rodeo,Morelos,Miacatlán,Balsas,18.765278,-99.331389,Riego,Río Tembembe,Libre,1974,1166.5,2.30005,1166.5,33.1370010375977,1164.19995117188,26.9839992523193,8,1154.74,6.738,0.249703534935462
1240054,2011-04-15,RSPTP,"República Española, Tamps.",Real Viejo o El Sombrero,Tamaulipas,Aldama,Golfo Norte,23.259444,-97.991944,Riego,San Rafael,Libre,1974,92,2.57,89.4300003051758,105.98999786377,83,54.7799987792969,30,82.34,48.666,0.88838994312633
1240055,2011-04-15,SA1JL,"La Sauceda, Jal.",Garabatillos,Jalisco,Lagos de Moreno,Lerma-Santiago-Pacífico,21.359167,-101.835556,Riego,Río La Sauceda o Bernalejo,Libre,1982,1923,1.96997,1921.03002929688,21.5,1918.90002441406,16,33,1915.59,9.003,0.5626875
1240056,2011-04-15,SABMC,"Sabaneta, Mich.",Sabaneta,Michoacán de Ocampo,Hidalgo,Balsas,19.622778,-100.669444,Riego,Arroyo Sabaneta,Libre,1948,2494.9,2.05,2508.95,5.875,2508,5.043,17,2491.27,4.889,0.969462621455483
1240057,2011-04-15,SBBMX,"José Antonio Alzate, Méx.",San Bernabé,Estado de México,Temoaya,Lerma-Santiago-Pacífico,19.465833,-99.704722,Riego,Río Lerma,Libre,1962,2567,1.58008,2566.919921875,52.5089988708496,2565.5,35.3120002746582,24,2560.8,5.481,0.155216355838484
1240058,2011-04-15,SBYDR,"Santiago Bayacora, Dgo.",Santiago Bayacora,Durango,Durango,Pacífico Norte,23.874444,-104.675833,Riego,Río Santiago Bayacora,Libre,1990,1962,0.810059,1965.93994140625,169.869003295898,1959.01000976562,130.046997070312,66.75,1955.77,113.457,0.872430756233896
1240059,2011-04-15,SELDR,"Santa Elena, Dgo.",Tanque Santa Elena,Durango,Súchil,Pacífico Norte,24.608333,-103.079722,Riego,Río Graceros,Libre,1977,2002.75,1.14001,2001.60998535156,18.7999992370605,1999.80004882812,15.08,30.75,1996.94,10.1,0.669761273209549
1240060,2011-04-15,SGBDR,"San Gabriel, Dgo.",Federalismo Mexicano,Durango,Ocampo,Río Bravo,26.436667,-105.560833,Riego,Río Florido,Libre,1991,1785.6,2.20999,1783.39001464844,377.338012695312,1777.90002441406,245.430999755859,48,1777.42,235.705,0.960371755134705
1240061,2011-04-15,SJATL,"San José Atlanga, Tlax.",Atlanga,Tlaxcala,Atlangatepec,Balsas,19.556111,-98.200556,Riego,Río Zahuapan,Libre,1959,2500,2.32988,2486.8701171875,59.445,2486.39990234375,54.026,24.2,2484.84,37.23,0.689112649465072
1240062,2011-04-15,SJUMC,"San Juanico, Mich.",La Laguna,Michoacán de Ocampo,Cotija,Balsas,19.839444,-102.651389,Riego,Río Cotija,Libre,1950,1574.6,0,1604.56,71.69,1603.86,60.545,7,1572.29,51.05,0.843174498307044
1240063,2011-04-15,SLDGJ,"La Soledad, Gto.",La Soledad,Guanajuato,Dolores Hidalgo Cuna de la Independencia Nacional,Lerma-Santiago-Pacífico,21.04,-101.279722,Uso Público Urbano,Río Santa Ana,Libre,1956,2211.4,2.2501,2209.14990234375,2.37100005149841,2207.75,1.85699999332428,51,2207.5,4.2,2.26171244754904
1240064,2011-04-15,SLSGJ,"Solís, Gto.",Solís,Guanajuato,Acámbaro,Lerma-Santiago-Pacífico,20.051667,-100.667222,Riego,Río Lerma,Contr,1949,1901.7,3,1898.7,1214.14,1892.30004882812,785.539978027344,56.7,1884.24,417.254,0.531168383113757
1240065,2011-04-15,SLTSI,"Ing. Aurelio Benassini Vizcaino, Sin.",El Salto o Elota,Sinaloa,Elota,Pacífico Norte,24.121944,-106.695833,Riego,Río Elota,Libre,1988,167.1,2.46,164.639999389648,815.510009765625,154.539993286133,403.899993896484,73,143.64,173.44,0.429413227583388
1240066,2011-04-15,JSBCP,"Juan Sabines, Chis.",El Portillo II o Cuxtepeques,Chiapas,La Concordia,Frontera Sur,15.996389,-92.898611,Riego,Río Cuxtepeques,Libre,1981,620.25,1.97998,618.27001953125,116.110000610352,612.119995117188,68.1500015258789,46,606.39,38.9875,0.572083626222592
1240067,2011-04-15,LBCNL,"Rodrigo Gómez, N.L.",La Boca,Nuevo León,Santiago,Río Bravo,25.428056,-100.128056,Uso Público Urbano,Arroyo la Chueca,Contr,1961,450.04,0.839988,449.200012207031,42.6279983520508,447.55,35.003,34,445.96,28.17,0.80478816101477
1240068,2011-04-15,LBLTP,"Derivadora Las Blancas, Tamps.",Derivadora Las Blancas,Tamaulipas,Mier,Río Bravo,26.408889,-99.233611,Riego,Río Álamo,Libre,2000,93.3,1.5,91.8000030517578,124,89.9199981689453,83.7839965820312,32.28,89.77,81.953,0.97814622533268
1240069,2011-04-15,LBQCH,"La Boquilla, Chih.",Lago Toronto,Chihuahua,San Francisco de Conchos,Río Bravo,27.544722,-105.414167,Riego y Generación de Energia,Río Conchos,Libre,1916,1322,2.90002,1319.09997558594,3278.098,1317,2893.57104492188,80,1314.18,2430.21,0.839865329819683
1240070,2011-04-15,LCAVC,"La Cangrejera, Ver.",La Cangrejera,Veracruz de Ignacio de la Llav,Coatzacoalcos,Golfo Centro,18.109444,-94.330833,Riego,Arroyo Teapa,Libre,1980,23.87,2.22,21.6499996185303,31.6000003814697,21.25,28.5370006561279,15.87,17.36,7.926,0.277744675956266
1239926,2011-04-15,ELCZC,"El Cazadero, Zac.",El Cazadero,Zacatecas,Sain Alto,Cuencas Centrales del Norte,23.693333,-103.098333,Riego,Aguanaval,Libre,1964,1920.12,1.50006,1919.93994140625,44.6800003051758,1916,22.17799949646,27.12,1914.74,21.417,0.965686738491385
1239927,2011-04-15,ELOSL,"Cañada del Lobo, S.L.P.",,San Luis Potosí,San Luis Potosí,Cuencas Centrales del Norte,22.094722,-100.9675,Riego,Españita,Libre,1987,1963.7,1.54998,1962.15002441406,1.83399999141693,1958.80004882812,1.00999999046326,28,1954.92,0.379,0.375247528295682
1239928,2011-04-15,ELPSL,"Gonzalo N. Santos, S.L.P.",El Peaje,San Luis Potosí,San Luis Potosí,Cuencas Centrales del Norte,22.092222,-101.098611,Uso Público Urbano,Arroyo Grande o Azul,Libre,1953,2049.6,1.73,2047.87,8.995,2044.84997558594,6.685,38,2037.91,2.917,0.436350037397158
1239929,2011-04-15,ELZBN,"Emilio López Zamora, B.C.",Ensenada,Baja California,Ensenada,Península de Baja California,31.890278,-116.6025,Uso Público Urbano,Arroyo Ensenada,Libre,1978,27,1.74,25.2600002288818,6.34200000762939,19.8899993896484,2.73200011253357,34,21.07,3.81,1.39458266583552
1239930,2011-04-15,ENDHD,"Endhó, Hgo.",Endó,Hidalgo,Tepetitlán,Aguas del Valle de México,20.163889,-99.36,Riego,Río tula,Libre,1951,2023,3,2020,208,2018,182.899993896484,60,2008.4,84.31,0.460962289849593
1239931,2011-04-15,EPLGJ,"El Palote, Gto.",El Palote,Guanajuato,León,Lerma-Santiago-Pacífico,21.173333,-101.688056,Uso Público Urbano,Río de Los Gómez,Libre,1954,1839.5,0.9,1838.6,17.161,1836.15,9.643,20.5,1833.22,3.88,0.402364409416157
1239932,2011-04-15,EPOSL,"El Potosino, S.L.P.",El Potosino,San Luis Potosí,San Luis Potosí,Cuencas Centrales del Norte,22.099722,-101.078056,Uso Público Urbano,Río Santiago,Libre,1990,2000.85,0.150024,2000.84997558594,5.19899988174438,1996.80004882812,3.29299998283386,26,1992.01,1.837,0.557849987724303
1239933,2011-04-15,ERCTP,"Estudiante Ramiro Caballero Dorantes, Tamps.",Las Ánimas,Tamaulipas,El Mante,Golfo Norte,22.605,-98.691667, Riego,Arrollo Las Ánimas,Libre,1976,55,2.45,52.5499992370605,654.37,51.7000007629395,563.443,31.2,47.53,276.169,0.49014540956228
1239934,2011-04-15,LDCJL,"Lago de Chapala, Jal.",Chapala,Jalisco,Chapala,Lerma-Santiago-Pacífico,20.18,-103.12,Riego y Uso Público Urbano,Río Lerma,Libre,1980,0,0,99,9279.7099609375,98,8126.41015625,,95.64,5452.93,0.671013386618957
1239935,2011-04-15,LDCSI,"Luis Donaldo Colosio, Sin.",Huites,Sinaloa,Choix,Pacífico Norte,26.844722,-108.367778,Riego y Generación de Energia,Río Fuerte,Contr,1995,290.75,0.75,290,4568,270,2908.10009765625,318,249.68,1702,0.585261835165752
1239936,2011-04-15,LDCVC,"Canseco, Ver.",Laguna de Catemaco,Veracruz de Ignacio de la Llav,Catemaco,Golfo Centro,18.415833,-95.118333,Generación de Energia,Río Grande de Catemaco,Contr,1960,334.5,1,333.5,252.699996948242,332.7,193.02,7.2,331.84,129.8,0.672469174178842
1239937,2011-04-15,LDFMC,"Laguna del Fresno, Mich.",Laguna del Fresno,Michoacán de Ocampo,Maravatío,Lerma-Santiago-Pacífico,20.038333,-101.940833,Riego,Canal El Fresno,Libre,1946,2059,2,2057,13.132,2055.98,10.299,8.8,2053.22,3.455,0.335469463054666
1239938,2011-04-15,LDTGR,"Laguna de Tuxpan, Gro.",Laguna de Tuxpan,Guerrero,Iguala de la Independencia,Balsas,18.363333,-99.503056,Riego,Río Tuxpan,Libre,1937,744.75,0,743.349975585938,19.5030002593994,742.840026855469,17.6469993591309,,742.2,15.317,0.867966258075185
1239939,2011-04-15,LDYGJ,"Laguna de Yuriria, Gto.",B. de Tavamatacheo,Guanajuato,Yuriria,Lerma-Santiago-Pacífico,20.286944,-101.073056,Riego,Río Lerma,Contr,1550,0,0,1731.40002441406,325.195007324219,1730.92,278.789,10,1729.06,118.273,0.424238402519468
1239966,2011-04-15,SOLPB,"La Soledad, Pue.",Apulco o Mazatepec,Puebla,Tlatlauquitepec,Golfo Centro,19.960833,-97.446667,Generación de Energia,Apulco,Contr,1962,806.5,1.5,805,14.978,804.5,13.895,93,799.99,6.662,0.479453040662109
1239967,2011-04-15,SRSJL,"Santa Rosa, Jal.",Santa Rosa,Jalisco,Amatitán,Lerma-Santiago-Pacífico,20.908889,-103.705556,Riego,Río Santiago,Contr,1964,747,0.5,748,258.468,744,219.09,114,734.22,283.12,1.29225432470674
1239968,2011-04-15,STRZC,"Santa Rosa, Zac.",Santa Rosa,Zacatecas,Fresnillo,Cuencas Centrales del Norte,22.923611,-103.108889,Riego,Arroyo El Arenal,Libre,1937,2250.19,0.550107,2249.63989257812,14.0410003662109,2248.63989257812,10.4759998321533,15,2246.09,4.28,0.408552889325529
1239969,2011-04-15,TAYZC,"Ing. Julián Adame Alatorre, Zac.",Tayahua,Zacatecas,Villanueva,Lerma-Santiago-Pacífico,22.120556,-102.864167,Riego,Río Juchipila,Libre,1976,1701.7,0.289966,1701.41003417969,50.3769989013672,1696.01000976562,31.5979995727539,54.3,1688.69,17.168,0.543325534278553
1239970,2011-04-15,TCTJL,"Tacotán, Jal.",Tacotán,Jalisco,Unión de Tula,Lerma-Santiago-Pacífico,20.036111,-104.320278,Riego y Generación de Energia,Río Ayutla,Libre,1960,1407.5,1.20996,1406.2900390625,169,1403.06005859375,149.238998413086,10,1393.05,104.326,0.699053203983793
1239971,2011-04-15,TEMOX,"Presidente Alemán, Oax.",Temascal,Oaxaca,San Miguel Soyaltepec,Golfo Centro,18.232222,-96.412222,Generación de Energia,Papaloapan,Contr,1955,74.79,3.5,68.5,9105.5,65.5,8119.10009765625,76,57,4213.25,0.518930663413824
1239972,2011-04-15,TENJL,"Tenasco, Jal.",Boquilla de Zaragoza,Jalisco,Santa María de los Ángeles,Lerma-Santiago-Pacífico,22.171944,-103.198611,Riego,Arroyo Tenasco,Libre,1960,1777,0,1724.83996582031,13.8500003814697,1722.84997558594,10.5,33,1713.78,2.06,0.196190476190476
1239973,2011-04-15,TENPB,"Tenango, Pue.",Tenango,Puebla,Huauchinango,Golfo Centro,20.199444,-97.983333,Generación de Energia,Río Acatlán,Libre,1912,1353,2,1362,45.1199989318848,1345.6,28.203,39,1340.28,15.74,0.558096656384073
1239974,2011-04-15,TEPMC,"Tepuxtepec, Mich.",Tepuxtepec,Michoacán de Ocampo,Contepec,Lerma-Santiago-Pacífico,20.000278,-100.229167,Riego y Generación de Energia,Río Lerma,Contr,1930,2352,2,2350,537.527,2347.56,425.2,47,2344.5,305.193,0.717763405456256
1239975,2011-04-15,TIESL,"La Muñeca, S.L.P.",La Muñeca,San Luis Potosí,Tierra Nueva,Golfo Norte,21.629444,-100.548333,Riego,Santa María,Libre,1981,1843.75,2,1841.75,31,1837.69995117188,25,40.5,1835.03,18.287,0.73148
1239976,2011-04-15,ERECH,"El Rejón, Chih.",El Rejón,Chihuahua,Chihuahua,Río Bravo,28.614722,-106.119444,Riego,Arroyo El Rejón,Libre,1966,1479.8,1.48005,1478.31994628906,7.75500011444092,1477,6.528,10,1471.3,2.726,0.417585784313726
1239977,2011-04-15,ESLJL,"El Salto, Jal.",El Salto,Jalisco,Valle de Guadalupe,Lerma-Santiago-Pacífico,21.037222,-102.705,Uso Público Urbano,Río Valle de Guadalupe,Libre,1940,1814.5,2,1812.5,112,1810.16003417969,85,42,1808.82,74.154,0.8724
1239978,2011-04-15,ESTJL,"El Estribón, Jal.",El Estribón,Jalisco,Yahualica de González Gallo,Lerma-Santiago-Pacífico,21.185556,-102.900556,Riego,Río Yahualica,Libre,1946,1882.5,1.08997,1881.41003417969,7.73999977111816,1880,6.37799978256226,29,1873.63,4.041,0.633584217272675
1239979,2011-04-15,EXCZC,"Miguel Alemán, Zac.",Excamé,Zacatecas,Tepechitlán,Lerma-Santiago-Pacífico,21.645833,-103.35,Riego y Generación de Energia,Río Tlaltenango,Contr,1949,1707,2.5,1704.5,70.9199981689453,1703.47998046875,64.9800033569336,47.5,1693.42,31.64,0.486919026861267
1239980,2011-04-15,FIMCH,"Francisco I. Madero, Chih.",Las Vírgenes,Chihuahua,Rosales,Río Bravo,28.166111,-105.628889,Riego,Río San Pedro,Libre,1949,1243.8,1.23994,1242.56005859375,477.622009277344,1239.30004882812,355.286010742188,57,1237.36,297.684,0.837871435968285
1239981,2011-04-15,CILAFLCMX,"Internacional Falcón, Tamps.",Falcón,Tamaulipas,Guerrero,Río Bravo,26.560278,-99.170556,Riego y Generación de Energia,Río Bravo,Contr,1953,98.45,2.68,95.7699966430664,4862.2099609375,91.805,3264.813,48.45,90.57,2870.9,0.879345922722067
1239982,2011-04-15,FVLDR,"Francisco Villa, Dgo.",El Bosque,Durango,Poanas,Pacífico Norte,24.001667,-103.960833,Riego,Río Poanas,Libre,1968,1998.7,2.57,1996.13000488281,96.5699996948242,1993,73.2600021362305,58.7,1988.28,52.4,0.715260694404017
1239983,2011-04-15,FZRDR,"Francisco Zarco, Dgo.",Las Tortolas,Durango,Cuencamé,Cuencas Centrales del Norte,25.270833,-103.773611,Riego,Nazas,Contr,1968,1213,2.94995,1210.05004882812,383.160003662109,1208.19995117188,309.239990234375,39.5,1204.13,180.646,0.58416118776581
1239984,2011-04-15,GBESI,"Ing. Guillermo Blake Aguilar, Sin.",El Sabinal o El Cajón,Sinaloa,Sinaloa,Pacífico Norte,26.103056,-108.3275,Riego,Arroyo Ocoroni,Libre,1985,201.2,4.59,196.610000610352,468.623992919922,188.449996948242,294.019989013672,81.2,162.9,39.32,0.133732404153554
1239985,2011-04-15,GDLMX,"Sierra de Guadalupe, Méx.",Guadalupe,Estado de México,Tultitlán,Aguas del Valle de México,19.635556,-99.252222,Riego,Río Cuautitlán,Libre,1936,2308.75,1.92993,2306.82006835938,63.9000015258789,2305.19995117188,56.7000007629395,467,2300.23,37.862,0.66776013210828
1239986,2011-04-15,GDOSI,"Gustavo Díaz Ordaz, Sin.",Bacurato,Sinaloa,Sinaloa,Pacífico Norte,25.856667,-107.911111,Riego y Generación de Energia,Río Sinaloa,Contr,1981,256,3.5,252.5,2687.074,237.06,1618.8,116,219.06,845.64,0.52238695329874
1239987,2011-04-15,GLNGJ,"La Golondrina, Gto.",La Golondrina,Guanajuato,Pénjamo,Lerma-Santiago-Pacífico,20.439167,-101.7425,Riego,Río Penjamo,Libre,1968,1838.7,1.58,1837.11999511719,5.96999979019165,1835.19995117188,4.67000007629395,45.7,1829.94,3.093,0.662312623012753
1239988,2011-04-15,GUAMC,"Guaracha, Mich.",San Antonio,Michoacán de Ocampo,Villamar,Lerma-Santiago-Pacífico,19.979167,-102.541389,Riego y Generación de Energia,Arroyo Las Liebres,Libre,1913,1596.72,0,1580.11,29.79,1580.01,28.677,8,1594.37,20.576,0.717508804965652
1239989,2011-04-15,LREHD,"Los Reyes, Hgo.",Omiltepec,Hidalgo,Acaxochitlán,Golfo Centro,20.174722,-98.131944,Generación de Energia,Río Omiltepec,Libre,1913,2168.5,1.5,2167,27,2165,26.0499992370605,30,2160.25,12.829,0.492476022100936
1239990,2011-04-15,LREZC,"Gobernador Leobardo Reynoso, Zac.",Trujillo,Zacatecas,Fresnillo,Cuencas Centrales del Norte,23.18,-103.216944,Riego,Los Lazos,Libre,1946,2131.85,2.31997,2129.53002929688,125.919998168945,2127.35009765625,95.7200012207031,40.34,2118.84,36.562,0.381968235830863
1239991,2011-04-15,MABGJ,"Mariano Abasolo, Gto.",San Antonio de Aceves,Guanajuato,Pénjamo,Lerma-Santiago-Pacífico,20.504444,-101.931944,Riego,Arroyo los Otates,Libre,1971,1755,1.92,1753.08,23.946,1751.3,20.079,43,1740.61,4.732,0.235669107027242
1240018,2011-04-15,PENCP,"Ángel Albino Corzo, Chis.",Peñitas,Chiapas,Tecpatán,Frontera Sur,17.446111,-93.458611,Generación de Energia,Río Grijalva,Contr,1986,98,5,93,1448.43,87.4000015258789,1091.09997558594,53,85.76,1002.18,0.918504282306316
1240019,2011-04-15,PERHD,"La Esperanza, Hgo.",La Esperanza,Hidalgo,Cuautepec de Hinojosa,Golfo Norte,20.0575,-98.334722,Riego,San Lorenzo,Libre,1943,2210.6,0.999902,2209.60009765625,4.19999980926514,2207.69995117188,3.92000007629395,27,2206.68,3.507,0.894642839730655
1240020,2011-04-15,PFBMX,"Francisco José Trinidad Fabela, Méx.",Isla de las Aves o El Salto,Estado de México,Atlacomulco,Lerma-Santiago-Pacífico,19.829167,-99.790278,Riego,Río Del Salto,Libre,1945,2697.5,1.69995,2697.80004882812,10,2696.69995117188,9.93000030517578,19.15,2691.19,1.93,0.194360517692435
1240021,2011-04-15,PIRMX,"Ignacio Ramírez, Méx.",La Gavia,Estado de México,Almoloya de Juárez,Lerma-Santiago-Pacífico,19.461667,-99.775,Riego,Río La Gavia,Libre,1965,2553.76,3.28002,2550.47998046875,36.2999992370605,2548.47998046875,20.5,23.5,2545.83,6.619,0.322878048780488
1240022,2011-04-15,PJMTP,"Pedro José Méndez, Tamps.",Pedro José Méndez,Tamaulipas,Hidalgo,Golfo Norte,24.2475,-99.555833,Riego,A. San Juan y Tranquitas,Libre,1982,453,3.60001,449.399993896484,38.3600006103516,447.220001220703,31.2600002288818,55,442.39,18.658,0.596864998828805
1240023,2011-04-15,PMDMX,"Madín, Méx.",Madín,Estado de México,Naucalpan de Juárez,Aguas del Valle de México,19.526944,-99.260833,Uso Público Urbano,Río Tlanepantla,Contr,1959,2348.5,2.46,2346.04,17.964,2336.294,9.37,73,2337.01,16.656,1.77758804695838
1240024,2011-04-15,PMHSI,"Miguel Hidalgo, Sin.",El Mahone,Sinaloa,El Fuerte,Pacífico Norte,26.509722,-108.58,Riego y Generación de Energia,Río Fuerte,Mixto,1956,151.4,3.4,148,4171.273,142.36,3312.889,81,129.35,1656.33,0.499965438021014
1240025,2011-04-15,PMNMX,"El Molino, Méx.",Molinitos,Estado de México,Naucalpan de Juárez,Aguas del Valle de México,20.124167,-99.739722,Riego,Zarco y El Posal,Libre,1980,2491,0,2385.09008789062,8.69999980926514,2384.38989257812,7.69000005722046,12,2378,0.32,0.0416124834354895
1240026,2011-04-15,PMOSO,"Ing. Rodolfo Félix Valdés, Son.",El Molinito,Sonora,Hermosillo,Noroeste,29.2125,-110.725556,Riego,Rio Sonora,Libre,1991,295.4,2.00001,293.399993896484,233.919998168945,289.359985351562,130.039993286133,31.4,280.38,21.555,0.165756698807048
1240027,2011-04-15,PNDMX,"Ñadó, Méx.",Ñado,Estado de México,Aculco,Aguas del Valle de México,20.038611,-99.864444, Riego,Ñadó,Libre,1980,2477.5,2,2475.5,18.5,2474,16.7999992370605,52.5,2465.72,8.14,0.484523831527521
1240028,2011-04-15,PNLGJ,"Peñuelitas, Gto.",Peñuelitas,Guanajuato,Dolores Hidalgo Cuna de la Independencia Nacional,Lerma-Santiago-Pacífico,21.105,-100.878333,Riego,Río de la Erre,Libre,1960,1908.2,0.91,1907.29,30.169,1904.7,17.46,28,1900.5,9.2,0.526918671248568
1240029,2011-04-15,GVCDR,"Presidente Guadalupe Victoria, Dgo.",El Tunal,Durango,Durango,Pacífico Norte,23.961111,-104.753056,Riego,Río El Tunal,Mixto,1962,1934.8,1.69,1934.61,94.617,1931,78.06,72.8,1927.68,68.642,0.879349218549833
1240030,2011-04-15,HPNMX,"Huapango, Méx.",Huapango,Estado de México,Aculco,Aguas del Valle de México,20.046389,-99.696944,Riego,Huapango,Libre,1765,2513,0.199951,2512.80004882812,126.5,2512.64990234375,121.5,8.8,2509.41,19.94,0.164115226337449
1240031,2011-04-15,HRTJL,"Hurtado, Jal.",Valencia,Jalisco,Acatlán de Juárez,Lerma-Santiago-Pacífico,20.466944,-103.651111,Riego,Arroyo San Antonio,Libre,1879,1464,1.34,1462.66,22.625,1462.66,22.625,10.35,1459.9,8.667,0.38307182320442
1240032,2011-04-15,IALGJ,"Ignacio Allende, Gto.",La Begoña,Guanajuato,San Miguel de Allende,Lerma-Santiago-Pacífico,20.848056,-100.825833,C. A. y Riego,Río La Laja,Contr,1968,1834.7,2.04998,1832.65002441406,221.693,1828.75,125.118,43,1825.58,91.02,0.727473265237616
1240033,2011-04-15,IDFQT,"San Ildefonso, Qro.",El Tepozán,Querétaro,Amealco de Bonfil,Golfo Norte,20.198611,-99.9625, Riego,Prieto,Libre,1942,2261.93,1.87,2242.5,58.026,2239,47.812,62.7,2210.76,3.157,0.0660294486739731
1240034,2011-04-15,INFMC,"Infiernillo, Mich.",Infiernillo,Guerrero,Arteaga,Balsas,18.266667,-101.883333,Generación de Energia,Río Balsas,Contr,1964,184,0.8,183.2,12562.44,169,7297.79,151.5,154.14,4987.24,0.683390451081766
1240035,2011-04-15,IRASO,"Ignacio R. Alatorre, Son.",Punta de Agua,Sonora,Guaymas,Noroeste,28.426389,-110.396944, Riego,Mátape,Libre,1972,105,2.29,102.709999084473,29.6900005340576,100,16.1599998474121,30,94.67,3.684,0.227970299182271
1240036,2011-04-15,IVGSL,"Valentín Gama, S.L.P.",Ojo Caliente,San Luis Potosí,Villa de Reyes,Cuencas Centrales del Norte,21.88,-100.820556,Riego,Santa María,Libre,1970,1789.55,1.45002,1788.09997558594,22.3999996185303,1783.80004882812,9.51000022888184,24,1779.71,2.69,0.282860140405726
1240037,2011-04-15,JARMC,"Jaripo, Mich.",Jaripo,Michoacán de Ocampo,Villamar,Lerma-Santiago-Pacífico,19.958333,-102.601944,Riego,Río Jaripo,Libre,1951,1548.5,2.2,1580.42,9.265,1578.91,6.028,#¡VALOR!,1541.6,3.74,0.62043795620438
1240038,2011-04-15,JCQAG,"Jocoque, Ags.",Der. Jocoqui,Aguascalientes,Pabellón de Arteaga,Lerma-Santiago-Pacífico,22.121667,-102.356944,Riego,Río San Pedro,Libre,1929,1944.95,1.54998,1943.40002441406,11.3999996185303,1942.44995117188,10.9750003814697,44,1940.45,9.6,0.874715231555592
1240039,2011-04-15,JDMOX,"Presidente Benito Juárez, Oax.",El Marqués,Oaxaca,Santa María Jalapa del Marqués,Pacífico Sur,16.445556,-95.397778,Riego,Ríos Tequisistán y Tehuantepec,Libre,1961,138.4,2.64999,139.850006103516,1726.62902832031,124.25,720.317016601562,85.5,120.83,779.003,1.08147243789313
1240040,2011-04-15,JGRSI,"Juan Guerrero Alcocer, Sin.",Vinoramas,Sinaloa,Culiacán,Pacífico Norte,24.753611,-107.059444,Riego,Río Tamazula,Libre,1994,178.3,2.02,176.279998779297,102,168.5,55,50,152.06,6.804,0.123709090909091
1240041,2011-04-15,JLPSI,"José López Portillo, Sin.",El Comedero,Sinaloa,Cosalá,Pacífico Norte,24.571667,-106.807222,Riego y Generación de Energia,Río San lorenzo,Contr,1981,290,4.54999,286.950012207031,3966.169921875,272.160003662109,2580.18994140625,135.5,249.7,1164.37,0.451272978517774
1240042,2011-04-15,JORSI,"Josefa Ortiz de Domínguez, Sin.",El Sabino,Sinaloa,El Fuerte,Pacífico Norte,26.426944,-108.7025,Riego,Río Alamos,Contr,1967,113.5,2.93,112.650001525879,695.44,109.5,518.928,44,106.76,376.68,0.725881047081676
1240043,2011-04-15,POLJL,"Ing. Guillermo Lugo Sanabria, Jal.",La Pólvora,Jalisco,Degollado,Lerma-Santiago-Pacífico,20.491111,-102.231944,Riego,Río Huáscato,Libre,1989,1669.1,4.1,1665,55,1663.46,51.675,59.1,1651.53,25.851,0.500261248185777
1240071,2011-04-15,LCDSO,"Lázaro Cárdenas, Son.",La Angostura,Sonora,Villa Hidalgo,Noroeste,30.437778,-109.378889,Generación de Energia y Riego,Bavispe,Libre,1942,843.75,3.59998,840.150024414062,1116.4599609375,830.700012207031,703.380004882812,91.75,829.24,649.343,0.92317523314895
1240072,2011-04-15,LCLGR,"La Calera, Gro.",La Calera,Guerrero,Zirándaro,Balsas,18.418611,-101.003056,Riego y Uso Público Urbano,Río del oro,Libre,1964,124.3,1.68,122.620002746582,34.25,118,9.39299964904785,31.8,117.71,20.505,2.18300870500709
1240073,2011-04-15,LCLJL,"La Colonia, Jal.",La Colonia,Jalisco,Zapotlán del Rey,Lerma-Santiago-Pacífico,20.43,-102.931944,Riego,Arroyo Los Sabinos,Libre,1927,0,0,103.400001525879,6.5,103,5.80000019073486,6,101.09,1.651,0.284655163052817
1240074,2011-04-15,LCRDR,"Lázaro Cárdenas, Dgo.",El Palmito,Durango,Indé,Cuencas Centrales del Norte,25.594167,-105.015833, Riego,Nazas,Contr,1946,1635,3,1632,4278.5400390625,1622.46,2957.608,21.9,1617.96,2636.56,0.891450117797896
1240075,2011-04-15,LDACM,"Laguna de Amela, Col.",Tecoman,Colima,Tecomán,Lerma-Santiago-Pacífico,18.809167,-103.774167,Riego,Arroyo La Mina Verde y Canal C,Libre,1956,10.89,3.25,7.6399998664856,41.2999992370605,7.3899998664856,38.3429985046387,6.35,6.03,23.904,0.623425421387118
1240076,2011-04-15,VGRTP,"Vicente Guerrero, Tamps.",Las Adjuntas,Tamaulipas,Padilla,Golfo Norte,23.959444,-98.666389, Riego,Soto La Marina,Contr,1967,148,4.12001,144.039993286133,5498.22998046875,140.440002441406,3910.68994140625,62,139.68,3616.95,0.924887949234701
1240077,2011-04-15,VHGDR,"Villa Hidalgo, Dgo.",Villa Hidalgo,Durango,Hidalgo,Cuencas Centrales del Norte,26.2425,-104.928889,Riego y Uso Público Urbano,A. Cerro Gordo,Libre,1977,1731.28,1.73,1729.55,39.555,1726.23,23.08,34.2,1717.45,9.449,0.409402079722704
1240078,2011-04-15,VILMC,"José María Morelos y Pavón, Mich.",La Villita,Michoacán de Ocampo,Lázaro Cárdenas,Balsas,18.048333,-102.180278,Riego y Generación de Energia,Río Balsas,Contr,1973,59.73,3,56.73,714.593,51.2,531.414,135.13,50.02,500.7,0.942203253960189
1240079,2011-04-15,VILZC,"José María Morelos, Zac.",La Villita,Zacatecas,Tepechitlán,Lerma-Santiago-Pacífico,21.588889000000002,-103.3375,Riego,Río San Pedro,Libre,1986,1833.2,2.01006,1831.18994140625,11.164999961853,1829,9.01799964904785,39.2,1825.13,6.878,0.762696858246851
1240080,2011-04-15,VNTQT,"La Venta, Qro.",La Venta,Querétaro,Pedro Escobedo,Golfo Norte,20.498611,-100.190556, Riego,Arrollo El Hondo,Libre,1907,1896,0.619946,1907.68005371094,3.77699995040894,1906.68005371094,2.47900009155273,4.3,1904,0.01,0.00403388448192289
1240081,2011-04-15,VTRGR,"Valerio Trujano, Gro.",Tepecoacuilco,Guerrero,Tepecoacuilco de Trujano,Balsas,18.295833,-99.466111,Riego,Río Tepecoacuilco,Libre,1964,844.3,1.51997,842.780029296875,51.6500015258789,840,31.0139999389648,33.3,834.13,13.418,0.432643323221979
1240082,2011-04-15,VVCMX,"Villa Victoria, Méx.",Villa Victoria,Estado de México,Villa Victoria,Balsas,19.461667,-100.055556,Uso Público Urbano,Río San Juan Malacatepec,Libre,1944,2561.96,0,2607.5,252.029998779297,2605.5,185.723007202148,19,2603.43,128.914,0.694119710541219
1240083,2011-04-15,ZICMC,"Zicuirán, Mich.",La Peña,Michoacán de Ocampo,La Huacana,Balsas,18.921111,-101.931944,Riego,Río Zicuarán,Libre,1957,302.75,1.31,301.440002441406,47.4850006103516,299,36.2939987182617,46,293.53,28.137,0.775252135164775
1240084,2011-04-15,ZMPHD,"Ing. Fernando Hiriart Balderrama, Hgo.",Zimapán,Hidalgo,Zimapán,Golfo Norte,20.663333,-99.501111,Generación de Energia,Moctezuma,Contr,1990,1565,2,1563,1460.10998535156,1560,1390.10998535156,203,1551.63,1194.14,0.85902555379314
1240085,2011-04-15,CHUCH,"Chihuahua, Chih.",Chihuahua,Chihuahua,Chihuahua,Río Bravo,28.570556,-106.167778,Uso Público Urbano,Río Chuvíscar,Libre,1960,1546,1.71997,1544.28002929688,35.6310005187988,1540.81994628906,23.382999420166,58,1533.93,8.139,0.348073395279681
1240086,2011-04-15,CHYVC,"Paso de Piedras, Ver.",Chicayán,Veracruz de Ignacio de la Llav,Pánuco,Golfo Norte,21.7375,-98.155833,Riego,Chicayán,Contr,1979,32.25,3.97,28.28,570,23.07,220,30,20.92,131.313,0.596877272727273
1240087,2011-04-15,CJNNR,"Leonardo Rodríguez Alcaine, Nay.",El Cajón,Nayarit,Santa María del Oro,Lerma-Santiago-Pacífico,21.428333,-104.450833,Generación de Energia,Río Santiago,Contr,2006,394.5,0.5,394,2860.19995117188,391,2551.69995117188,186,381.36,1925.532,0.754607530997402
1240047,2011-04-15,PSANL,"Salinillas, N.L.",Salinillas,Nuevo León,Anáhuac,Río Bravo,27.429167,-100.372222,Riego,Río Salado,Libre,1930,0,0,232,19.0109996795654,232,19.0109996795654,10,230.9,13.954,0.733996119888366
