idmonitoreodiario,fechamonitoreo,clavesih,nombreoficial,nombrecomun,estado,nommunicipio,regioncna,latitud,longitud,uso,corriente,tipovertedor,inicioop,elevcorona,bordolibre,nameelev,namealmac,namoelev,namoalmac,alturacortina,elevacionactual,almacenaactual,llenano
1435390,2014-04-15,AGMNR,"Aguamilpa Solidaridad, Nay.",Aguamilpa,Nayarit,Tepic,Lerma-Santiago-Pacífico,21.839167,-104.802222,Riego y Generación de Energia,Río Santiago,Contr,1993,235,3,232,6950,220,5540,187,202.92,3924.75,0.708438628158845
1435448,2014-04-15,CNTQT,"El Centenario, Qro.",El Centenario,Querétaro,Querétaro,Golfo Norte,20.513333,-99.897778,Riego,San Juan,Mixto,1910,1898,0.51001,1881.98999023438,14.178,1881.57995605469,9.882,13,1879.37,3.763,0.380793361667679
1435415,2014-04-15,BBAJL,"Basilio Vadillo, Jal.",Las Piedras,Jalisco,El Limón,Lerma-Santiago-Pacífico,19.913611,-104.061111,Riego,Río San Miguel,Libre,1973,982.8,2.7,978.97,146.888,974.34,124.689,96,967.92,115.248,0.92428361764069
1435416,2014-04-15,BDDPB,"Manuel Ávila Camacho, Pue.",Valsequillo o Balcón del Diablo,Puebla,Tzicatlacoyan,Balsas,18.9125,-98.108611,Riego,Río Atoyac,Libre,1946,2064,2,2062,391.489,2059,300.097,85,2057.4,263.966,0.879602261935308
1435417,2014-04-15,BTEZC,"Ramón López Velarde, Zac.",Boca del Tesorero,Zacatecas,Jerez,Lerma-Santiago-Pacífico,22.824167,-102.953333,Riego,Río Boca del Tesorero,Libre,1975,2100.5,2.34009,2098.15991210938,36.7439994812012,2096,26.2199993133545,28.8,2095.55,24.294,0.926544646689844
1435418,2014-04-15,CBRDR,"Caboraca, Dgo.",Canoas,Durango,Canatlán,Pacífico Norte,24.538333,-104.810278,Riego,Río La Sauceda,Libre,1992,2003.75,2.46997,2001.28002929688,57.8800010681152,1998.25,45,37,1997.07,39.212,0.871377777777778
1435419,2014-04-15,CCHNL,"Cuchillo Solidaridad, N.L.",El Cuchillo,Nuevo León,China,Río Bravo,25.711667,-99.276944,Riego y Uso Público Urbano,Río San Juan,Contr,1994,169.2,3,166.660003662109,1784.2900390625,162.350006103516,1123.14294433594,44,161.14,976.578,0.869504638679278
1435420,2014-04-15,CDOOX,"Miguel de la Madrid Hurtado, Oax.",Cerro de Oro,Oaxaca,San Lucas Ojitlán,Golfo Centro,17.999167,-96.263611,Generación de Energia,Río Papaloapan,Contr,1988,75.6,2.8,72.8000030517578,3550,64.8600006103516,2599.51000976562,70,55.83,1321.97,0.508545839421172
1435421,2014-04-15,CDRAG,"La Codorniz, Ags.",La Codorniz,Aguascalientes,Calvillo,Lerma-Santiago-Pacífico,21.9975,-102.676944,Riego,Río de La Labor,Libre,1966,1840,2.23999,1837.76000976562,6.52799987792969,1836,5.36600017547607,36,1834.58,4.552,0.848304109419106
1435422,2014-04-15,CHICP,"Manuel Moreno Torres, Chis.",Chicoasén,Chiapas,Chicoasén,Frontera Sur,16.941667,-93.100556,Generación de Energia,Río Grijalva,Contr,1980,405,7,395,1443.08996582031,392.5,1384.85998535156,265,391.69,1366.66,0.986857887769107
1435423,2014-04-15,CHIZC,"El Chique, Zac.",El Chique,Zacatecas,Tabasco,Lerma-Santiago-Pacífico,21.997222,-102.896111,Riego,Río Juchipila,Libre,1958,1588.48,2.00002,1586.47998046875,192.567001342773,1580.18005371094,138.908996582031,61,1566.18,56.506,0.406784307642961
1435424,2014-04-15,CHLJL,"Chila, Jal.",Chila,Jalisco,Zapotlán del Rey,Lerma-Santiago-Pacífico,20.489722,-102.944167,Riego,Arroyo Chila,Libre,1945,1525.88,1,99,1,98.7,0.762,10,96.57,0.374,0.490813648293963
1435425,2014-04-15,CHLMC,"Constitución de Apatzingán, Mich.",Chilatan,Jalisco,Apatzingán,Balsas,19.287778,-102.774167,Riego y Generación de Energia,Río Tepalcatepec,Libre,1990,440,2.32001,437.679992675781,807.150024414062,429.450012207031,590.025024414062,107,419.43,405.261,0.686853918446007
1435426,2014-04-15,CHTSO,"Cuauhtémoc, Son.",Santa Teresa,Sonora,Atil,Noroeste,30.873333,-111.516389, Riego,Atil,Libre,1950,603,2.75,600.25,66.3300018310547,597,41.4700012207031,57.2,586.78,15.34,0.369905945224371
1435427,2014-04-15,NNEPB,"Necaxa, Pue.",Necaxa,Puebla,Juan Galindo,Golfo Centro,20.216667,-98.000556,Generación de Energia,Río Necaxa,Libre,1908,1344,1,1344,43,1338,29.0550003051758,59,1329.7,14.885,0.512304245178357
1435428,2014-04-15,PAGCH,"Pico del Águila, Chih.",Pico del Águila,Chihuahua,Coronado,Río Bravo,26.546389,-105.254167,Riego,Río Florido,Libre,1993,1625.9,2.5,1619,62.0200004577637,1616.90002441406,51.106,42,1607.7,15.644,0.306108871756741
1435429,2014-04-15,PAGDR,"Peña del Águila, Dgo.",Peña del Águila,Durango,Durango,Pacífico Norte,24.203889,-104.656667,Riego,Río La Sauceda,Libre,1954,1896.8,1.52998,1895.27001953125,54.7210006713867,1892.5,27.9479999542236,25,1891.92,27.839,0.996099901445464
1435430,2014-04-15,PALZC,"Palomas, Zac.",Palomas,Zacatecas,Villanueva,Lerma-Santiago-Pacífico,22.347778,-102.798056,Riego,Río Juchipila,Libre,1970,1908.34,0.86002,1907.47998046875,8.74899959564209,1904.25,4.61100006103516,28,1903.99,5.998,1.30080241175565
1435431,2014-04-15,PECAG,"Plutarco Elías Calles, Ags.",Calles,Aguascalientes,San José de Gracia,Lerma-Santiago-Pacífico,22.141111,-102.417222,Riego,Río Santiago,Libre,1931,2022.6,0.6,2022,407.438,2020,358.121,67,2006.75,116,0.323912867438659
1435432,2014-04-15,PECSO,"Plutarco Elías Calles, Son.",El Novillo,Sonora,Bacanora,Noroeste,28.976667,-109.642222,Riego y Generación de Energia,Río Yaqui,Contr,1964,297.8,1.00001,296.799987792969,3443.5,290.5,2833.07006835938,133.8,284.4,2241.31,0.791124097152295
1435433,2014-04-15,PENCP,"Ángel Albino Corzo, Chis.",Peñitas,Chiapas,Tecpatán,Frontera Sur,17.446111,-93.458611,Generación de Energia,Río Grijalva,Contr,1986,98,5,93,1448.43,87.4000015258789,1091.09997558594,53,86.63,1049.34,0.961726719347132
1435434,2014-04-15,PERHD,"La Esperanza, Hgo.",La Esperanza,Hidalgo,Cuautepec de Hinojosa,Golfo Norte,20.0575,-98.334722,Riego,San Lorenzo,Libre,1943,2210.6,0.999902,2209.60009765625,4.19999980926514,2207.69995117188,3.92000007629395,27,2206.53,3.46,0.882653044045642
1435435,2014-04-15,PFBMX,"Francisco José Trinidad Fabela, Méx.",Isla de las Aves o El Salto,Estado de México,Atlacomulco,Lerma-Santiago-Pacífico,19.829167,-99.790278,Riego,Río Del Salto,Libre,1945,2697.5,1.69995,2697.80004882812,10,2696.69995117188,9.93000030517578,19.15,2691.47,2.175,0.219033225896915
1435436,2014-04-15,PIRMX,"Ignacio Ramírez, Méx.",La Gavia,Estado de México,Almoloya de Juárez,Lerma-Santiago-Pacífico,19.461667,-99.775,Riego,Río La Gavia,Libre,1965,2553.76,3.28002,2550.47998046875,36.2999992370605,2548.47998046875,20.5,23.5,2547.65,15.27,0.744878048780488
1435437,2014-04-15,PJMTP,"Pedro José Méndez, Tamps.",Pedro José Méndez,Tamaulipas,Hidalgo,Golfo Norte,24.2475,-99.555833,Riego,A. San Juan y Tranquitas,Libre,1982,453,3.60001,449.399993896484,38.3600006103516,447.220001220703,31.2600002288818,55,447.35,31.65,1.01247600026432
1435438,2014-04-15,PLYJL,"Ing. Alfredo Elías Ayub, Jal.",La Yesca,Nayarit,Hostotipaquillo,Lerma-Santiago-Pacífico,21.196944,-104.105833,Generación de Energia,Río Santiago,Contr,2012,579,1,578,2392.88989257812,575,2292.919921875,208.5,567.48,2058.41,0.897724329734449
1435439,2014-04-15,PMDMX,"Madín, Méx.",Madín,Estado de México,Naucalpan de Juárez,Aguas del Valle de México,19.526944,-99.260833,Uso Público Urbano,Río Tlanepantla,Contr,1959,2348.5,2.46,2346.04,17.964,2336.294,9.37,73,2337.21,16.837,1.79690501600854
1435440,2014-04-15,PMHSI,"Miguel Hidalgo, Sin.",El Mahone,Sinaloa,El Fuerte,Pacífico Norte,26.509722,-108.58,Riego y Generación de Energia,Río Fuerte,Mixto,1956,151.4,3.4,148,4171.273,142.36,3312.889,81,117.74,799.34,0.241281853995108
1435468,2014-04-15,PMNMX,"El Molino, Méx.",Molinitos,Estado de México,Naucalpan de Juárez,Aguas del Valle de México,20.124167,-99.739722,Riego,Zarco y El Posal,Libre,1980,2491,0,2385.09008789062,8.69999980926514,2384.38989257812,7.69000005722046,12,2378,0.302,0.0392717812422433
1435469,2014-04-15,PMOSO,"Ing. Rodolfo Félix Valdés, Son.",El Molinito,Sonora,Hermosillo,Noroeste,29.2125,-110.725556,Riego,Rio Sonora,Libre,1991,295.4,2.00001,293.399993896484,233.919998168945,289.359985351562,130.039993286133,31.4,276.83,7.636,0.0587203967566975
1435470,2014-04-15,PNDMX,"Ñadó, Méx.",Ñado,Estado de México,Aculco,Aguas del Valle de México,20.038611,-99.864444, Riego,Ñadó,Libre,1980,2477.5,2,2475.5,18.5,2474,16.7999992370605,52.5,2468.42,10.47,0.623214314016356
1435471,2014-04-15,PNLGJ,"Peñuelitas, Gto.",Peñuelitas,Guanajuato,Dolores Hidalgo Cuna de la Independencia Nacional,Lerma-Santiago-Pacífico,21.105,-100.878333,Riego,Río de la Erre,Libre,1960,1908.2,0.91,1907.29,30.169,1904.7,17.46,28,1902.8,16.54,0.947308132875143
1435472,2014-04-15,POLJL,"Ing. Guillermo Lugo Sanabria, Jal.",La Pólvora,Jalisco,Degollado,Lerma-Santiago-Pacífico,20.491111,-102.231944,Riego,Río Huáscato,Libre,1989,1669.1,4.1,1665,55,1663.46,51.675,59.1,1652.12,26.854,0.519671020803096
1435473,2014-04-15,PRGHD,"Javier Rojo Gómez, Hgo.",La Peña,Hidalgo,Alfajayucan,Aguas del Valle de México,20.359722,-99.329444,Riego,Río Alfajayucan,Contr,1979,1980.96,1.3,1975.7,52.8,1974,46,60,1969.9,33.76,0.733913043478261
1435474,2014-04-15,PRQHD,"Requena, Hgo.",Requena,Hidalgo,Tepeji del Río de Ocampo,Aguas del Valle de México,19.963056,-99.310833,Riego,Río Tepeji,Mixto,1922,2116.59,1.5,2110.5,60.5299987792969,2108.9599609375,52.423999786377,38,2103.37,20.102,0.383450329656528
1435475,2014-04-15,PRSGJ,"La Purísima, Gto.",La Purísima,Guanajuato,Guanajuato,Lerma-Santiago-Pacífico,20.867222,-101.287778,Riego,Río Guanajuato,Contr,1979,1863,2.20996,1860.7900390625,181.926,1852.06994628906,98.23,52,1843.11,48.974,0.498564593301435
1435476,2014-04-15,PSANL,"Salinillas, N.L.",Salinillas,Nuevo León,Anáhuac,Río Bravo,27.429167,-100.372222,Riego,Río Salado,Libre,1930,0,0,232,19.0109996795654,232,19.0109996795654,10,230.66,12.929,0.680079965173906
1435477,2014-04-15,PTRAG,"Derivadora Pabellón, Ags.",Der. Potrerillos,Aguascalientes,San José de Gracia,Lerma-Santiago-Pacífico,22.235,-102.4375,Riego,Río San Pedro,Libre,1931,2099.86,0,2093,2.09999990463257,2092.60009765625,2.03800010681152,33.94,2086.37,1.214,0.595682009997202
1435478,2014-04-15,PUCMC,"Pucuato, Mich.",Pucuato,Michoacán de Ocampo,Hidalgo,Balsas,19.621389,-100.684167,Riego,Río Pucuato,Libre,1946,2501.25,1.25,2500,11.534,2499,9.485,15,2479.02,6.929,0.730521876647338
1435479,2014-04-15,PVAHD,"Vicente Aguirre, Hgo.",Las Golondrinas,Hidalgo,Alfajayucan,Aguas del Valle de México,20.435556,-99.375833,Riego,Río Alfajayucan,Libre,1954,1865.9,7.4,1858.5,21.7999992370605,1858.15002441406,20.7999992370605,27,1853.1,7.96,0.382692321729378
1435480,2014-04-15,REDJL,"La Red, Jal.",La Red,Jalisco,Tepatitlán de Morelos,Lerma-Santiago-Pacífico,20.718889,-102.815278,Riego,Río Calderón,Libre,1968,1796.5,1.80005,1794.69995117188,18.2999992370605,1792.5,14.25,24,1786.66,5.593,0.392491228070175
1435481,2014-04-15,RMEGR,"Revolución Mexicana, Gro.",El Guineo,Guerrero,Ayutla de los Libres,Pacífico Sur,16.823611,-99.166111,Riego,Río Nexpa,Libre,1984,110.7,3.11,107.589996337891,260,94.4000015258789,126.694000244141,70.7,91.52,105.432,0.832178317811668
1435482,2014-04-15,CRTJL,"El Cuarenta, Jal.",El Cuarenta,Jalisco,Lagos de Moreno,Lerma-Santiago-Pacífico,21.497778,-101.7375,Riego,Río de Lagos,Libre,1949,2004,2.05005,2001.94995117188,38.9599990844727,1998.75,30.625,42,1998.01,28.627,0.934759183673469
1435483,2014-04-15,CUQJL,"Cuquío, Jal.",Los Gigantes,Jalisco,Cuquío,Lerma-Santiago-Pacífico,20.948056,-103.039444,Riego,Arroyo Achichilco,Libre,1967,1808.5,1.92004,1806.57995605469,8.85000038146973,1805.5,7.5,24,1804.4,6.175,0.823333333333333
1435484,2014-04-15,DBOMC,"El Bosque, Mich.",El Bosque,Michoacán de Ocampo,Zitácuaro,Balsas,19.387778,-100.421111,Riego y Uso Público Urbano,Río Zitácuaro,Libre,1954,1745,2,1743,250.5,1741.40002441406,202.399993896484,70,1727.02,74.346,0.367322145464212
1435485,2014-04-15,DGNMC,"De Gonzalo, Mich.",De Gonzalo,Michoacán de Ocampo,Vista Hermosa,Lerma-Santiago-Pacífico,20.304444,-102.436944,Riego,Río Las Nutrias,Libre,1890,1535.83,0.93,1534.9,10,1533.88,8.837,10,1534.01,5.537,0.626570102976123
1435486,2014-04-15,DNXMX,"Danxhó, Méx.",Danxho,Estado de México,Jilotepec,Aguas del Valle de México,19.884722,-99.559722,Riego,Coscomate,Libre,1951,2455.6,0.470117,2455.1298828125,32.6699981689453,2454,31.0499992370605,31,2451.8,21.982,0.707954928828559
1435487,2014-04-15,EBLSI,"Lic. Eustaquio Buelna, Sin.",Guamuchil,Sinaloa,Salvador Alvarado,Pacífico Norte,25.484722,-108.065556,Riego y Uso Público Urbano,Río Mocorito,Contr,1972,71.2,2.35,68.8499984741211,264.950012207031,63.54,80.08,29,62.26,55.462,0.692582417582418
1435488,2014-04-15,ECAGR,"Ing. Carlos Ramírez Ulloa, Gro.",El Caracol,Guerrero,Apaxtla,Balsas,17.947778,-99.995556,Generación de Energia,Río Balsas,Contr,1986,526,2.4,523.6,1202.398,521,1084.85,126,516.05,1247.35,1.14979029358898
1435489,2014-04-15,EGCJL,"Ing. Elías González Chávez, Jal.",Puente Calderón,Jalisco,Zapotlanejo,Lerma-Santiago-Pacífico,20.681389,-102.976111,Uso Público Urbano,Río Calderón,Libre,1991,1622,2,1620,100,1618,80,36,1611.18,30.379,0.3797375
1435490,2014-04-15,EGLGR,"El Gallo, Gro.",El Gallo,Guerrero,Cutzamala de Pinzón,Balsas,18.703056,-100.671111,Riego,Río Cutzamala,Libre,1998,370.5,2.5,368,545.966003417969,362.779998779297,400.039001464844,67.5,359.48,323.91,0.809696051669767
1435491,2014-04-15,ELCZC,"El Cazadero, Zac.",El Cazadero,Zacatecas,Sain Alto,Cuencas Centrales del Norte,23.693333,-103.098333,Riego,Aguanaval,Libre,1964,1920.12,1.50006,1919.93994140625,44.6800003051758,1916,22.17799949646,27.12,1915.02,22.565,1.01744974805333
1435492,2014-04-15,ELOSL,"Cañada del Lobo, S.L.P.",,San Luis Potosí,San Luis Potosí,Cuencas Centrales del Norte,22.094722,-100.9675,Riego,Españita,Libre,1987,1963.7,1.54998,1962.15002441406,1.83399999141693,1958.80004882812,1.00999999046326,28,1955.49,0.45,0.44554455866242
1435493,2014-04-15,ELPSL,"Gonzalo N. Santos, S.L.P.",El Peaje,San Luis Potosí,San Luis Potosí,Cuencas Centrales del Norte,22.092222,-101.098611,Uso Público Urbano,Arroyo Grande o Azul,Libre,1953,2049.6,1.73,2047.87,8.995,2044.84997558594,6.685,38,2038.53,3.134,0.468810770381451
1435520,2014-04-15,SLDGJ,"La Soledad, Gto.",La Soledad,Guanajuato,Dolores Hidalgo Cuna de la Independencia Nacional,Lerma-Santiago-Pacífico,21.04,-101.279722,Uso Público Urbano,Río Santa Ana,Libre,1956,2211.4,2.2501,2209.14990234375,2.37100005149841,2207.75,1.85699999332428,51,2203.86,0.704,0.379106086446315
1435521,2014-04-15,SLSGJ,"Solís, Gto.",Solís,Guanajuato,Acámbaro,Lerma-Santiago-Pacífico,20.051667,-100.667222,Riego,Río Lerma,Contr,1949,1901.7,3,1898.7,1214.14,1892.30004882812,785.539978027344,56.7,1886.46,514.155,0.654524294601977
1435522,2014-04-15,SLTSI,"Ing. Aurelio Benassini Vizcaino, Sin.",El Salto o Elota,Sinaloa,Elota,Pacífico Norte,24.121944,-106.695833,Riego,Río Elota,Libre,1988,167.1,2.46,164.639999389648,815.510009765625,154.539993286133,403.899993896484,73,141.13,138.712,0.343431547650755
1435523,2014-04-15,SLZTP,"Lic. Emilio Portes Gil, Tamps.",San Lorenzo,Tamaulipas,Xicoténcatl,Golfo Norte,22.943889,-98.791389,Riego,El Sauz,Libre,1983,125,1.1,123.900001525879,272,122.949996948242,230.779998779297,40.5,121.11,189.402,0.820703704835062
1435524,2014-04-15,LDCSI,"Luis Donaldo Colosio, Sin.",Huites,Sinaloa,Choix,Pacífico Norte,26.844722,-108.367778,Riego y Generación de Energia,Río Fuerte,Contr,1995,290.75,0.75,290,4568,270,2908.10009765625,318,238.13,1194.4,0.410714885970608
1435525,2014-04-15,LDCVC,"Canseco, Ver.",Laguna de Catemaco,Veracruz de Ignacio de la Llav,Catemaco,Golfo Centro,18.415833,-95.118333,Generación de Energia,Río Grande de Catemaco,Contr,1960,334.5,1,333.5,252.699996948242,332.7,193.02,7.2,332.26,160.6,0.832038130763651
1435526,2014-04-15,LDFMC,"Laguna del Fresno, Mich.",Laguna del Fresno,Michoacán de Ocampo,Maravatío,Lerma-Santiago-Pacífico,20.038333,-101.940833,Riego,Canal El Fresno,Libre,1946,2059,2,2057,13.132,2055.98,10.299,8.8,2054.4,5.986,0.58122147781338
1435527,2014-04-15,LDTGR,"Laguna de Tuxpan, Gro.",Laguna de Tuxpan,Guerrero,Iguala de la Independencia,Balsas,18.363333,-99.503056,Riego,Río Tuxpan,Libre,1937,744.75,0,743.349975585938,19.5030002593994,742.840026855469,17.6469993591309,,741.95,14.429,0.817646088513863
1435528,2014-04-15,LDYGJ,"Laguna de Yuriria, Gto.",B. de Tavamatacheo,Guanajuato,Yuriria,Lerma-Santiago-Pacífico,20.286944,-101.073056,Riego,Río Lerma,Contr,1550,0,0,1731.40002441406,325.195007324219,1730.92,278.789,10,1729.24,132.397,0.474900372683284
1435529,2014-04-15,LFGCL,"La Fragua, Coah.",La Fragua,Coahuila de Zaragoza,Jiménez,Río Bravo,28.82,-100.832222,Riego,San Rodrigo,Libre,1993,306.68,2.00001,304.679992675781,85.379997253418,300.299987792969,47.2949981689453,24.7,300.11,45.746,0.967248160927884
1435530,2014-04-15,LJSCH,"Las Lajas, Chih.",Las Lajas,Chihuahua,Buenaventura,Río Bravo,29.88,-107.025833,Riego,Río Del Carmen,Libre,1964,1563.8,2.18,1561.61999511719,106.546997070312,1558.69995117188,83.265998840332,47,1555.2,59.697,0.716943300163526
1435531,2014-04-15,LLAHD,"La Laguna, Hgo.",Tejocotal,Hidalgo,Acaxochitlán,Golfo Centro,20.135556,-98.128333,Generación de Energia,Ríos Necaxa y Coacuila,Libre,1903,2185,1,2184,45,2183,43.5299987792969,19,2179.11,20.082,0.461337021896521
1435532,2014-04-15,LLAQT,"La Llave, Qro.",Divino Redentor,Querétaro,San Juan del Río,Golfo Norte,20.461944,-99.994722,Riego,A. El Caracol,Libre,1885,0,0.0500244,1891.09997558594,14.4139995574951,1890,9.3120002746582,3.4,1889.01,4.878,0.523840190734858
1435533,2014-04-15,LLNCH,"Ing. Luis L. León, Chih.",El Granero,Chihuahua,Guadalupe,Río Bravo,28.984444,-105.28,Riego,Río Conchos,Contr,1968,1053,2.5,1050.5,832.409,1034.80004882812,292.464996337891,62,1033.77,269.741,0.922301825440891
1435534,2014-04-15,LNRDR,"Los Naranjos, Dgo.",Naranjos,Durango,General Simón Bolívar,Cuencas Centrales del Norte,24.613056,-103.306944,Riego,Santa Clara,Libre,1985,1663,1.91003,1661.08996582031,27.3899993896484,1658.40002441406,20.928,48,1658.18,25.36,1.21177370030581
1435535,2014-04-15,LOBZC,"Manuel Felgueres, Zac.",Lobatos,Zacatecas,Valparaíso,Lerma-Santiago-Pacífico,22.845278,-103.382778,Riego,Río Pajaritos,Libre,1980,2082.3,2.12007,2080.17993164062,9.4350004196167,2077.05004882812,6.90500020980835,35,2076.72,7.198,1.04243298787674
1435536,2014-04-15,LOLMC,"Los Olivos, Mich.",Los Olivos,Michoacán de Ocampo,Tepalcatepec,Balsas,19.210833,-102.865556,Riego,Río Otates,Libre,1961,423,2,421,16.2709999084473,418,10.2620000839233,39,411.76,11.488,1.11946987975544
1435537,2014-04-15,LREHD,"Los Reyes, Hgo.",Omiltepec,Hidalgo,Acaxochitlán,Golfo Centro,20.174722,-98.131944,Generación de Energia,Río Omiltepec,Libre,1913,2168.5,1.5,2167,27,2165,26.0499992370605,30,2158.21,8.975,0.344529760570263
1435538,2014-04-15,SMGCL,"San Miguel, Coah.",San Miguel,Coahuila de Zaragoza,Jiménez,Río Bravo,29.034167,-100.953889,Riego,Río San Diego,Libre,1935,343.5,1.54001,341.959991455078,22.193000793457,341.739990234375,21.1679992675781,15,340.88,17.524,0.827853392211732
1435539,2014-04-15,SNJSL,"San José, S.L.P.",San José,San Luis Potosí,San Luis Potosí,Cuencas Centrales del Norte,22.150278,-101.054444,Uso Público Urbano,El Salado,Libre,1903,1955.5,0.359985,1955.14001464844,5.1399998664856,1953.78002929688,5.1399998664856,32,1953.01,4.775,0.928988350979246
1435540,2014-04-15,SNLSI,"Sanalona, Sin.",Sanalona,Sinaloa,Culiacán,Pacífico Norte,24.815,-107.151389,Riego,Río Tamazula,Libre,1948,165,2.83,162.17,987.522,156.2,687.988,81,142.33,226.197,0.328780443844951
1435541,2014-04-15,SOLPB,"La Soledad, Pue.",Apulco o Mazatepec,Puebla,Tlatlauquitepec,Golfo Centro,19.960833,-97.446667,Generación de Energia,Apulco,Contr,1962,806.5,1.5,805,14.978,804.5,13.895,93,801.27,4.562,0.328319539402663
1435542,2014-04-15,SRSJL,"Santa Rosa, Jal.",Santa Rosa,Jalisco,Amatitán,Lerma-Santiago-Pacífico,20.908889,-103.705556,Riego,Río Santiago,Contr,1964,747,0.5,748,258.468,744,219.09,114,734.7,286.96,1.30978136838742
1435543,2014-04-15,STRZC,"Santa Rosa, Zac.",Santa Rosa,Zacatecas,Fresnillo,Cuencas Centrales del Norte,22.923611,-103.108889,Riego,Arroyo El Arenal,Libre,1937,2250.19,0.550107,2249.63989257812,14.0410003662109,2248.63989257812,10.4759998321533,15,2248.28,10.179,0.97164950010387
1435544,2014-04-15,TAYZC,"Ing. Julián Adame Alatorre, Zac.",Tayahua,Zacatecas,Villanueva,Lerma-Santiago-Pacífico,22.120556,-102.864167,Riego,Río Juchipila,Libre,1976,1701.7,0.289966,1701.41003417969,50.3769989013672,1696.01000976562,31.5979995727539,54.3,1694,28.898,0.914551566261744
1435545,2014-04-15,TCTJL,"Tacotán, Jal.",Tacotán,Jalisco,Unión de Tula,Lerma-Santiago-Pacífico,20.036111,-104.320278,Riego y Generación de Energia,Río Ayutla,Libre,1960,1407.5,1.20996,1406.2900390625,169,1403.06005859375,149.238998413086,10,1398.5,128.18,0.858890781652154
1435572,2014-04-15,ZMPHD,"Ing. Fernando Hiriart Balderrama, Hgo.",Zimapán,Hidalgo,Zimapán,Golfo Norte,20.663333,-99.501111,Generación de Energia,Moctezuma,Contr,1990,1565,2,1563,1460.10998535156,1560,1390.10998535156,203,1553.13,1229.4,0.884390453241066
1435573,2014-04-15,LREZC,"Gobernador Leobardo Reynoso, Zac.",Trujillo,Zacatecas,Fresnillo,Cuencas Centrales del Norte,23.18,-103.216944,Riego,Los Lazos,Libre,1946,2131.85,2.31997,2129.53002929688,125.919998168945,2127.35009765625,95.7200012207031,40.34,2126.42,105.726,1.10453404358224
1435574,2014-04-15,MABGJ,"Mariano Abasolo, Gto.",San Antonio de Aceves,Guanajuato,Pénjamo,Lerma-Santiago-Pacífico,20.504444,-101.931944,Riego,Arroyo los Otates,Libre,1971,1755,1.92,1753.08,23.946,1751.3,20.079,43,1741.5,5.6,0.278898351511529
1435575,2014-04-15,MALCP,"Nezahualcóyotl, Chis.","Malpaso, Raudales de Malpaso",Chiapas,Tecpatán,Frontera Sur,17.178611,-93.598889,Riego y Generación de Energia,Río Grijalva,Contr,1964,192,4,188,14056,182.5,12373.099609375,137.5,174.94,10189.2,0.823496158737761
1435576,2014-04-15,MLPMC,"Malpaís, Mich.",La Cienega,Michoacán de Ocampo,Queréndaro,Lerma-Santiago-Pacífico,19.829167,-100.873611,Riego,Río Queréndaro,Libre,1938,1830.96,1,1843.56,27.249,1842.530029,18.512,6.1,1826.53,10.346,0.558880726015557
1435577,2014-04-15,MNLAG,"Media Luna, Ags.",Media Luna,Aguascalientes,Calvillo,Lerma-Santiago-Pacífico,21.8075,-102.788333,Riego,Río Calvillo,Libre,1976,1624.1,2.14004,1621.9599609375,21.1959991455078,1619.19995117188,15,22.24,1617.08,11.328,0.7552
1435578,2014-04-15,MOCMC,"Melchor Ocampo, Mich.",El Rosario,Michoacán de Ocampo,Angamacutiro,Lerma-Santiago-Pacífico,20.127222,-101.724444,Riego,Río Angulo,Libre,1975,1716.5,2.08997,1714.41003417969,249.843002319336,1711.90002441406,194.453994750977,29.5,1711.08,183.685,0.944619318493469
1435579,2014-04-15,MRGTP,"Marte R. Gómez, Tamps.",El Azucar,Tamaulipas,Camargo,Río Bravo,26.204722,-98.925556,Riego,Río San Juan,Libre,1946,86,3,83,2208.65991210938,76.3000030517578,781.700012207031,49,76.29,780.3,0.998209016009762
1435580,2014-04-15,NEXPB,"Nexapa, Pue.",Nexapa,Puebla,Huauchinango,Golfo Centro,20.168333,-97.984722,Generación de Energia,Río Nexapa,Libre,1912,1364,1,1363,16,1360,12.5,44,1353.95,5.484,0.43872
1435581,2014-04-15,NGRAG,"El Niagara, Ags.",El Niagara,Aguascalientes,Aguascalientes,Lerma-Santiago-Pacífico,21.78,-102.371667,Riego,Río Aguascalientes,Libre,1963,1833,0.599976,1832.40002441406,31.6949996948242,1828.40002441406,16.1879997253418,31.5,1827.53,13.891,0.858104783523939
1435387,2014-04-15,ABRAG,"Abelardo L. Rodríguez., Ags.",Abelardo L. Rodríguez,Aguascalientes,Jesús María,Lerma-Santiago-Pacífico,21.916944,-102.427778,Uso Público Urbano,Río Morcinique,Libre,1934,1890.2,1.47,1890,18.8400001525879,1888.90002441406,15.9899997711182,25,1885.32,8.918,0.557723585219062
1435388,2014-04-15,ACHZC,"Achimec, Jal.",Vaqueros,Jalisco,Huejúcar,Lerma-Santiago-Pacífico,22.327222,-103.225278,Riego,Río Tepetongo,Libre,1969,1846.3,2.02998,1844.27001953125,12.2119998931885,1841.5,7.36399984359741,28.5,1837.72,4.245,0.576453026909118
1435389,2014-04-15,AFIGR,"Andrés Figueroa, Gro.",Las Garzas,Guerrero,Ajuchitlán del Progreso,Balsas,18.075833,-100.5175,Riego,Río Ajuchitlán,Libre,1984,385,2.39001,382.609985351562,123.099998474121,377,102.5,72.5,370.07,73.48,0.716878048780488
1435441,2014-04-15,CHUCH,"Chihuahua, Chih.",Chihuahua,Chihuahua,Chihuahua,Río Bravo,28.570556,-106.167778,Uso Público Urbano,Río Chuvíscar,Libre,1960,1546,1.71997,1544.28002929688,35.6310005187988,1540.81994628906,23.382999420166,58,1538.83,17.892,0.765171297253232
1435442,2014-04-15,CHYVC,"Paso de Piedras, Ver.",Chicayán,Veracruz de Ignacio de la Llav,Pánuco,Golfo Norte,21.7375,-98.155833,Riego,Chicayán,Contr,1979,32.25,3.97,28.28,570,23.07,220,30,23.02,217.255,0.987522727272727
1435443,2014-04-15,CJNNR,"Leonardo Rodríguez Alcaine, Nay.",El Cajón,Nayarit,Santa María del Oro,Lerma-Santiago-Pacífico,21.428333,-104.450833,Generación de Energia,Río Santiago,Contr,2006,394.5,0.5,394,2860.19995117188,391,2551.69995117188,186,384.71,2049.45,0.803170450765101
1435444,2014-04-15,CLNCH,"Ing. Andrew Weiss, Chih.",La Colina,Chihuahua,San Francisco de Conchos,Río Bravo,27.576389,-105.382222,Riego y Generación de Energia,Rio Conchos,Libre,1926,1251,1.15002,1249.84997558594,26.9699993133545,1249.09997558594,23.6700000762939,20.75,1249.28,24.436,1.0323616358782
1435445,2014-04-15,CNPMX,"La Concepción, Méx.",La Concepción,Estado de México,Tepotzotlán,Aguas del Valle de México,19.695,-99.304444,Riego,Río Tepotzotlán,Libre,1949,2355.64,3.09996,2352.5400390625,13.6999998092651,2352.10009765625,12.1110000610352,39,2348.8,8.976,0.741144410433832
1435446,2014-04-15,CNSQT,"Constitución de 1917, Qro.",Hidalgo,Querétaro,San Juan del Río,Golfo Norte,20.418611,-100.080278,Riego,Arrollo Caracol,Contr,1969,1937,1.55005,1928.44995117188,75.3000030517578,1927.65002441406,69.8619995117188,35,1921.78,31.234,0.447081392148829
1435447,2014-04-15,CNTCL,"El Centenario, Coah.",El Centenario,Coahuila de Zaragoza,Jiménez,Río Bravo,29.213611,-100.95,Riego,Río San Diego,Libre,1935,338,1.62,336.380004882812,25.5200004577637,336.149993896484,24.5890007019043,17,334.97,19.363,0.78746591757592
1435449,2014-04-15,COIMC,"Coíntzio, Mich.",Cointzio,Michoacán de Ocampo,Contepec,Lerma-Santiago-Pacífico,19.629722,-101.259167,Riego y Uso Público Urbano,Río Grande de Morelia,Contr,1939,1997,1.50005,2001.31994628906,79.2330017089844,1999.46997070312,68.5199966430664,46,1989.28,62.344,0.909865777208975
1435450,2014-04-15,CPAMC,"Copándaro, Mich.",Copándaro De Corrales,Michoacán de Ocampo,Copándaro,Lerma-Santiago-Pacífico,20.001667,-102.861389,Riego,Canal la Estancia,Libre,1927,1999,9.79,1989.21,9.717,1998.5,6.5,9.2,1997.77,4.448,0.684307692307692
1435451,2014-04-15,CPEJL,"Cajón de Peña, Jal.",Tomatlán o El Tule,Jalisco,Tomatlán,Lerma-Santiago-Pacífico,19.9975,-105.129722,Riego,Río Tomatlán,Contr,1976,142,2.8,139.199996948242,707.690002441406,130.37,466.69,68,129.72,450.759,0.96586384966466
1435452,2014-04-15,CPRNL,"José López Portillo, N.L.",Cerro Prieto,Nuevo León,Linares,Río Bravo,24.9375,-99.399722,Uso Público Urbano,Río Pablillo,Contr,1984,288,2.5,285.5,393,282.519989013672,300,50,284.16,349.375,1.16458333333333
1435453,2014-04-15,CRRBN,"El Carrizo, B.C.",El Carrizo,Baja California,Tecate,Península de Baja California,32.479444,-116.696944,Uso Público Urbano,Arroyo El Carrizo,Libre,1978,288.34,2.12,286.220001220703,44.5849990844727,284.700012207031,40.8660011291504,55.8,279.06,28.547,0.698551343689876
1435454,2014-04-15,GDOSI,"Gustavo Díaz Ordaz, Sin.",Bacurato,Sinaloa,Sinaloa,Pacífico Norte,25.856667,-107.911111,Riego y Generación de Energia,Río Sinaloa,Contr,1981,256,3.5,252.5,2687.074,237.06,1618.8,116,216.53,752.56,0.464887571040277
1435455,2014-04-15,GLNGJ,"La Golondrina, Gto.",La Golondrina,Guanajuato,Pénjamo,Lerma-Santiago-Pacífico,20.439167,-101.7425,Riego,Río Penjamo,Libre,1968,1838.7,1.58,1837.11999511719,5.96999979019165,1835.19995117188,4.67000007629395,45.7,1831.4,3.96,0.847965724904786
1435456,2014-04-15,GUAMC,"Guaracha, Mich.",San Antonio,Michoacán de Ocampo,Villamar,Lerma-Santiago-Pacífico,19.979167,-102.541389,Riego y Generación de Energia,Arroyo Las Liebres,Libre,1913,1596.72,0,1580.11,29.79,1580.01,28.677,8,1593.54,12.902,0.449907591449594
1435457,2014-04-15,GVCDR,"Presidente Guadalupe Victoria, Dgo.",El Tunal,Durango,Durango,Pacífico Norte,23.961111,-104.753056,Riego,Río El Tunal,Mixto,1962,1934.8,1.69,1934.61,94.617,1931,78.06,72.8,1931.44,85.124,1.09049449141686
1435458,2014-04-15,HPNMX,"Huapango, Méx.",Huapango,Estado de México,Aculco,Aguas del Valle de México,20.046389,-99.696944,Riego,Huapango,Libre,1765,2513,0.199951,2512.80004882812,126.5,2512.64990234375,121.5,8.8,2509.17,16.57,0.136378600823045
1435459,2014-04-15,HRTJL,"Hurtado, Jal.",Valencia,Jalisco,Acatlán de Juárez,Lerma-Santiago-Pacífico,20.466944,-103.651111,Riego,Arroyo San Antonio,Libre,1879,1464,1.34,1462.66,22.625,1462.66,22.625,10.35,1459.73,7.952,0.351469613259669
1435460,2014-04-15,IALGJ,"Ignacio Allende, Gto.",La Begoña,Guanajuato,San Miguel de Allende,Lerma-Santiago-Pacífico,20.848056,-100.825833,C. A. y Riego,Río La Laja,Contr,1968,1834.7,2.04998,1832.65002441406,221.693,1828.75,125.118,43,1826.8,111.05,0.887562141338576
1435461,2014-04-15,IDFQT,"San Ildefonso, Qro.",El Tepozán,Querétaro,Amealco de Bonfil,Golfo Norte,20.198611,-99.9625, Riego,Prieto,Libre,1942,2261.93,1.87,2242.5,58.026,2239,47.812,62.7,2227.44,26.218,0.548356061239856
1435462,2014-04-15,INFMC,"Infiernillo, Mich.",Infiernillo,Guerrero,Arteaga,Balsas,18.266667,-101.883333,Generación de Energia,Río Balsas,Contr,1964,184,0.8,183.2,12562.44,169,7297.79,151.5,158.71,6194.4,0.848804912172041
1435463,2014-04-15,IRASO,"Ignacio R. Alatorre, Son.",Punta de Agua,Sonora,Guaymas,Noroeste,28.426389,-110.396944, Riego,Mátape,Libre,1972,105,2.29,102.709999084473,29.6900005340576,100,16.1599998474121,30,90.4,0,0
1435464,2014-04-15,IVGSL,"Valentín Gama, S.L.P.",Ojo Caliente,San Luis Potosí,Villa de Reyes,Cuencas Centrales del Norte,21.88,-100.820556,Riego,Santa María,Libre,1970,1789.55,1.45002,1788.09997558594,22.3999996185303,1783.80004882812,9.51000022888184,24,1782.44,6.478,0.681177691281893
1435465,2014-04-15,JARMC,"Jaripo, Mich.",Jaripo,Michoacán de Ocampo,Villamar,Lerma-Santiago-Pacífico,19.958333,-102.601944,Riego,Río Jaripo,Libre,1951,1548.5,2.2,1580.42,9.265,1578.91,6.028,#¡VALOR!,1543.14,6.38,1.05839416058394
1435466,2014-04-15,JCQAG,"Jocoque, Ags.",Der. Jocoqui,Aguascalientes,Pabellón de Arteaga,Lerma-Santiago-Pacífico,22.121667,-102.356944,Riego,Río San Pedro,Libre,1929,1944.95,1.54998,1943.40002441406,11.3999996185303,1942.44995117188,10.9750003814697,44,1941.48,10.284,0.937038691803928
1435467,2014-04-15,JDMOX,"Presidente Benito Juárez, Oax.",El Marqués,Oaxaca,Santa María Jalapa del Marqués,Pacífico Sur,16.445556,-95.397778,Riego,Ríos Tequisistán y Tehuantepec,Libre,1961,138.4,2.64999,139.850006103516,1726.62902832031,124.25,720.317016601562,85.5,119.75,728.575,1.01146437361344
1435494,2014-04-15,ELZBN,"Emilio López Zamora, B.C.",Ensenada,Baja California,Ensenada,Península de Baja California,31.890278,-116.6025,Uso Público Urbano,Arroyo Ensenada,Libre,1978,27,1.74,25.2600002288818,6.34200000762939,19.8899993896484,2.73200011253357,34,11.93,0.407,0.148975103673243
1435495,2014-04-15,ENDHD,"Endhó, Hgo.",Endó,Hidalgo,Tepetitlán,Aguas del Valle de México,20.163889,-99.36,Riego,Río tula,Libre,1951,2023,3,2020,208,2018,182.899993896484,60,2011.51,109.75,0.600054694709914
1435496,2014-04-15,JGRSI,"Juan Guerrero Alcocer, Sin.",Vinoramas,Sinaloa,Culiacán,Pacífico Norte,24.753611,-107.059444,Riego,Río Tamazula,Libre,1994,178.3,2.02,176.279998779297,102,168.5,55,50,156.95,14.745,0.268090909090909
1435497,2014-04-15,JLPSI,"José López Portillo, Sin.",El Comedero,Sinaloa,Cosalá,Pacífico Norte,24.571667,-106.807222,Riego y Generación de Energia,Río San lorenzo,Contr,1981,290,4.54999,286.950012207031,3966.169921875,272.160003662109,2580.18994140625,135.5,231.43,506.134,0.196161527443266
1435498,2014-04-15,JORSI,"Josefa Ortiz de Domínguez, Sin.",El Sabino,Sinaloa,El Fuerte,Pacífico Norte,26.426944,-108.7025,Riego,Río Alamos,Contr,1967,113.5,2.93,112.650001525879,695.44,109.5,518.928,44,100.18,163.62,0.315303857182499
1435499,2014-04-15,JSBCP,"Juan Sabines, Chis.",El Portillo II o Cuxtepeques,Chiapas,La Concordia,Frontera Sur,15.996389,-92.898611,Riego,Río Cuxtepeques,Libre,1981,620.25,1.97998,618.27001953125,116.110000610352,612.119995117188,68.1500015258789,46,609.24,52.1684,0.76549374661701
1435500,2014-04-15,LBCNL,"Rodrigo Gómez, N.L.",La Boca,Nuevo León,Santiago,Río Bravo,25.428056,-100.128056,Uso Público Urbano,Arroyo la Chueca,Contr,1961,450.04,0.839988,449.200012207031,42.6279983520508,447.55,35.003,34,445.96,28.17,0.80478816101477
1435501,2014-04-15,LBLTP,"Derivadora Las Blancas, Tamps.",Derivadora Las Blancas,Tamaulipas,Mier,Río Bravo,26.408889,-99.233611,Riego,Río Álamo,Libre,2000,93.3,1.5,91.8000030517578,124,89.9199981689453,83.7839965820312,32.28,83.64,18.48,0.220567181727916
1435502,2014-04-15,LBQCH,"La Boquilla, Chih.",Lago Toronto,Chihuahua,San Francisco de Conchos,Río Bravo,27.544722,-105.414167,Riego y Generación de Energia,Río Conchos,Libre,1916,1322,2.90002,1319.09997558594,3278.098,1317,2893.57104492188,80,1307.18,1525.44,0.527182493990288
1435503,2014-04-15,LCAVC,"La Cangrejera, Ver.",La Cangrejera,Veracruz de Ignacio de la Llav,Coatzacoalcos,Golfo Centro,18.109444,-94.330833,Riego,Arroyo Teapa,Libre,1980,23.87,2.22,21.6499996185303,31.6000003814697,21.25,28.5370006561279,15.87,18.6,12.91,0.452395125737496
1435504,2014-04-15,LCDSO,"Lázaro Cárdenas, Son.",La Angostura,Sonora,Villa Hidalgo,Noroeste,30.437778,-109.378889,Generación de Energia y Riego,Bavispe,Libre,1942,843.75,3.59998,840.150024414062,1116.4599609375,830.700012207031,703.380004882812,91.75,829.58,661.777,0.940852733097319
1435505,2014-04-15,LCLGR,"La Calera, Gro.",La Calera,Guerrero,Zirándaro,Balsas,18.418611,-101.003056,Riego y Uso Público Urbano,Río del oro,Libre,1964,124.3,1.68,122.620002746582,34.25,118,9.39299964904785,31.8,118,9.393,1.00000003736316
1435506,2014-04-15,LCLJL,"La Colonia, Jal.",La Colonia,Jalisco,Zapotlán del Rey,Lerma-Santiago-Pacífico,20.43,-102.931944,Riego,Arroyo Los Sabinos,Libre,1927,0,0,103.400001525879,6.5,103,5.80000019073486,6,101.49,2.211,0.381206884015613
1435507,2014-04-15,LCRDR,"Lázaro Cárdenas, Dgo.",El Palmito,Durango,Indé,Cuencas Centrales del Norte,25.594167,-105.015833, Riego,Nazas,Contr,1946,1635,3,1632,4278.5400390625,1622.46,2957.608,21.9,1606.15,1600.79,0.541244816757325
1435508,2014-04-15,LDACM,"Laguna de Amela, Col.",Tecoman,Colima,Tecomán,Lerma-Santiago-Pacífico,18.809167,-103.774167,Riego,Arroyo La Mina Verde y Canal C,Libre,1956,10.89,3.25,7.6399998664856,41.2999992370605,7.3899998664856,38.3429985046387,6.35,6.48,28.225,0.736118746596863
1435509,2014-04-15,LDCJL,"Lago de Chapala, Jal.",Chapala,Jalisco,Chapala,Lerma-Santiago-Pacífico,20.18,-103.12,Riego y Uso Público Urbano,Río Lerma,Libre,1980,0,0,99,9279.7099609375,98,8126.41015625,,93.44,3144.03,0.38689039065816
1435510,2014-04-15,RODMR,"El Rodeo, Mor.",El Rodeo,Morelos,Miacatlán,Balsas,18.765278,-99.331389,Riego,Río Tembembe,Libre,1974,1166.5,2.30005,1166.5,33.1370010375977,1164.19995117188,26.9839992523193,8,1155.07,7.357,0.272643055286464
1435511,2014-04-15,RSPTP,"República Española, Tamps.",Real Viejo o El Sombrero,Tamaulipas,Aldama,Golfo Norte,23.259444,-97.991944,Riego,San Rafael,Libre,1974,92,2.57,89.4300003051758,105.98999786377,83,54.7799987792969,30,82.85,53.337,0.973658291138148
1435512,2014-04-15,SA1JL,"La Sauceda, Jal.",Garabatillos,Jalisco,Lagos de Moreno,Lerma-Santiago-Pacífico,21.359167,-101.835556,Riego,Río La Sauceda o Bernalejo,Libre,1982,1923,1.96997,1921.03002929688,21.5,1918.90002441406,16,33,1917.8,13.72,0.8575
1435513,2014-04-15,SABMC,"Sabaneta, Mich.",Sabaneta,Michoacán de Ocampo,Hidalgo,Balsas,19.622778,-100.669444,Riego,Arroyo Sabaneta,Libre,1948,2494.9,2.05,2508.95,5.875,2508,5.043,17,2491.22,4.855,0.962720602815784
1435514,2014-04-15,SBBMX,"José Antonio Alzate, Méx.",San Bernabé,Estado de México,Temoaya,Lerma-Santiago-Pacífico,19.465833,-99.704722,Riego,Río Lerma,Libre,1962,2567,1.58008,2566.919921875,52.5089988708496,2565.5,35.3120002746582,24,2560,4.811,0.136242636004187
1435515,2014-04-15,SBYDR,"Santiago Bayacora, Dgo.",Santiago Bayacora,Durango,Durango,Pacífico Norte,23.874444,-104.675833,Riego,Río Santiago Bayacora,Libre,1990,1962,0.810059,1965.93994140625,169.869003295898,1959.01000976562,130.046997070312,66.75,1957.36,121.598,0.935031202098851
1435516,2014-04-15,SELDR,"Santa Elena, Dgo.",Tanque Santa Elena,Durango,Súchil,Pacífico Norte,24.608333,-103.079722,Riego,Río Graceros,Libre,1977,2002.75,1.14001,2001.60998535156,18.7999992370605,1999.80004882812,15.08,30.75,1997.5,11,0.729442970822281
1435517,2014-04-15,SGBDR,"San Gabriel, Dgo.",Federalismo Mexicano,Durango,Ocampo,Río Bravo,26.436667,-105.560833,Riego,Río Florido,Libre,1991,1785.6,2.20999,1783.39001464844,377.338012695312,1777.90002441406,245.430999755859,48,1774.41,179.491,0.731329783843717
1435518,2014-04-15,SJATL,"San José Atlanga, Tlax.",Atlanga,Tlaxcala,Atlangatepec,Balsas,19.556111,-98.200556,Riego,Río Zahuapan,Libre,1959,2500,2.32988,2486.8701171875,59.445,2486.39990234375,54.026,24.2,2485.96,48.89,0.904934661089105
1435519,2014-04-15,SJUMC,"San Juanico, Mich.",La Laguna,Michoacán de Ocampo,Cotija,Balsas,19.839444,-102.651389,Riego,Río Cotija,Libre,1950,1574.6,0,1604.56,71.69,1603.86,60.545,7,1571.28,39.404,0.650821702865637
1435546,2014-04-15,TEMOX,"Presidente Alemán, Oax.",Temascal,Oaxaca,San Miguel Soyaltepec,Golfo Centro,18.232222,-96.412222,Generación de Energia,Papaloapan,Contr,1955,74.79,3.5,68.5,9105.5,65.5,8119.10009765625,76,55.64,3781.38,0.46573880781339
1435547,2014-04-15,TENJL,"Tenasco, Jal.",Boquilla de Zaragoza,Jalisco,Santa María de los Ángeles,Lerma-Santiago-Pacífico,22.171944,-103.198611,Riego,Arroyo Tenasco,Libre,1960,1777,0,1724.83996582031,13.8500003814697,1722.84997558594,10.5,33,1716.54,3.802,0.362095238095238
1435548,2014-04-15,TENPB,"Tenango, Pue.",Tenango,Puebla,Huauchinango,Golfo Centro,20.199444,-97.983333,Generación de Energia,Río Acatlán,Libre,1912,1353,2,1362,45.1199989318848,1345.6,28.203,39,1335.4,7.709,0.273339715633089
1435549,2014-04-15,TEPMC,"Tepuxtepec, Mich.",Tepuxtepec,Michoacán de Ocampo,Contepec,Lerma-Santiago-Pacífico,20.000278,-100.229167,Riego y Generación de Energia,Río Lerma,Contr,1930,2352,2,2350,537.527,2347.56,425.2,47,2346.15,367.74,0.86486359360301
1435550,2014-04-15,TIESL,"La Muñeca, S.L.P.",La Muñeca,San Luis Potosí,Tierra Nueva,Golfo Norte,21.629444,-100.548333,Riego,Santa María,Libre,1981,1843.75,2,1841.75,31,1837.69995117188,25,40.5,1833,14.62,0.5848
1435551,2014-04-15,TMLJL,"Ramón Corona Madrigal General, Jal.",Trigomil,Jalisco,Ayutla,Lerma-Santiago-Pacífico,19.976111,-104.370278,Riego,Río Ayuquila,Libre,1993,1209.34,2.94001,1209.35998535156,324,1201.40002441406,250,107,1196.69,211.69,0.84676
1435552,2014-04-15,TMUMC,"Tercer Mundo, Mich.",Chincua,Michoacán de Ocampo,Senguio,Lerma-Santiago-Pacífico,19.766389,-100.299167,Riego,Río chincua,Libre,1972,2431.2,2.41992,2428.580078125,17.3320007324219,2427.580078125,14.9720001220703,30,2422.15,4.55,0.303900612002589
1435553,2014-04-15,TNTCH,"El Tintero, Chih.",El Tintero,Chihuahua,Namiquipa,Río Bravo,29.5625,-107.384167,Riego,Río Santa María,Libre,1950,1712,2.96997,1709.03002929688,216.703002929688,1703,125.074996948242,56,1696.79,61.574,0.492296634038538
1435554,2014-04-15,TPTMX,"San Andrés Tepetitlán, Méx.",Tepetitlán,Estado de México,San Felipe del Progreso,Lerma-Santiago-Pacífico,19.660833,-99.961389,Riego,Río Jaltepec,Libre,1964,2597.38,2.92004,2594.4599609375,81.0289993286133,2592.02001953125,59.9659996032715,35,2588.7,43.636,0.727679022924508
1435555,2014-04-15,TRJCM,"Solidaridad, Col.",Trojes,Jalisco,Armería,Lerma-Santiago-Pacífico,18.967222,-103.396667,Riego y Generación de Energia,Río Barreras,Libre,1994,303.6,2.49001,301.109985351562,294.079986572266,292.369995117188,220.807006835938,87,286.18,175.823,0.796274549976753
1435556,2014-04-15,TULJL,"El Tule, Jal.",El Tule,Jalisco,Arandas,Lerma-Santiago-Pacífico,20.7425,-102.433056,Riego,Río Zula,Libre,1990,1861.08,2.23002,1858.84997558594,42,1856.55004882812,30,15.5,1852.27,10.899,0.3633
1435557,2014-04-15,TXMHD,"Taxhimay, Hgo.",Taxhimay,Estado de México,Tepeji del Río de Ocampo,Aguas del Valle de México,19.835278,-99.385,Riego y Uso Público Urbano,Río San Luis de las Peras,Libre,1912,2217.05,7.05,2210,53.3,2208,42.749,39,2207.76,41.812,0.978081358628272
1435558,2014-04-15,UREMC,"Urepetiro, Mich.",Urepetiro,Michoacán de Ocampo,Tlazazalca,Lerma-Santiago-Pacífico,19.962222,-102.137778,Riego,Río tlazazalca,Libre,1964,1752.5,1.5,1745.68005371094,10.9200000762939,1745,8.2819995880127,31,1746.04,8.35,1.00821062730862
1435559,2014-04-15,VBRMX,"Valle de Bravo, Méx.",Valle de Bravo,Estado de México,Valle de Bravo,Balsas,19.2075,-100.18,Generación de Energia y Uso Público Urbano,Río Valle de Bravo,Libre,1947,1835.37,2.5,1785.60998535156,450.75,1782.60998535156,393.440002441406,48,1828.24,360.981,0.917499485969934
1435560,2014-04-15,VCRCL,"Venustiano Carranza, Coah.",Don Martín,Coahuila de Zaragoza,Juárez,Río Bravo,27.515,-100.616111,Riego,Río Salado,Contr,1932,265.8,4.00001,261.799987792969,1322.36999511719,259.24,874.1,35,258.8,807.003,0.923238759867292
1435561,2014-04-15,VCVJL,"Vicente C. Villaseñor, Jal.",Valle de Juárez,Jalisco,Valle de Juárez,Lerma-Santiago-Pacífico,19.939722,-102.941667,Riego,Río Quitupán,Libre,1950,1880,2,1878,18.1200008392334,1877,14.4399995803833,18,1876.55,12.784,0.88531858528355
1435562,2014-04-15,VEGJL,"Ing. Santiago Camarena, Jal.",La Vega,Jalisco,Teuchitlán,Lerma-Santiago-Pacífico,20.596389,-103.845833,Riego,Río salado y Teuchitlán,Libre,1960,1261,2.14001,1258.85998535156,80,1257,44.0349998474121,18,1256.98,43.698,0.992347000145796
1435563,2014-04-15,VGRGR,"Vicente Guerrero, Gro.",Palos Altos,Guerrero,Arcelia,Balsas,18.382778,-100.265833,Riego,Río Poliutla,Libre,1968,433,2.70001,430.299987792969,300,425,249.49,67.5,416.89,160.9,0.644915627880877
1435564,2014-04-15,VGRTP,"Vicente Guerrero, Tamps.",Las Adjuntas,Tamaulipas,Padilla,Golfo Norte,23.959444,-98.666389, Riego,Soto La Marina,Contr,1967,148,4.12001,144.039993286133,5498.22998046875,140.440002441406,3910.68994140625,62,140.8,4053.86,1.03660992324599
1435565,2014-04-15,VHGDR,"Villa Hidalgo, Dgo.",Villa Hidalgo,Durango,Hidalgo,Cuencas Centrales del Norte,26.2425,-104.928889,Riego y Uso Público Urbano,A. Cerro Gordo,Libre,1977,1731.28,1.73,1729.55,39.555,1726.23,23.08,34.2,1717.9,10.273,0.445103986135182
1435566,2014-04-15,VILMC,"José María Morelos y Pavón, Mich.",La Villita,Michoacán de Ocampo,Lázaro Cárdenas,Balsas,18.048333,-102.180278,Riego y Generación de Energia,Río Balsas,Contr,1973,59.73,3,56.73,714.593,51.2,531.414,135.13,47.6,436.4,0.821205312618787
1435567,2014-04-15,VILZC,"José María Morelos, Zac.",La Villita,Zacatecas,Tepechitlán,Lerma-Santiago-Pacífico,21.588889000000002,-103.3375,Riego,Río San Pedro,Libre,1986,1833.2,2.01006,1831.18994140625,11.164999961853,1829,9.01799964904785,39.2,1827.63,8.767,0.972166815389669
1435568,2014-04-15,VNTQT,"La Venta, Qro.",La Venta,Querétaro,Pedro Escobedo,Golfo Norte,20.498611,-100.190556, Riego,Arrollo El Hondo,Libre,1907,1896,0.619946,1907.68005371094,3.77699995040894,1906.68005371094,2.47900009155273,4.3,1905.82,1.431,0.577248869363166
1435569,2014-04-15,VTRGR,"Valerio Trujano, Gro.",Tepecoacuilco,Guerrero,Tepecoacuilco de Trujano,Balsas,18.295833,-99.466111,Riego,Río Tepecoacuilco,Libre,1964,844.3,1.51997,842.780029296875,51.6500015258789,840,31.0139999389648,33.3,836.06,13.143,0.423776359897635
1435570,2014-04-15,VVCMX,"Villa Victoria, Méx.",Villa Victoria,Estado de México,Villa Victoria,Balsas,19.461667,-100.055556,Uso Público Urbano,Río San Juan Malacatepec,Libre,1944,2561.96,0,2607.5,252.029998779297,2605.5,185.723007202148,19,2602.99,117.741,0.633960228049969
1435571,2014-04-15,ZICMC,"Zicuirán, Mich.",La Peña,Michoacán de Ocampo,La Huacana,Balsas,18.921111,-101.931944,Riego,Río Zicuarán,Libre,1957,302.75,1.31,301.440002441406,47.4850006103516,299,36.2939987182617,46,295.97,35.903,0.989226904389982
1435391,2014-04-15,AGOMC,"Agostitlán, Mich.",Mata De Pinos,Michoacán de Ocampo,Hidalgo,Balsas,19.579722,-100.608889,Riego,Río Agostitlán,Libre,1955,2379,1.16,2377.84,18.754,2376.6,15.675,25,2479.36,10.649,0.67936204146730494
1435392,2014-04-15,AGZCH,"Abraham González, Chih.",Guadalupe,Chihuahua,Guerrero,Noroeste,28.481667,-107.482778, Riego,Papigochi,Libre,1961,2052.9,1.59995,2051.30004882812,102.891,2047.80004882812,79.354,30,2046.76,78.924,0.994581243541598
1435393,2014-04-15,ALMSI,"Adolfo López Mateos, Sin.",El Humaya o El Varejonal,Sinaloa,Badiraguato,Pacífico Norte,25.101389,-107.388333,Riego y Generación de Energia,Río Humaya,Libre,1964,186.5,3.02,183.479995727539,4034.52001953125,176,3086.61010742188,105.5,149.3,835.412,0.270656795295013
1435394,2014-04-15,ALRBN,"Abelardo L. Rodríguez, B.C.",Abelardo L. Rodríguez o Tijuana,Baja California,Tijuana,Península de Baja California,32.444722,-116.908333,Uso Público Urbano,Río Tijuana,Contr,1937,127,2,125,121.392,115.85,76.902,72,84.66,0.272,0.00353696912954149
1435395,2014-04-15,AMEMC,"Aristeo Mercado, Mich.",Wilson,Michoacán de Ocampo,Copándaro,Lerma-Santiago-Pacífico,19.926111,-101.661111,Riego y Generación de Energia,Arroyo Seco,Libre,1926,1999.83,6.03,1993.8,28.981,1993.5,25.344,9.2,1995.98,3.584,0.141414141414141
1435396,2014-04-15,CILAAMSMX,"Internacional La Amistad, Coah.",La Amistad,Coahuila de Zaragoza,Acuña,Río Bravo,29.446944,-101.057222,Riegoy Generación de Energia,Río Bravo,Contr,1968,351.22,2.14001,349.079986572266,7000,340.462,4040.325,34.2,329.195,1788.69,0.442709435503332
1435397,2014-04-15,ANGCP,"Doctor Belisario Domínguez, Chis.",Angostura,Chiapas,Acala,Frontera Sur,16.401389000000002,-92.778889,Generación de Energia,Río Grijalva,Contr,1976,543,3.5,539.5,19736.4296875,533,15549.16015625,147,526.48,11905.9,0.765694087678067
1435398,2014-04-15,AOBSO,"Álvaro Obregón, Son.",El Oviachic,Sonora,Cajeme,Noroeste,27.8225,-109.8925,Generación de Energia,Río Yaqui,Libre,1952,115.1,2.9,112.199996948242,4409.35986328125,105.5,3023.13989257812,25,93.31,1368.93,0.452817285551606
1435399,2014-04-15,APRDR,"Ing. Benjamín Ortega Cantero, Dgo.",Agua Puerca,Durango,Mapimí,Cuencas Centrales del Norte,26.226389,-104.493889, Riego,Arrollo El Derrame,Libre,1984,1436.4,2.30002,1434.09997558594,56.060001373291,1430.19995117188,30.764,34.8,1426.35,21.005,0.682778572357301
1435400,2014-04-15,EPLGJ,"El Palote, Gto.",El Palote,Guanajuato,León,Lerma-Santiago-Pacífico,21.173333,-101.688056,Uso Público Urbano,Río de Los Gómez,Libre,1954,1839.5,0.9,1838.6,17.161,1836.15,9.643,20.5,1835.1,7.16,0.742507518407135
1435401,2014-04-15,EPOSL,"El Potosino, S.L.P.",El Potosino,San Luis Potosí,San Luis Potosí,Cuencas Centrales del Norte,22.099722,-101.078056,Uso Público Urbano,Río Santiago,Libre,1990,2000.85,0.150024,2000.84997558594,5.19899988174438,1996.80004882812,3.29299998283386,26,1995.94,2.953,0.896750687942225
1435402,2014-04-15,ERCTP,"Estudiante Ramiro Caballero Dorantes, Tamps.",Las Ánimas,Tamaulipas,El Mante,Golfo Norte,22.605,-98.691667, Riego,Arrollo Las Ánimas,Libre,1976,55,2.45,52.5499992370605,654.37,51.7000007629395,563.443,31.2,49.61,398.372,0.707031589708276
1435403,2014-04-15,ERECH,"El Rejón, Chih.",El Rejón,Chihuahua,Chihuahua,Río Bravo,28.614722,-106.119444,Riego,Arroyo El Rejón,Libre,1966,1479.8,1.48005,1478.31994628906,7.75500011444092,1477,6.528,10,1476.26,5.904,0.904411764705882
1435404,2014-04-15,ESLJL,"El Salto, Jal.",El Salto,Jalisco,Valle de Guadalupe,Lerma-Santiago-Pacífico,21.037222,-102.705,Uso Público Urbano,Río Valle de Guadalupe,Libre,1940,1814.5,2,1812.5,112,1810.16003417969,85,42,1809.53,79.314,0.933105882352941
1435405,2014-04-15,ESTJL,"El Estribón, Jal.",El Estribón,Jalisco,Yahualica de González Gallo,Lerma-Santiago-Pacífico,21.185556,-102.900556,Riego,Río Yahualica,Libre,1946,1882.5,1.08997,1881.41003417969,7.73999977111816,1880,6.37799978256226,29,1875.79,3.524,0.552524321125689
1435406,2014-04-15,EXCZC,"Miguel Alemán, Zac.",Excamé,Zacatecas,Tepechitlán,Lerma-Santiago-Pacífico,21.645833,-103.35,Riego y Generación de Energia,Río Tlaltenango,Contr,1949,1707,2.5,1704.5,70.9199981689453,1703.47998046875,64.9800033569336,47.5,1698.26,50.457,0.776500421565707
1435407,2014-04-15,FIMCH,"Francisco I. Madero, Chih.",Las Vírgenes,Chihuahua,Rosales,Río Bravo,28.166111,-105.628889,Riego,Río San Pedro,Libre,1949,1243.8,1.23994,1242.56005859375,477.622009277344,1239.30004882812,355.286010742188,57,1237.91,308.739,0.86898721217604
1435408,2014-04-15,CILAFLCMX,"Internacional Falcón, Tamps.",Falcón,Tamaulipas,Guerrero,Río Bravo,26.560278,-99.170556,Riego y Generación de Energia,Río Bravo,Contr,1953,98.45,2.68,95.7699966430664,4862.2099609375,91.805,3264.813,48.45,84.21,1290.19,0.395180367145071
1435409,2014-04-15,FVLDR,"Francisco Villa, Dgo.",El Bosque,Durango,Poanas,Pacífico Norte,24.001667,-103.960833,Riego,Río Poanas,Libre,1968,1998.7,2.57,1996.13000488281,96.5699996948242,1993,73.2600021362305,58.7,1992.28,74.164,1.01233958282022
1435410,2014-04-15,FZRDR,"Francisco Zarco, Dgo.",Las Tortolas,Durango,Cuencamé,Cuencas Centrales del Norte,25.270833,-103.773611,Riego,Nazas,Contr,1968,1213,2.94995,1210.05004882812,383.160003662109,1208.19995117188,309.239990234375,39.5,1200.81,106.945,0.345831727387346
1435411,2014-04-15,GBESI,"Ing. Guillermo Blake Aguilar, Sin.",El Sabinal o El Cajón,Sinaloa,Sinaloa,Pacífico Norte,26.103056,-108.3275,Riego,Arroyo Ocoroni,Libre,1985,201.2,4.59,196.610000610352,468.623992919922,188.449996948242,294.019989013672,81.2,168.32,66.364,0.225712544996096
1435412,2014-04-15,GDLMX,"Sierra de Guadalupe, Méx.",Guadalupe,Estado de México,Tultitlán,Aguas del Valle de México,19.635556,-99.252222,Riego,Río Cuautitlán,Libre,1936,2308.75,1.92993,2306.82006835938,63.9000015258789,2305.19995117188,56.7000007629395,467,2300.9,40.209,0.709153429611268
1435413,2014-04-15,ARCSO,"Adolfo Ruíz Cortínes, Son.",Mocuzari,Sonora,Alamos,Noroeste,27.226111,-109.106667,Riego y Generación de Energia,Río Mayo,Mixto,1955,148,2.53,145.470001220703,1822.55004882812,136.3,1039.84,88.5,121.13,297.533,0.286133443606709
1435414,2014-04-15,ARLSO,"Abelardo Rodríguez Lujan, Son.",Hermosillo,Sonora,Hermosillo,Noroeste,29.076667,-110.92,Uso Público Urbano,Río Sonora,Contr,1948,231.6,3.20001,228.399993896484,284.470001220703,226.979995727539,219.5,36,214,0,0
