idmonitoreodiario,fechamonitoreo,clavesih,nombreoficial,nombrecomun,estado,nommunicipio,regioncna,latitud,longitud,uso,corriente,tipovertedor,inicioop,elevcorona,bordolibre,nameelev,namealmac,namoelev,namoalmac,alturacortina,elevacionactual,almacenaactual,llenano
1557458,2016-01-01,DNXMX,"Danxhó, Méx.",Danxho,Estado de México,Jilotepec,Aguas del Valle de México,19.884722,-99.559722,Riego,Coscomate,Libre,1951,2455.6,0.470117,2455.1298828125,32.6699981689453,2454,31.0499992370605,31,2453.99,30.998,0.998325306333712
1557457,2016-01-01,DGNMC,"De Gonzalo, Mich.",De Gonzalo,Michoacán de Ocampo,Vista Hermosa,Lerma-Santiago-Pacífico,20.304444,-102.436944,Riego,Río Las Nutrias,Libre,1890,1535.83,0.93,1534.9,10,1533.88,8.837,10,1533.89,5.026,0.56874504922485
1557508,2016-01-01,AOBSO,"Álvaro Obregón, Son.",El Oviachic,Sonora,Cajeme,Noroeste,27.8225,-109.8925,Generación de Energia,Río Yaqui,Libre,1952,115.1,2.9,112.199996948242,4409.35986328125,105.5,3023.13989257812,25,103.39,2647.52,0.875751732991159
1557509,2016-01-01,APRDR,"Ing. Benjamín Ortega Cantero, Dgo.",Agua Puerca,Durango,Mapimí,Cuencas Centrales del Norte,26.226389,-104.493889, Riego,Arrollo El Derrame,Libre,1984,1436.4,2.30002,1434.09997558594,56.060001373291,1430.19995117188,30.764,34.8,1421.6,3.428,0.111428942920296
1557510,2016-01-01,LOLMC,"Los Olivos, Mich.",Los Olivos,Michoacán de Ocampo,Tepalcatepec,Balsas,19.210833,-102.865556,Riego,Río Otates,Libre,1961,423,2,421,16.2709999084473,418,10.2620000839233,39,418,10.262,0.999999991821932
1557511,2016-01-01,LREHD,"Los Reyes, Hgo.",Omiltepec,Hidalgo,Acaxochitlán,Golfo Centro,20.174722,-98.131944,Generación de Energia,Río Omiltepec,Libre,1913,2168.5,1.5,2167,27,2165,26.0499992370605,30,2158.88,10.165,0.39021114386593
1557512,2016-01-01,LREZC,"Gobernador Leobardo Reynoso, Zac.",Trujillo,Zacatecas,Fresnillo,Cuencas Centrales del Norte,23.18,-103.216944,Riego,Los Lazos,Libre,1946,2131.85,2.31997,2129.53002929688,125.919998168945,2127.35009765625,95.7200012207031,40.34,2127.08,92.475,0.966099026542832
1557513,2016-01-01,MABGJ,"Mariano Abasolo, Gto.",San Antonio de Aceves,Guanajuato,Pénjamo,Lerma-Santiago-Pacífico,20.504444,-101.931944,Riego,Arroyo los Otates,Libre,1971,1755,1.92,1753.08,23.946,1751.3,20.079,43,1750.33,19.46,0.969171771502565
1557514,2016-01-01,MALCP,"Nezahualcóyotl, Chis.","Malpaso, Raudales de Malpaso",Chiapas,Tecpatán,Frontera Sur,17.178611,-93.598889,Riego y Generación de Energia,Río Grijalva,Contr,1964,192,4,188,14056,182.5,12373.099609375,137.5,171.81,9340.44,0.754898957810282
1557515,2016-01-01,MLPMC,"Malpaís, Mich.",La Cienega,Michoacán de Ocampo,Queréndaro,Lerma-Santiago-Pacífico,19.829167,-100.873611,Riego,Río Queréndaro,Libre,1938,1830.96,1,1843.56,27.249,1842.530029,18.512,6.1,1842.6,19.086,1.03100691443388
1557516,2016-01-01,MNLAG,"Media Luna, Ags.",Media Luna,Aguascalientes,Calvillo,Lerma-Santiago-Pacífico,21.8075,-102.788333,Riego,Río Calvillo,Libre,1976,1624.1,2.14004,1621.9599609375,21.1959991455078,1619.19995117188,15,22.24,1618.74,14.36,0.957333333333333
1557517,2016-01-01,MOCMC,"Melchor Ocampo, Mich.",El Rosario,Michoacán de Ocampo,Angamacutiro,Lerma-Santiago-Pacífico,20.127222,-101.724444,Riego,Río Angulo,Libre,1975,1716.5,2.08997,1714.41003417969,249.843002319336,1711.90002441406,194.453994750977,29.5,1712.02,197.24,1.01432732329614
1557518,2016-01-01,MRGTP,"Marte R. Gómez, Tamps.",El Azucar,Tamaulipas,Camargo,Río Bravo,26.204722,-98.925556,Riego,Río San Juan,Libre,1946,86,3,83,2208.65991210938,76.3000030517578,781.700012207031,49,76.08,750.913,0.960615310571497
1557519,2016-01-01,NEXPB,"Nexapa, Pue.",Nexapa,Puebla,Huauchinango,Golfo Centro,20.168333,-97.984722,Generación de Energia,Río Nexapa,Libre,1912,1364,1,1363,16,1360,12.5,44,1358.11,9.968,0.79744
1557520,2016-01-01,NGRAG,"El Niagara, Ags.",El Niagara,Aguascalientes,Aguascalientes,Lerma-Santiago-Pacífico,21.78,-102.371667,Riego,Río Aguascalientes,Libre,1963,1833,0.599976,1832.40002441406,31.6949996948242,1828.40002441406,16.1879997253418,31.5,1828.41,16.217,1.0017914674543
1557521,2016-01-01,NNEPB,"Necaxa, Pue.",Necaxa,Puebla,Juan Galindo,Golfo Centro,20.216667,-98.000556,Generación de Energia,Río Necaxa,Libre,1908,1344,1,1344,43,1338,29.0550003051758,59,1333.74,21.366,0.735363957170357
1557522,2016-01-01,PAGCH,"Pico del Águila, Chih.",Pico del Águila,Chihuahua,Coronado,Río Bravo,26.546389,-105.254167,Riego,Río Florido,Libre,1993,1625.9,2.5,1619,62.0200004577637,1616.90002441406,51.106,42,1607.74,15.753,0.308241693734591
1557523,2016-01-01,PAGDR,"Peña del Águila, Dgo.",Peña del Águila,Durango,Durango,Pacífico Norte,24.203889,-104.656667,Riego,Río La Sauceda,Libre,1954,1896.8,1.52998,1895.27001953125,54.7210006713867,1892.5,27.9479999542236,25,1892.17,25.584,0.915414342418218
1557524,2016-01-01,GVCDR,"Presidente Guadalupe Victoria, Dgo.",El Tunal,Durango,Durango,Pacífico Norte,23.961111,-104.753056,Riego,Río El Tunal,Mixto,1962,1934.8,1.69,1934.61,94.617,1931,78.06,72.8,1931.52,80.364,1.02951575710992
1557525,2016-01-01,HPNMX,"Huapango, Méx.",Huapango,Estado de México,Aculco,Aguas del Valle de México,20.046389,-99.696944,Riego,Huapango,Libre,1765,2513,0.199951,2512.80004882812,126.5,2512.64990234375,121.5,8.8,2511.16,62.36,0.513251028806584
1557526,2016-01-01,HRTJL,"Hurtado, Jal.",Valencia,Jalisco,Acatlán de Juárez,Lerma-Santiago-Pacífico,20.466944,-103.651111,Riego,Arroyo San Antonio,Libre,1879,1464,1.34,1462.66,22.625,1462.66,22.625,10.35,1462.51,21.783,0.96278453038674
1557527,2016-01-01,IALGJ,"Ignacio Allende, Gto.",La Begoña,Guanajuato,San Miguel de Allende,Lerma-Santiago-Pacífico,20.848056,-100.825833,C. A. y Riego,Río La Laja,Contr,1968,1834.7,2.04998,1832.65002441406,221.693,1828.75,125.118,43,1827.9,132.55,1.05939992646941
1557528,2016-01-01,IDFQT,"San Ildefonso, Qro.",El Tepozán,Querétaro,Amealco de Bonfil,Golfo Norte,20.198611,-99.9625, Riego,Prieto,Libre,1942,2261.93,1.87,2242.5,58.026,2239,47.812,62.7,2235.32,43.411,0.907951978582783
1557529,2016-01-01,INFMC,"Infiernillo, Mich.",Infiernillo,Guerrero,Arteaga,Balsas,18.266667,-101.883333,Generación de Energia,Río Balsas,Contr,1964,184,0.8,183.2,12562.44,169,7297.79,151.5,162.12,7148.47,0.979539011125286
1557530,2016-01-01,IRASO,"Ignacio R. Alatorre, Son.",Punta de Agua,Sonora,Guaymas,Noroeste,28.426389,-110.396944, Riego,Mátape,Libre,1972,105,2.29,102.709999084473,29.6900005340576,100,16.1599998474121,30,95.98,4.322,0.267450497574858
1557531,2016-01-01,IVGSL,"Valentín Gama, S.L.P.",Ojo Caliente,San Luis Potosí,Villa de Reyes,Cuencas Centrales del Norte,21.88,-100.820556,Riego,Santa María,Libre,1970,1789.55,1.45002,1788.09997558594,22.3999996185303,1783.80004882812,9.51000022888184,24,1783.12,7.904,0.831125111437493
1557532,2016-01-01,JARMC,"Jaripo, Mich.",Jaripo,Michoacán de Ocampo,Villamar,Lerma-Santiago-Pacífico,19.958333,-102.601944,Riego,Río Jaripo,Libre,1951,1548.5,2.2,1580.42,9.265,1578.91,6.028,#¡VALOR!,1544.77,9.717,1.61197743861977
1557533,2016-01-01,JCQAG,"Jocoque, Ags.",Der. Jocoqui,Aguascalientes,Pabellón de Arteaga,Lerma-Santiago-Pacífico,22.121667,-102.356944,Riego,Río San Pedro,Libre,1929,1944.95,1.54998,1943.40002441406,11.3999996185303,1942.44995117188,10.9750003814697,44,1942.38,10.926,0.995535272914208
1557560,2016-01-01,PLYJL,"Ing. Alfredo Elías Ayub, Jal.",La Yesca,Nayarit,Hostotipaquillo,Lerma-Santiago-Pacífico,21.196944,-104.105833,Generación de Energia,Río Santiago,Contr,2012,579,1,578,2392.88989257812,575,2292.919921875,208.5,566.03,2014.73,0.878674384037139
1557561,2016-01-01,PMDMX,"Madín, Méx.",Madín,Estado de México,Naucalpan de Juárez,Aguas del Valle de México,19.526944,-99.260833,Uso Público Urbano,Río Tlanepantla,Contr,1959,2348.5,2.46,2346.04,17.964,2336.294,9.37,73,2333.84,7.821,0.834685165421558
1557562,2016-01-01,PMHSI,"Miguel Hidalgo, Sin.",El Mahone,Sinaloa,El Fuerte,Pacífico Norte,26.509722,-108.58,Riego y Generación de Energia,Río Fuerte,Mixto,1956,151.4,3.4,148,4171.273,142.36,3312.889,81,140.16,2836.64,0.856243598864918
1557563,2016-01-01,PMNMX,"El Molino, Méx.",Molinitos,Estado de México,Naucalpan de Juárez,Aguas del Valle de México,20.124167,-99.739722,Riego,Zarco y El Posal,Libre,1980,2491,0,2385.09008789062,8.69999980926514,2384.38989257812,7.69000005722046,12,2384.23,7.454,0.969310786025435
1557564,2016-01-01,PMOSO,"Ing. Rodolfo Félix Valdés, Son.",El Molinito,Sonora,Hermosillo,Noroeste,29.2125,-110.725556,Riego,Rio Sonora,Libre,1991,295.4,2.00001,293.399993896484,233.919998168945,289.359985351562,130.039993286133,31.4,281.06,25.194,0.193740397575725
1557565,2016-01-01,JSBCP,"Juan Sabines, Chis.",El Portillo II o Cuxtepeques,Chiapas,La Concordia,Frontera Sur,15.996389,-92.898611,Riego,Río Cuxtepeques,Libre,1981,620.25,1.97998,618.27001953125,116.110000610352,612.119995117188,68.1500015258789,46,612.19,68.605,1.00667642647005
1557566,2016-01-01,LBCNL,"Rodrigo Gómez, N.L.",La Boca,Nuevo León,Santiago,Río Bravo,25.428056,-100.128056,Uso Público Urbano,Arroyo la Chueca,Contr,1961,450.04,0.839988,449.200012207031,42.6279983520508,447.55,35.003,34,446.66,31.122,0.889123789389481
1557567,2016-01-01,LBLTP,"Derivadora Las Blancas, Tamps.",Derivadora Las Blancas,Tamaulipas,Mier,Río Bravo,26.408889,-99.233611,Riego,Río Álamo,Libre,2000,93.3,1.5,91.8000030517578,124,89.9199981689453,83.7839965820312,32.28,84.89,23.301,0.278108003324793
1557568,2016-01-01,LBQCH,"La Boquilla, Chih.",Lago Toronto,Chihuahua,San Francisco de Conchos,Río Bravo,27.544722,-105.414167,Riego y Generación de Energia,Río Conchos,Libre,1916,1322,2.90002,1319.09997558594,3278.098,1317,2893.57104492188,80,1310.34,1891.73,0.653770020031104
1557569,2016-01-01,LCAVC,"La Cangrejera, Ver.",La Cangrejera,Veracruz de Ignacio de la Llav,Coatzacoalcos,Golfo Centro,18.109444,-94.330833,Riego,Arroyo Teapa,Libre,1980,23.87,2.22,21.6499996185303,31.6000003814697,21.25,28.5370006561279,15.87,20.84,25.595,0.896905750832781
1557570,2016-01-01,LCDSO,"Lázaro Cárdenas, Son.",La Angostura,Sonora,Villa Hidalgo,Noroeste,30.437778,-109.378889,Generación de Energia y Riego,Bavispe,Libre,1942,843.75,3.59998,840.150024414062,1116.4599609375,830.700012207031,703.380004882812,91.75,831.06,717.148,1.01957404961985
1557571,2016-01-01,LCLGR,"La Calera, Gro.",La Calera,Guerrero,Zirándaro,Balsas,18.418611,-101.003056,Riego y Uso Público Urbano,Río del oro,Libre,1964,124.3,1.68,122.620002746582,34.25,118,9.39299964904785,31.8,119.24,14.264,1.51857772095689
1557572,2016-01-01,LCLJL,"La Colonia, Jal.",La Colonia,Jalisco,Zapotlán del Rey,Lerma-Santiago-Pacífico,20.43,-102.931944,Riego,Arroyo Los Sabinos,Libre,1927,0,0,103.400001525879,6.5,103,5.80000019073486,6,102.26,3.711,0.639827565165962
1557573,2016-01-01,LCRDR,"Lázaro Cárdenas, Dgo.",El Palmito,Durango,Indé,Cuencas Centrales del Norte,25.594167,-105.015833, Riego,Nazas,Contr,1946,1635,3,1632,4278.5400390625,1622.46,2957.608,21.9,1610.33,1764.85,0.596715318595297
1557574,2016-01-01,LDACM,"Laguna de Amela, Col.",Tecoman,Colima,Tecomán,Lerma-Santiago-Pacífico,18.809167,-103.774167,Riego,Arroyo La Mina Verde y Canal C,Libre,1956,10.89,3.25,7.6399998664856,41.2999992370605,7.3899998664856,38.3429985046387,6.35,7.35,37.872,0.987716179667542
1557575,2016-01-01,LDCJL,"Lago de Chapala, Jal.",Chapala,Jalisco,Chapala,Lerma-Santiago-Pacífico,20.18,-103.12,Riego y Uso Público Urbano,Río Lerma,Libre,1980,0,0,99,9279.7099609375,98,8126.41015625,,95.01,4762.1,0.586002910071858
1557576,2016-01-01,LDCSI,"Luis Donaldo Colosio, Sin.",Huites,Sinaloa,Choix,Pacífico Norte,26.844722,-108.367778,Riego y Generación de Energia,Río Fuerte,Contr,1995,290.75,0.75,290,4568,270,2908.10009765625,318,259.74,2245.13,0.77202638307032
1557577,2016-01-01,LDCVC,"Canseco, Ver.",Laguna de Catemaco,Veracruz de Ignacio de la Llav,Catemaco,Golfo Centro,18.415833,-95.118333,Generación de Energia,Río Grande de Catemaco,Contr,1960,334.5,1,333.5,252.699996948242,332.7,193.02,7.2,332.57,183.5,0.950678686146513
1557578,2016-01-01,LDFMC,"Laguna del Fresno, Mich.",Laguna del Fresno,Michoacán de Ocampo,Maravatío,Lerma-Santiago-Pacífico,20.038333,-101.940833,Riego,Canal El Fresno,Libre,1946,2059,2,2057,13.132,2055.98,10.299,8.8,2056.21,10.482,1.01776871540926
1557579,2016-01-01,CHUCH,"Chihuahua, Chih.",Chihuahua,Chihuahua,Chihuahua,Río Bravo,28.570556,-106.167778,Uso Público Urbano,Río Chuvíscar,Libre,1960,1546,1.71997,1544.28002929688,35.6310005187988,1540.81994628906,23.382999420166,58,1538.68,17.518,0.749176770918965
1557580,2016-01-01,CHYVC,"Paso de Piedras, Ver.",Chicayán,Veracruz de Ignacio de la Llav,Pánuco,Golfo Norte,21.7375,-98.155833,Riego,Chicayán,Contr,1979,32.25,3.97,28.28,570,23.07,220,30,22.82,208.264,0.946654545454546
1557581,2016-01-01,CJNNR,"Leonardo Rodríguez Alcaine, Nay.",El Cajón,Nayarit,Santa María del Oro,Lerma-Santiago-Pacífico,21.428333,-104.450833,Generación de Energia,Río Santiago,Contr,2006,394.5,0.5,394,2860.19995117188,391,2551.69995117188,186,382.2,1956.6,0.766782943700503
1557582,2016-01-01,CLNCH,"Ing. Andrew Weiss, Chih.",La Colina,Chihuahua,San Francisco de Conchos,Río Bravo,27.576389,-105.382222,Riego y Generación de Energia,Rio Conchos,Libre,1926,1251,1.15002,1249.84997558594,26.9699993133545,1249.09997558594,23.6700000762939,20.75,1249.28,24.436,1.0323616358782
1557583,2016-01-01,CNPMX,"La Concepción, Méx.",La Concepción,Estado de México,Tepotzotlán,Aguas del Valle de México,19.695,-99.304444,Riego,Río Tepotzotlán,Libre,1949,2355.64,3.09996,2352.5400390625,13.6999998092651,2352.10009765625,12.1110000610352,39,2351.63,11.612,0.95879778230366
1557584,2016-01-01,CNSQT,"Constitución de 1917, Qro.",Hidalgo,Querétaro,San Juan del Río,Golfo Norte,20.418611,-100.080278,Riego,Arrollo Caracol,Contr,1969,1937,1.55005,1928.44995117188,75.3000030517578,1927.65002441406,69.8619995117188,35,1923.95,43.848,0.627637346575585
1557612,2016-01-01,SJATL,"San José Atlanga, Tlax.",Atlanga,Tlaxcala,Atlangatepec,Balsas,19.556111,-98.200556,Riego,Río Zahuapan,Libre,1959,2500,2.32988,2486.8701171875,59.445,2486.39990234375,54.026,24.2,2485.68,45.86,0.848850553437234
1557613,2016-01-01,SJUMC,"San Juanico, Mich.",La Laguna,Michoacán de Ocampo,Cotija,Balsas,19.839444,-102.651389,Riego,Río Cotija,Libre,1950,1574.6,0,1604.56,71.69,1603.86,60.545,7,1573.02,60.086,0.992418862003468
1557614,2016-01-01,SLDGJ,"La Soledad, Gto.",La Soledad,Guanajuato,Dolores Hidalgo Cuna de la Independencia Nacional,Lerma-Santiago-Pacífico,21.04,-101.279722,Uso Público Urbano,Río Santa Ana,Libre,1956,2211.4,2.2501,2209.14990234375,2.37100005149841,2207.75,1.85699999332428,51,2206.8,1.571,0.84598815597608
1557615,2016-01-01,SLSGJ,"Solís, Gto.",Solís,Guanajuato,Acámbaro,Lerma-Santiago-Pacífico,20.051667,-100.667222,Riego,Río Lerma,Contr,1949,1901.7,3,1898.7,1214.14,1892.30004882812,785.539978027344,56.7,1891.52,739.708,0.941655448087521
1557616,2016-01-01,SLTSI,"Ing. Aurelio Benassini Vizcaino, Sin.",El Salto o Elota,Sinaloa,Elota,Pacífico Norte,24.121944,-106.695833,Riego,Río Elota,Libre,1988,167.1,2.46,164.639999389648,815.510009765625,154.539993286133,403.899993896484,73,153.49,373.341,0.92434019718179
1557617,2016-01-01,SLZTP,"Lic. Emilio Portes Gil, Tamps.",San Lorenzo,Tamaulipas,Xicoténcatl,Golfo Norte,22.943889,-98.791389,Riego,El Sauz,Libre,1983,125,1.1,123.900001525879,272,122.949996948242,230.779998779297,40.5,122.34,216.361,0.937520587331806
1557618,2016-01-01,SMGCL,"San Miguel, Coah.",San Miguel,Coahuila de Zaragoza,Jiménez,Río Bravo,29.034167,-100.953889,Riego,Río San Diego,Libre,1935,343.5,1.54001,341.959991455078,22.193000793457,341.739990234375,21.1679992675781,15,341.15,18.578,0.877645533012414
1557619,2016-01-01,SNJSL,"San José, S.L.P.",San José,San Luis Potosí,San Luis Potosí,Cuencas Centrales del Norte,22.150278,-101.054444,Uso Público Urbano,El Salado,Libre,1903,1955.5,0.359985,1955.14001464844,5.1399998664856,1953.78002929688,5.1399998664856,32,1952.45,4.368,0.849805469544994
1557620,2016-01-01,SNLSI,"Sanalona, Sin.",Sanalona,Sinaloa,Culiacán,Pacífico Norte,24.815,-107.151389,Riego,Río Tamazula,Libre,1948,165,2.83,162.17,987.522,156.2,687.988,81,155.08,625.483,0.909148124676593
1557621,2016-01-01,SOLPB,"La Soledad, Pue.",Apulco o Mazatepec,Puebla,Tlatlauquitepec,Golfo Centro,19.960833,-97.446667,Generación de Energia,Apulco,Contr,1962,806.5,1.5,805,14.978,804.5,13.895,93,793.23,0.183,0.0131702051097517
1557622,2016-01-01,SRSJL,"Santa Rosa, Jal.",Santa Rosa,Jalisco,Amatitán,Lerma-Santiago-Pacífico,20.908889,-103.705556,Riego,Río Santiago,Contr,1964,747,0.5,748,258.468,744,219.09,114,740.33,339.33,1.54881555525127
1557623,2016-01-01,STRZC,"Santa Rosa, Zac.",Santa Rosa,Zacatecas,Fresnillo,Cuencas Centrales del Norte,22.923611,-103.108889,Riego,Arroyo El Arenal,Libre,1937,2250.19,0.550107,2249.63989257812,14.0410003662109,2248.63989257812,10.4759998321533,15,2248.6,10.34,0.987017961594854
1557624,2016-01-01,TAYZC,"Ing. Julián Adame Alatorre, Zac.",Tayahua,Zacatecas,Villanueva,Lerma-Santiago-Pacífico,22.120556,-102.864167,Riego,Río Juchipila,Libre,1976,1701.7,0.289966,1701.41003417969,50.3769989013672,1696.01000976562,31.5979995727539,54.3,1695.87,31.198,0.987340984297664
1557625,2016-01-01,TCTJL,"Tacotán, Jal.",Tacotán,Jalisco,Unión de Tula,Lerma-Santiago-Pacífico,20.036111,-104.320278,Riego y Generación de Energia,Río Ayutla,Libre,1960,1407.5,1.20996,1406.2900390625,169,1403.06005859375,149.238998413086,10,1403.08,149.349,1.00073708339029
1557626,2016-01-01,TEMOX,"Presidente Alemán, Oax.",Temascal,Oaxaca,San Miguel Soyaltepec,Golfo Centro,18.232222,-96.412222,Generación de Energia,Papaloapan,Contr,1955,74.79,3.5,68.5,9105.5,65.5,8119.10009765625,76,62.96,6497.4,0.800261103059391
1557627,2016-01-01,TENJL,"Tenasco, Jal.",Boquilla de Zaragoza,Jalisco,Santa María de los Ángeles,Lerma-Santiago-Pacífico,22.171944,-103.198611,Riego,Arroyo Tenasco,Libre,1960,1777,0,1724.83996582031,13.8500003814697,1722.84997558594,10.5,33,1718.89,5.86,0.558095238095238
1557628,2016-01-01,TENPB,"Tenango, Pue.",Tenango,Puebla,Huauchinango,Golfo Centro,20.199444,-97.983333,Generación de Energia,Río Acatlán,Libre,1912,1353,2,1362,45.1199989318848,1345.6,28.203,39,1337.91,11.397,0.404105946175939
1557629,2016-01-01,TEPMC,"Tepuxtepec, Mich.",Tepuxtepec,Michoacán de Ocampo,Contepec,Lerma-Santiago-Pacífico,20.000278,-100.229167,Riego y Generación de Energia,Río Lerma,Contr,1930,2352,2,2350,537.527,2347.56,425.2,47,2345.81,354.393,0.833473659454374
1557630,2016-01-01,VGRGR,"Vicente Guerrero, Gro.",Palos Altos,Guerrero,Arcelia,Balsas,18.382778,-100.265833,Riego,Río Poliutla,Libre,1968,433,2.70001,430.299987792969,300,425,249.49,67.5,423.32,230.2,0.922682271834542
1557631,2016-01-01,VGRTP,"Vicente Guerrero, Tamps.",Las Adjuntas,Tamaulipas,Padilla,Golfo Norte,23.959444,-98.666389, Riego,Soto La Marina,Contr,1967,148,4.12001,144.039993286133,5498.22998046875,140.440002441406,3910.68994140625,62,140.34,3870.92,0.989830453960267
1557632,2016-01-01,VHGDR,"Villa Hidalgo, Dgo.",Villa Hidalgo,Durango,Hidalgo,Cuencas Centrales del Norte,26.2425,-104.928889,Riego y Uso Público Urbano,A. Cerro Gordo,Libre,1977,1731.28,1.73,1729.55,39.555,1726.23,23.08,34.2,1716.66,8.1,0.350953206239168
1557633,2016-01-01,VILMC,"José María Morelos y Pavón, Mich.",La Villita,Michoacán de Ocampo,Lázaro Cárdenas,Balsas,18.048333,-102.180278,Riego y Generación de Energia,Río Balsas,Contr,1973,59.73,3,56.73,714.593,51.2,531.414,135.13,50.27,510.3,0.960268265420181
1557634,2016-01-01,VILZC,"José María Morelos, Zac.",La Villita,Zacatecas,Tepechitlán,Lerma-Santiago-Pacífico,21.588889000000002,-103.3375,Riego,Río San Pedro,Libre,1986,1833.2,2.01006,1831.18994140625,11.164999961853,1829,9.01799964904785,39.2,1828.94,8.967,0.994344682742005
1557635,2016-01-01,VNTQT,"La Venta, Qro.",La Venta,Querétaro,Pedro Escobedo,Golfo Norte,20.498611,-100.190556, Riego,Arrollo El Hondo,Libre,1907,1896,0.619946,1907.68005371094,3.77699995040894,1906.68005371094,2.47900009155273,4.3,1905.63,1.216,0.490520353001823
1557636,2016-01-01,VTRGR,"Valerio Trujano, Gro.",Tepecoacuilco,Guerrero,Tepecoacuilco de Trujano,Balsas,18.295833,-99.466111,Riego,Río Tepecoacuilco,Libre,1964,844.3,1.51997,842.780029296875,51.6500015258789,840,31.0139999389648,33.3,837.74,19.369,0.624524409560777
1557637,2016-01-01,VVCMX,"Villa Victoria, Méx.",Villa Victoria,Estado de México,Villa Victoria,Balsas,19.461667,-100.055556,Uso Público Urbano,Río San Juan Malacatepec,Libre,1944,2561.96,0,2607.5,252.029998779297,2605.5,185.723007202148,19,2604.98,170.373,0.917349996463061
1557638,2016-01-01,ZICMC,"Zicuirán, Mich.",La Peña,Michoacán de Ocampo,La Huacana,Balsas,18.921111,-101.931944,Riego,Río Zicuarán,Libre,1957,302.75,1.31,301.440002441406,47.4850006103516,299,36.2939987182617,46,298.78,35.412,0.975698497013008
1557483,2016-01-01,VEGJL,"Ing. Santiago Camarena, Jal.",La Vega,Jalisco,Teuchitlán,Lerma-Santiago-Pacífico,20.596389,-103.845833,Riego,Río salado y Teuchitlán,Libre,1960,1261,2.14001,1258.85998535156,80,1257,44.0349998474121,18,1257.28,49.903,1.13325763989829
1557484,2016-01-01,ERECH,"El Rejón, Chih.",El Rejón,Chihuahua,Chihuahua,Río Bravo,28.614722,-106.119444,Riego,Arroyo El Rejón,Libre,1966,1479.8,1.48005,1478.31994628906,7.75500011444092,1477,6.528,10,1473.9,4.146,0.635110294117647
1557485,2016-01-01,ESLJL,"El Salto, Jal.",El Salto,Jalisco,Valle de Guadalupe,Lerma-Santiago-Pacífico,21.037222,-102.705,Uso Público Urbano,Río Valle de Guadalupe,Libre,1940,1814.5,2,1812.5,112,1810.16003417969,85,42,1810.03,83.16,0.978352941176471
1557486,2016-01-01,ESTJL,"El Estribón, Jal.",El Estribón,Jalisco,Yahualica de González Gallo,Lerma-Santiago-Pacífico,21.185556,-102.900556,Riego,Río Yahualica,Libre,1946,1882.5,1.08997,1881.41003417969,7.73999977111816,1880,6.37799978256226,29,1877.71,4.747,0.744277228258696
1557487,2016-01-01,EXCZC,"Miguel Alemán, Zac.",Excamé,Zacatecas,Tepechitlán,Lerma-Santiago-Pacífico,21.645833,-103.35,Riego y Generación de Energia,Río Tlaltenango,Contr,1949,1707,2.5,1704.5,70.9199981689453,1703.47998046875,64.9800033569336,47.5,1700.75,50.497,0.777115995556682
1557488,2016-01-01,FIMCH,"Francisco I. Madero, Chih.",Las Vírgenes,Chihuahua,Rosales,Río Bravo,28.166111,-105.628889,Riego,Río San Pedro,Libre,1949,1243.8,1.23994,1242.56005859375,477.622009277344,1239.30004882812,355.286010742188,57,1233.96,198.035,0.557395996499574
1557489,2016-01-01,CILAFLCMX,"Internacional Falcón, Tamps.",Falcón,Tamaulipas,Guerrero,Río Bravo,26.560278,-99.170556,Riego y Generación de Energia,Río Bravo,Contr,1953,98.45,2.68,95.7699966430664,4862.2099609375,91.805,3264.813,48.45,86.998,1885.47,0.577512402701165
1557490,2016-01-01,FVLDR,"Francisco Villa, Dgo.",El Bosque,Durango,Poanas,Pacífico Norte,24.001667,-103.960833,Riego,Río Poanas,Libre,1968,1998.7,2.57,1996.13000488281,96.5699996948242,1993,73.2600021362305,58.7,1992.09,67.238,0.917799591036972
1557491,2016-01-01,FZRDR,"Francisco Zarco, Dgo.",Las Tortolas,Durango,Cuencamé,Cuencas Centrales del Norte,25.270833,-103.773611,Riego,Nazas,Contr,1968,1213,2.94995,1210.05004882812,383.160003662109,1208.19995117188,309.239990234375,39.5,1204.28,184.742,0.597406563944019
1557492,2016-01-01,GBESI,"Ing. Guillermo Blake Aguilar, Sin.",El Sabinal o El Cajón,Sinaloa,Sinaloa,Pacífico Norte,28.95,-108.3275,Riego,Arroyo Ocoroni,Libre,1985,201.2,4.59,196.610000610352,468.623992919922,188.449996948242,294.019989013672,81.2,185.09,236.602,0.804713995105272
1557493,2016-01-01,GDLMX,"Sierra de Guadalupe, Méx.",Guadalupe,Estado de México,Tultitlán,Aguas del Valle de México,19.635556,-99.252222,Riego,Río Cuautitlán,Libre,1936,2308.75,1.92993,2306.82006835938,63.9000015258789,2305.19995117188,56.7000007629395,467,2302.85,47.394,0.835873004625741
1557494,2016-01-01,GDOSI,"Gustavo Díaz Ordaz, Sin.",Bacurato,Sinaloa,Sinaloa,Pacífico Norte,25.856667,-107.911111,Riego y Generación de Energia,Río Sinaloa,Contr,1981,256,3.5,252.5,2687.074,237.06,1618.8,116,226.36,1049.97,0.648610081541883
1557495,2016-01-01,GLNGJ,"La Golondrina, Gto.",La Golondrina,Guanajuato,Pénjamo,Lerma-Santiago-Pacífico,20.439167,-101.7425,Riego,Río Penjamo,Libre,1968,1838.7,1.58,1837.11999511719,5.96999979019165,1835.19995117188,4.67000007629395,45.7,1833.7,3.792,0.811991421423977
1557496,2016-01-01,GUAMC,"Guaracha, Mich.",San Antonio,Michoacán de Ocampo,Villamar,Lerma-Santiago-Pacífico,19.979167,-102.541389,Riego y Generación de Energia,Arroyo Las Liebres,Libre,1913,1596.72,0,1580.11,29.79,1580.01,28.677,8,1595.43,31.8,1.10890260487499
1557497,2016-01-01,ABRAG,"Abelardo L. Rodríguez., Ags.",Abelardo L. Rodríguez,Aguascalientes,Jesús María,Lerma-Santiago-Pacífico,21.916944,-102.427778,Uso Público Urbano,Río Morcinique,Libre,1934,1890.2,1.47,1890,18.8400001525879,1888.90002441406,15.9899997711182,25,1886.6,11.148,0.69718575106774
1557498,2016-01-01,ACHZC,"Achimec, Jal.",Vaqueros,Jalisco,Huejúcar,Lerma-Santiago-Pacífico,22.327222,-103.225278,Riego,Río Tepetongo,Libre,1969,1846.3,2.02998,1844.27001953125,12.2119998931885,1841.5,7.36399984359741,28.5,1841.45,7.291,0.990086930316697
1557499,2016-01-01,AFIGR,"Andrés Figueroa, Gro.",Las Garzas,Guerrero,Ajuchitlán del Progreso,Balsas,18.075833,-100.5175,Riego,Río Ajuchitlán,Libre,1984,385,2.39001,382.609985351562,123.099998474121,377,102.5,72.5,375.24,94.76,0.924487804878049
1557500,2016-01-01,AGMNR,"Aguamilpa Solidaridad, Nay.",Aguamilpa,Nayarit,Tepic,Lerma-Santiago-Pacífico,21.839167,-104.802222,Riego y Generación de Energia,Río Santiago,Contr,1993,235,3,232,6950,220,5540,187,215.92,5099.36,0.920462093862816
1557501,2016-01-01,AGOMC,"Agostitlán, Mich.",Mata De Pinos,Michoacán de Ocampo,Hidalgo,Balsas,19.579722,-100.608889,Riego,Río Agostitlán,Libre,1955,2379,1.16,2377.84,18.754,2376.6,15.675,25,2481.82,16.01,1.0213716108453
1557502,2016-01-01,AGZCH,"Abraham González, Chih.",Guadalupe,Chihuahua,Guerrero,Noroeste,28.481667,-107.482778, Riego,Papigochi,Libre,1961,2052.9,1.59995,2051.30004882812,102.891,2047.80004882812,79.354,30,2047.77,85.251,1.07431257403534
1557503,2016-01-01,ALMSI,"Adolfo López Mateos, Sin.",El Humaya o El Varejonal,Sinaloa,Badiraguato,Pacífico Norte,25.101389,-107.388333,Riego y Generación de Energia,Río Humaya,Libre,1964,186.5,3.02,183.479995727539,4034.52001953125,176,3086.61010742188,105.5,167.58,2188.96,0.709179301505091
1557504,2016-01-01,ALRBN,"Abelardo L. Rodríguez, B.C.",Abelardo L. Rodríguez o Tijuana,Baja California,Tijuana,Península de Baja California,32.444722,-116.908333,Uso Público Urbano,Río Tijuana,Contr,1937,127,2,125,121.392,115.85,76.902,72,85.65,0.781,0.0101557826844555
1557505,2016-01-01,AMEMC,"Aristeo Mercado, Mich.",Wilson,Michoacán de Ocampo,Copándaro,Lerma-Santiago-Pacífico,19.926111,-101.661111,Riego y Generación de Energia,Arroyo Seco,Libre,1926,1999.83,6.03,1993.8,28.981,1993.5,25.344,9.2,1997.46,11.686,0.461095328282828
1557506,2016-01-01,CILAAMSMX,"Internacional La Amistad, Coah.",La Amistad,Coahuila de Zaragoza,Acuña,Río Bravo,29.446944,-101.057222,Riegoy Generación de Energia,Río Bravo,Contr,1968,351.22,2.14001,349.079986572266,7000,340.462,4040.325,34.2,332.87,2379.43,0.58892044575622
1557507,2016-01-01,ANGCP,"Doctor Belisario Domínguez, Chis.",Angostura,Chiapas,Acala,Frontera Sur,16.401389000000002,-92.778889,Generación de Energia,Río Grijalva,Contr,1976,543,3.5,539.5,19736.4296875,533,15549.16015625,147,527.82,12614.3,0.811252818367149
1557534,2016-01-01,JDMOX,"Presidente Benito Juárez, Oax.",El Marqués,Oaxaca,Santa María Jalapa del Marqués,Pacífico Sur,16.445556,-95.397778,Riego,Ríos Tequisistán y Tehuantepec,Libre,1961,138.4,2.64999,139.850006103516,1726.62902832031,124.25,720.317016601562,85.5,116.59,411.289,0.570983317790341
1557535,2016-01-01,JGRSI,"Juan Guerrero Alcocer, Sin.",Vinoramas,Sinaloa,Culiacán,Pacífico Norte,24.753611,-107.059444,Riego,Río Tamazula,Libre,1994,178.3,2.02,176.279998779297,102,168.5,55,50,158.17,17.405,0.316454545454545
1557536,2016-01-01,JLPSI,"José López Portillo, Sin.",El Comedero,Sinaloa,Cosalá,Pacífico Norte,24.571667,-106.807222,Riego y Generación de Energia,Río San lorenzo,Contr,1981,290,4.54999,286.950012207031,3966.169921875,272.160003662109,2580.18994140625,135.5,266.86,2175.57,0.843182110389236
1557537,2016-01-01,JORSI,"Josefa Ortiz de Domínguez, Sin.",El Sabino,Sinaloa,El Fuerte,Pacífico Norte,26.426944,-108.7025,Riego,Río Alamos,Contr,1967,113.5,2.93,112.650001525879,695.44,109.5,518.928,44,106.79,395.36,0.761878333795825
1557538,2016-01-01,ARCSO,"Adolfo Ruíz Cortínes, Son.",Mocuzari,Sonora,Alamos,Noroeste,27.226111,-109.106667,Riego y Generación de Energia,Río Mayo,Mixto,1955,148,2.53,145.470001220703,1822.55004882812,136.3,1039.84,88.5,131.54,738.03,0.709753423603631
1557539,2016-01-01,ARLSO,"Abelardo Rodríguez Lujan, Son.",Hermosillo,Sonora,Hermosillo,Noroeste,29.076667,-110.92,Uso Público Urbano,Río Sonora,Contr,1948,231.6,3.20001,228.399993896484,284.470001220703,226.979995727539,219.5,36,217.82,12.495,0.0569248291571754
1557540,2016-01-01,BBAJL,"Basilio Vadillo, Jal.",Las Piedras,Jalisco,El Limón,Lerma-Santiago-Pacífico,19.913611,-104.061111,Riego,Río San Miguel,Libre,1973,982.8,2.7,978.97,146.888,974.34,124.689,96,974.38,145.872,1.169886678055
1557541,2016-01-01,BDDPB,"Manuel Ávila Camacho, Pue.",Valsequillo o Balcón del Diablo,Puebla,Tzicatlacoyan,Balsas,18.9125,-98.108611,Riego,Río Atoyac,Libre,1946,2064,2,2062,391.489,2059,300.097,85,2059.05,305.053,1.01651466025985
1557542,2016-01-01,BTEZC,"Ramón López Velarde, Zac.",Boca del Tesorero,Zacatecas,Jerez,Lerma-Santiago-Pacífico,22.824167,-102.953333,Riego,Río Boca del Tesorero,Libre,1975,2100.5,2.34009,2098.15991210938,36.7439994812012,2096,26.2199993133545,28.8,2095.98,26.134,0.99672008712408
1557543,2016-01-01,CBRDR,"Caboraca, Dgo.",Canoas,Durango,Canatlán,Pacífico Norte,24.538333,-104.810278,Riego,Río La Sauceda,Libre,1992,2003.75,2.46997,2001.28002929688,57.8800010681152,1998.25,45,37,1997.83,43.065,0.957
1557544,2016-01-01,CCHNL,"Cuchillo Solidaridad, N.L.",El Cuchillo,Nuevo León,China,Río Bravo,25.711667,-99.276944,Riego y Uso Público Urbano,Río San Juan,Contr,1994,169.2,3,166.660003662109,1784.2900390625,162.350006103516,1123.14294433594,44,161.82,1055.17,0.93947970320365
1557545,2016-01-01,CDOOX,"Miguel de la Madrid Hurtado, Oax.",Cerro de Oro,Oaxaca,San Lucas Ojitlán,Golfo Centro,17.999167,-96.263611,Generación de Energia,Río Papaloapan,Contr,1988,75.6,2.8,72.8000030517578,3550,64.8600006103516,2599.51000976562,70,63.13,2312.91,0.889748449250455
1557546,2016-01-01,CDRAG,"La Codorniz, Ags.",La Codorniz,Aguascalientes,Calvillo,Lerma-Santiago-Pacífico,21.9975,-102.676944,Riego,Río de La Labor,Libre,1966,1840,2.23999,1837.76000976562,6.52799987792969,1836,5.36600017547607,36,1835.84,5.272,0.982482263808772
1557547,2016-01-01,CHICP,"Manuel Moreno Torres, Chis.",Chicoasén,Chiapas,Chicoasén,Frontera Sur,16.941667,-93.100556,Generación de Energia,Río Grijalva,Contr,1980,405,7,395,1443.08996582031,392.5,1384.85998535156,265,391.74,1367.66,0.987579982428912
1557548,2016-01-01,CHIZC,"El Chique, Zac.",El Chique,Zacatecas,Tabasco,Lerma-Santiago-Pacífico,21.997222,-102.896111,Riego,Río Juchipila,Libre,1958,1588.48,2.00002,1586.47998046875,192.567001342773,1580.18005371094,138.908996582031,61,1580.08,138.13,0.994392036504481
1557549,2016-01-01,CHLJL,"Chila, Jal.",Chila,Jalisco,Zapotlán del Rey,Lerma-Santiago-Pacífico,20.489722,-102.944167,Riego,Arroyo Chila,Libre,1945,1525.88,1,99,1,98.7,0.762,10,98.53,0.728,0.955380577427821
1557550,2016-01-01,CHLMC,"Constitución de Apatzingán, Mich.",Chilatan,Jalisco,Apatzingán,Balsas,19.287778,-102.774167,Riego y Generación de Energia,Río Tepalcatepec,Libre,1990,440,2.32001,437.679992675781,807.150024414062,429.450012207031,590.025024414062,107,428.61,570.64,0.967145419919582
1557551,2016-01-01,CHTSO,"Cuauhtémoc, Son.",Santa Teresa,Sonora,Atil,Noroeste,30.873333,-111.516389, Riego,Atil,Libre,1950,603,2.75,600.25,66.3300018310547,597,41.4700012207031,57.2,592.37,18.335,0.442126825664201
1557552,2016-01-01,PALZC,"Palomas, Zac.",Palomas,Zacatecas,Villanueva,Lerma-Santiago-Pacífico,22.347778,-102.798056,Riego,Río Juchipila,Libre,1970,1908.34,0.86002,1907.47998046875,8.74899959564209,1904.25,4.61100006103516,28,1904.3,4.676,1.01409671179884
1557553,2016-01-01,PECAG,"Plutarco Elías Calles, Ags.",Calles,Aguascalientes,San José de Gracia,Lerma-Santiago-Pacífico,22.141111,-102.417222,Riego,Río Santiago,Libre,1931,2022.6,0.6,2022,407.438,2020,358.121,67,2014.27,230.949,0.644890972604232
1557554,2016-01-01,PECSO,"Plutarco Elías Calles, Son.",El Novillo,Sonora,Bacanora,Noroeste,28.976667,-109.642222,Riego y Generación de Energia,Río Yaqui,Contr,1964,297.8,1.00001,296.799987792969,3443.5,290.5,2833.07006835938,133.8,288.06,2596.56,0.916518101334381
1557555,2016-01-01,PENCP,"Ángel Albino Corzo, Chis.",Peñitas,Chiapas,Tecpatán,Frontera Sur,17.446111,-93.458611,Generación de Energia,Río Grijalva,Contr,1986,98,5,93,1448.43,87.4000015258789,1091.09997558594,53,85.7,998.93,0.915525636835945
1557556,2016-01-01,PERHD,"La Esperanza, Hgo.",La Esperanza,Hidalgo,Cuautepec de Hinojosa,Golfo Norte,20.0575,-98.334722,Riego,San Lorenzo,Libre,1943,2210.6,0.999902,2209.60009765625,4.19999980926514,2207.69995117188,3.92000007629395,27,2208.05,4.08,1.04081630627347
1557557,2016-01-01,PFBMX,"Francisco José Trinidad Fabela, Méx.",Isla de las Aves o El Salto,Estado de México,Atlacomulco,Lerma-Santiago-Pacífico,19.829167,-99.790278,Riego,Río Del Salto,Libre,1945,2697.5,1.69995,2697.80004882812,10,2696.69995117188,9.93000030517578,19.15,2695.32,7.209,0.725981850800395
1557558,2016-01-01,PIRMX,"Ignacio Ramírez, Méx.",La Gavia,Estado de México,Almoloya de Juárez,Lerma-Santiago-Pacífico,19.461667,-99.775,Riego,Río La Gavia,Libre,1965,2553.76,3.28002,2550.47998046875,36.2999992370605,2548.47998046875,20.5,23.5,2548.52,20.771,1.01321951219512
1557559,2016-01-01,PJMTP,"Pedro José Méndez, Tamps.",Pedro José Méndez,Tamaulipas,Hidalgo,Golfo Norte,24.2475,-99.555833,Riego,A. San Juan y Tranquitas,Libre,1982,453,3.60001,449.399993896484,38.3600006103516,447.220001220703,31.2600002288818,55,445.18,25.386,0.812092124572196
1557585,2016-01-01,CNTCL,"El Centenario, Coah.",El Centenario,Coahuila de Zaragoza,Jiménez,Río Bravo,29.213611,-100.95,Riego,Río San Diego,Libre,1935,338,1.62,336.380004882812,25.5200004577637,336.149993896484,24.5890007019043,17,333.78,14.931,0.607222724542997
1557586,2016-01-01,CNTQT,"El Centenario, Qro.",El Centenario,Querétaro,Querétaro,Golfo Norte,20.513333,-99.897778,Riego,San Juan,Mixto,1910,1898,0.51001,1881.98999023438,14.178,1881.57995605469,9.882,13,1881.12,7.618,0.770896579639749
1557587,2016-01-01,COIMC,"Coíntzio, Mich.",Cointzio,Michoacán de Ocampo,Contepec,Lerma-Santiago-Pacífico,19.629722,-101.259167,Riego y Uso Público Urbano,Río Grande de Morelia,Contr,1939,1997,1.50005,2001.31994628906,79.2330017089844,1999.46997070312,68.5199966430664,46,1998.43,62.98,0.919147739134821
1557588,2016-01-01,CPAMC,"Copándaro, Mich.",Copándaro De Corrales,Michoacán de Ocampo,Copándaro,Lerma-Santiago-Pacífico,20.001667,-102.861389,Riego,Canal la Estancia,Libre,1927,1999,9.79,1989.21,9.717,1998.5,6.5,9.2,1998.31,6.189,0.952153846153846
1557589,2016-01-01,CPEJL,"Cajón de Peña, Jal.",Tomatlán o El Tule,Jalisco,Tomatlán,Lerma-Santiago-Pacífico,19.9975,-105.129722,Riego,Río Tomatlán,Contr,1976,142,2.8,139.199996948242,707.690002441406,130.37,466.69,68,131.24,489.111,1.04804259787011
1557590,2016-01-01,CPRNL,"José López Portillo, N.L.",Cerro Prieto,Nuevo León,Linares,Río Bravo,24.9375,-99.399722,Uso Público Urbano,Río Pablillo,Contr,1984,288,2.5,285.5,393,282.519989013672,300,50,281.68,277.368,0.92456
1557591,2016-01-01,CRRBN,"El Carrizo, B.C.",El Carrizo,Baja California,Tecate,Península de Baja California,32.479444,-116.696944,Uso Público Urbano,Arroyo El Carrizo,Libre,1978,288.34,2.12,286.220001220703,44.5849990844727,284.700012207031,40.8660011291504,55.8,275.7,22.282,0.545245421238583
1557592,2016-01-01,PNDMX,"Ñadó, Méx.",Ñado,Estado de México,Aculco,Aguas del Valle de México,20.038611,-99.864444, Riego,Ñadó,Libre,1980,2477.5,2,2475.5,18.5,2474,16.7999992370605,52.5,2472.48,14.92,0.888095278426365
1557593,2016-01-01,PNLGJ,"Peñuelitas, Gto.",Peñuelitas,Guanajuato,Dolores Hidalgo Cuna de la Independencia Nacional,Lerma-Santiago-Pacífico,21.105,-100.878333,Riego,Río de la Erre,Libre,1960,1908.2,0.91,1907.29,30.169,1904.7,17.46,28,1903.95,20.905,1.19730813287514
1557594,2016-01-01,POLJL,"Ing. Guillermo Lugo Sanabria, Jal.",La Pólvora,Jalisco,Degollado,Lerma-Santiago-Pacífico,20.491111,-102.231944,Riego,Río Huáscato,Libre,1989,1669.1,4.1,1665,55,1663.46,51.675,59.1,1662.74,49.902,0.965689404934688
1557595,2016-01-01,PRGHD,"Javier Rojo Gómez, Hgo.",La Peña,Hidalgo,Alfajayucan,Aguas del Valle de México,20.359722,-99.329444,Riego,Río Alfajayucan,Contr,1979,1980.96,1.3,1975.7,52.8,1974,46,60,1973.83,45.422,0.987434782608696
1557596,2016-01-01,PRQHD,"Requena, Hgo.",Requena,Hidalgo,Tepeji del Río de Ocampo,Aguas del Valle de México,19.963056,-99.310833,Riego,Río Tepeji,Mixto,1922,2116.59,1.5,2110.5,60.5299987792969,2108.9599609375,52.423999786377,38,2107.81,44.584,0.850450178957648
1557597,2016-01-01,PRSGJ,"La Purísima, Gto.",La Purísima,Guanajuato,Guanajuato,Lerma-Santiago-Pacífico,20.867222,-101.287778,Riego,Río Guanajuato,Contr,1979,1863,2.20996,1860.7900390625,181.926,1852.06994628906,98.23,52,1850.6,98.107,0.998747836709763
1557598,2016-01-01,PSANL,"Salinillas, N.L.",Salinillas,Nuevo León,Anáhuac,Río Bravo,27.429167,-100.372222,Riego,Río Salado,Libre,1930,0,0,232,19.0109996795654,232,19.0109996795654,10,230.73,13.225,0.695649898632911
1557599,2016-01-01,PTRAG,"Derivadora Pabellón, Ags.",Der. Potrerillos,Aguascalientes,San José de Gracia,Lerma-Santiago-Pacífico,22.235,-102.4375,Riego,Río San Pedro,Libre,1931,2099.86,0,2093,2.09999990463257,2092.60009765625,2.03800010681152,33.94,2086.45,1.224,0.600588781084493
1557600,2016-01-01,PUCMC,"Pucuato, Mich.",Pucuato,Michoacán de Ocampo,Hidalgo,Balsas,19.621389,-100.684167,Riego,Río Pucuato,Libre,1946,2501.25,1.25,2500,11.534,2499,9.485,15,2480.5,9.583,1.01033210332103
1557601,2016-01-01,PVAHD,"Vicente Aguirre, Hgo.",Las Golondrinas,Hidalgo,Alfajayucan,Aguas del Valle de México,20.435556,-99.375833,Riego,Río Alfajayucan,Libre,1954,1865.9,7.4,1858.5,21.7999992370605,1858.15002441406,20.7999992370605,27,1855.72,13.428,0.645576946756544
1557602,2016-01-01,REDJL,"La Red, Jal.",La Red,Jalisco,Tepatitlán de Morelos,Lerma-Santiago-Pacífico,20.718889,-102.815278,Riego,Río Calderón,Libre,1968,1796.5,1.80005,1794.69995117188,18.2999992370605,1792.5,14.25,24,1789.62,9.161,0.642877192982456
1557603,2016-01-01,RMEGR,"Revolución Mexicana, Gro.",El Guineo,Guerrero,Ayutla de los Libres,Pacífico Sur,16.823611,-99.166111,Riego,Río Nexpa,Libre,1984,110.7,3.11,107.589996337891,260,94.4000015258789,126.694000244141,70.7,93.74,121.579,0.959627131243121
1557604,2016-01-01,RODMR,"El Rodeo, Mor.",El Rodeo,Morelos,Miacatlán,Balsas,18.765278,-99.331389,Riego,Río Tembembe,Libre,1974,1166.5,2.30005,1166.5,33.1370010375977,1164.19995117188,26.9839992523193,8,1157.41,11.988,0.444263279431036
1557605,2016-01-01,RSPTP,"República Española, Tamps.",Real Viejo o El Sombrero,Tamaulipas,Aldama,Golfo Norte,23.259444,-97.991944,Riego,San Rafael,Libre,1974,92,2.57,89.4300003051758,105.98999786377,83,54.7799987792969,30,82.27,48.033,0.876834630711113
1557606,2016-01-01,SA1JL,"La Sauceda, Jal.",Garabatillos,Jalisco,Lagos de Moreno,Lerma-Santiago-Pacífico,21.359167,-101.835556,Riego,Río La Sauceda o Bernalejo,Libre,1982,1923,1.96997,1921.03002929688,21.5,1918.90002441406,16,33,1918.43,15.06,0.94125
1557607,2016-01-01,SABMC,"Sabaneta, Mich.",Sabaneta,Michoacán de Ocampo,Hidalgo,Balsas,19.622778,-100.669444,Riego,Arroyo Sabaneta,Libre,1948,2494.9,2.05,2508.95,5.875,2508,5.043,17,2491.6,5.189,1.02895102121753
1557608,2016-01-01,SBBMX,"José Antonio Alzate, Méx.",San Bernabé,Estado de México,Temoaya,Lerma-Santiago-Pacífico,19.465833,-99.704722,Riego,Río Lerma,Libre,1962,2567,1.58008,2566.919921875,52.5089988708496,2565.5,35.3120002746582,24,2560,4.811,0.136242636004187
1557609,2016-01-01,SBYDR,"Santiago Bayacora, Dgo.",Santiago Bayacora,Durango,Durango,Pacífico Norte,23.874444,-104.675833,Riego,Río Santiago Bayacora,Libre,1990,1962,0.810059,1965.93994140625,169.869003295898,1959.01000976562,130.046997070312,66.75,1958.96,129.791,0.998031503409694
1557610,2016-01-01,SELDR,"Santa Elena, Dgo.",Tanque Santa Elena,Durango,Súchil,Pacífico Norte,24.608333,-103.079722,Riego,Río Graceros,Libre,1977,2002.75,1.14001,2001.60998535156,18.7999992370605,1999.80004882812,15.08,30.75,1999.44,14.4,0.954907161803714
1557639,2016-01-01,ZMPHD,"Ing. Fernando Hiriart Balderrama, Hgo.",Zimapán,Hidalgo,Zimapán,Golfo Norte,20.663333,-99.501111,Generación de Energia,Moctezuma,Contr,1990,1565,2,1563,1460.10998535156,1560,1390.10998535156,203,1556.01,1296.63,0.932753532931482
1557640,2016-01-01,LDTGR,"Laguna de Tuxpan, Gro.",Laguna de Tuxpan,Guerrero,Iguala de la Independencia,Balsas,18.363333,-99.503056,Riego,Río Tuxpan,Libre,1937,744.75,0,743.349975585938,19.5030002593994,742.840026855469,17.6469993591309,,742.05,14.771,0.837026153817886
1557641,2016-01-01,LDYGJ,"Laguna de Yuriria, Gto.",B. de Tavamatacheo,Guanajuato,Yuriria,Lerma-Santiago-Pacífico,20.286944,-101.073056,Riego,Río Lerma,Contr,1550,0,0,1731.40002441406,325.195007324219,1730.92,278.789,10,1729.98,192.994,0.692258302874217
1557642,2016-01-01,LFGCL,"La Fragua, Coah.",La Fragua,Coahuila de Zaragoza,Jiménez,Río Bravo,28.82,-100.832222,Riego,San Rodrigo,Libre,1993,306.68,2.00001,304.679992675781,85.379997253418,300.299987792969,47.2949981689453,24.7,299.14,38.348,0.810825700066946
1557643,2016-01-01,LJSCH,"Las Lajas, Chih.",Las Lajas,Chihuahua,Buenaventura,Río Bravo,29.88,-107.025833,Riego,Río Del Carmen,Libre,1964,1563.8,2.18,1561.61999511719,106.546997070312,1558.69995117188,83.265998840332,47,1553.99,52.464,0.630077111073911
1557644,2016-01-01,LLAHD,"La Laguna, Hgo.",Tejocotal,Hidalgo,Acaxochitlán,Golfo Centro,20.135556,-98.128333,Generación de Energia,Ríos Necaxa y Coacuila,Libre,1903,2185,1,2184,45,2183,43.5299987792969,19,2179.18,20.416,0.46900989139724
1557645,2016-01-01,LLAQT,"La Llave, Qro.",Divino Redentor,Querétaro,San Juan del Río,Golfo Norte,20.461944,-99.994722,Riego,A. El Caracol,Libre,1885,0,0.0500244,1891.09997558594,14.4139995574951,1890,9.3120002746582,3.4,1888.79,3.96,0.425257719415752
1557646,2016-01-01,LLNCH,"Ing. Luis L. León, Chih.",El Granero,Chihuahua,Guadalupe,Río Bravo,28.984444,-105.28,Riego,Río Conchos,Contr,1968,1053,2.5,1050.5,832.409,1034.80004882812,292.464996337891,62,1031.63,225.78,0.771989820413079
1557647,2016-01-01,LNRDR,"Los Naranjos, Dgo.",Naranjos,Durango,General Simón Bolívar,Cuencas Centrales del Norte,24.613056,-103.306944,Riego,Santa Clara,Libre,1985,1663,1.91003,1661.08996582031,27.3899993896484,1658.40002441406,20.928,48,1657.62,19.273,0.920919342507645
1557648,2016-01-01,LOBZC,"Manuel Felgueres, Zac.",Lobatos,Zacatecas,Valparaíso,Lerma-Santiago-Pacífico,22.845278,-103.382778,Riego,Río Pajaritos,Libre,1980,2082.3,2.12007,2080.17993164062,9.4350004196167,2077.05004882812,6.90500020980835,35,2076.93,6.821,0.987834872229398
1557649,2016-01-01,CRTJL,"El Cuarenta, Jal.",El Cuarenta,Jalisco,Lagos de Moreno,Lerma-Santiago-Pacífico,21.497778,-101.7375,Riego,Río de Lagos,Libre,1949,2004,2.05005,2001.94995117188,38.9599990844727,1998.75,30.625,42,1998.21,29.167,0.952391836734694
1557650,2016-01-01,CUQJL,"Cuquío, Jal.",Los Gigantes,Jalisco,Cuquío,Lerma-Santiago-Pacífico,20.948056,-103.039444,Riego,Arroyo Achichilco,Libre,1967,1808.5,1.92004,1806.57995605469,8.85000038146973,1805.5,7.5,24,1805.33,7.305,0.974
1557651,2016-01-01,DBOMC,"El Bosque, Mich.",El Bosque,Michoacán de Ocampo,Zitácuaro,Balsas,19.387778,-100.421111,Riego y Uso Público Urbano,Río Zitácuaro,Libre,1954,1745,2,1743,250.5,1741.40002441406,202.399993896484,70,1739.97,187.276,0.925276707744273
1557459,2016-01-01,EBLSI,"Lic. Eustaquio Buelna, Sin.",Guamuchil,Sinaloa,Salvador Alvarado,Pacífico Norte,25.484722,-108.065556,Riego y Uso Público Urbano,Río Mocorito,Contr,1972,71.2,2.35,68.8499984741211,264.950012207031,63.54,80.08,29,62.95,67.489,0.84276973026973
1557460,2016-01-01,ECAGR,"Ing. Carlos Ramírez Ulloa, Gro.",El Caracol,Guerrero,Apaxtla,Balsas,17.947778,-99.995556,Generación de Energia,Río Balsas,Contr,1986,526,2.4,523.6,1202.398,521,1084.85,126,520.7,1444.93,1.33191685486473
1557461,2016-01-01,EGCJL,"Ing. Elías González Chávez, Jal.",Puente Calderón,Jalisco,Zapotlanejo,Lerma-Santiago-Pacífico,20.681389,-102.976111,Uso Público Urbano,Río Calderón,Libre,1991,1622,2,1620,100,1618,80,36,1616.19,63.879,0.7984875
1557462,2016-01-01,EGLGR,"El Gallo, Gro.",El Gallo,Guerrero,Cutzamala de Pinzón,Balsas,18.703056,-100.671111,Riego,Río Cutzamala,Libre,1998,370.5,2.5,368,545.966003417969,362.779998779297,400.039001464844,67.5,362.16,384.806,0.961921209159446
1557463,2016-01-01,ELCZC,"El Cazadero, Zac.",El Cazadero,Zacatecas,Sain Alto,Cuencas Centrales del Norte,23.693333,-103.098333,Riego,Aguanaval,Libre,1964,1920.12,1.50006,1919.93994140625,44.6800003051758,1916,22.17799949646,27.12,1915.85,21.532,0.970872057393496
1557464,2016-01-01,ELOSL,"Cañada del Lobo, S.L.P.",,San Luis Potosí,San Luis Potosí,Cuencas Centrales del Norte,22.094722,-100.9675,Riego,Españita,Libre,1987,1963.7,1.54998,1962.15002441406,1.83399999141693,1958.80004882812,1.00999999046326,28,1955.88,0.5,0.495049509624911
1557465,2016-01-01,ELPSL,"Gonzalo N. Santos, S.L.P.",El Peaje,San Luis Potosí,San Luis Potosí,Cuencas Centrales del Norte,22.092222,-101.098611,Uso Público Urbano,Arroyo Grande o Azul,Libre,1953,2049.6,1.73,2047.87,8.995,2044.84997558594,6.685,38,2036.98,2.479,0.370830216903515
1557466,2016-01-01,ELZBN,"Emilio López Zamora, B.C.",Ensenada,Baja California,Ensenada,Península de Baja California,31.890278,-116.6025,Uso Público Urbano,Arroyo Ensenada,Libre,1978,27,1.74,25.2600002288818,6.34200000762939,19.8899993896484,2.73200011253357,34,8.72,0.092,0.0336749620096765
1557467,2016-01-01,ENDHD,"Endhó, Hgo.",Endó,Hidalgo,Tepetitlán,Aguas del Valle de México,20.163889,-99.36,Riego,Río tula,Libre,1951,2023,3,2020,208,2018,182.899993896484,60,2018.09,184.037,1.00621654533329
1557468,2016-01-01,EPLGJ,"El Palote, Gto.",El Palote,Guanajuato,León,Lerma-Santiago-Pacífico,21.173333,-101.688056,Uso Público Urbano,Río de Los Gómez,Libre,1954,1839.5,0.9,1838.6,17.161,1836.15,9.643,20.5,1835,6.95,0.720730063258322
1557469,2016-01-01,EPOSL,"El Potosino, S.L.P.",El Potosino,San Luis Potosí,San Luis Potosí,Cuencas Centrales del Norte,22.099722,-101.078056,Uso Público Urbano,Río Santiago,Libre,1990,2000.85,0.150024,2000.84997558594,5.19899988174438,1996.80004882812,3.29299998283386,26,1996.18,3.046,0.924992412960385
1557470,2016-01-01,ERCTP,"Estudiante Ramiro Caballero Dorantes, Tamps.",Las Ánimas,Tamaulipas,El Mante,Golfo Norte,22.605,-98.691667, Riego,Arrollo Las Ánimas,Libre,1976,55,2.45,52.5499992370605,654.37,51.7000007629395,563.443,31.2,50.91,494.58,0.877781780943236
1557471,2016-01-01,TIESL,"La Muñeca, S.L.P.",La Muñeca,San Luis Potosí,Tierra Nueva,Golfo Norte,21.629444,-100.548333,Riego,Santa María,Libre,1981,1843.75,2,1841.75,31,1837.69995117188,25,40.5,1833.7,15.768,0.63072
1557472,2016-01-01,TMLJL,"Ramón Corona Madrigal General, Jal.",Trigomil,Jalisco,Ayutla,Lerma-Santiago-Pacífico,19.976111,-104.370278,Riego,Río Ayuquila,Libre,1993,1209.34,2.94001,1209.35998535156,324,1201.40002441406,250,107,1201.4,250.07,1.00028
1557473,2016-01-01,TMUMC,"Tercer Mundo, Mich.",Chincua,Michoacán de Ocampo,Senguio,Lerma-Santiago-Pacífico,19.766389,-100.299167,Riego,Río chincua,Libre,1972,2431.2,2.41992,2428.580078125,17.3320007324219,2427.580078125,14.9720001220703,30,2426.88,13.376,0.893401007944313
1557474,2016-01-01,TNTCH,"El Tintero, Chih.",El Tintero,Chihuahua,Namiquipa,Río Bravo,29.5625,-107.384167,Riego,Río Santa María,Libre,1950,1712,2.96997,1709.03002929688,216.703002929688,1703,125.074996948242,56,1699.49,85.802,0.686004414099695
1557475,2016-01-01,TPTMX,"San Andrés Tepetitlán, Méx.",Tepetitlán,Estado de México,San Felipe del Progreso,Lerma-Santiago-Pacífico,19.660833,-99.961389,Riego,Río Jaltepec,Libre,1964,2597.38,2.92004,2594.4599609375,81.0289993286133,2592.02001953125,59.9659996032715,35,2592.04,67.783,1.13035720989302
1557476,2016-01-01,TRJCM,"Solidaridad, Col.",Trojes,Jalisco,Armería,Lerma-Santiago-Pacífico,18.967222,-103.396667,Riego y Generación de Energia,Río Barreras,Libre,1994,303.6,2.49001,301.109985351562,294.079986572266,292.369995117188,220.807006835938,87,292.26,219.955,0.996141395836363
1557477,2016-01-01,TULJL,"El Tule, Jal.",El Tule,Jalisco,Arandas,Lerma-Santiago-Pacífico,20.7425,-102.433056,Riego,Río Zula,Libre,1990,1861.08,2.23002,1858.84997558594,42,1856.55004882812,30,15.5,1852.27,10.899,0.3633
1557478,2016-01-01,TXMHD,"Taxhimay, Hgo.",Taxhimay,Estado de México,Tepeji del Río de Ocampo,Aguas del Valle de México,19.835278,-99.385,Riego y Uso Público Urbano,Río San Luis de las Peras,Libre,1912,2217.05,7.05,2210,53.3,2208,42.749,39,2207.87,42.241,0.988116681091955
1557479,2016-01-01,UREMC,"Urepetiro, Mich.",Urepetiro,Michoacán de Ocampo,Tlazazalca,Lerma-Santiago-Pacífico,19.962222,-102.137778,Riego,Río tlazazalca,Libre,1964,1752.5,1.5,1745.68005371094,10.9200000762939,1745,8.2819995880127,31,1744.17,6.419,0.775054373256769
1557480,2016-01-01,VBRMX,"Valle de Bravo, Méx.",Valle de Bravo,Estado de México,Valle de Bravo,Balsas,19.2075,-100.18,Generación de Energia y Uso Público Urbano,Río Valle de Bravo,Libre,1947,1835.37,2.5,1785.60998535156,450.75,1782.60998535156,393.440002441406,48,1829.62,386.379,0.98205316592723
1557481,2016-01-01,VCRCL,"Venustiano Carranza, Coah.",Don Martín,Coahuila de Zaragoza,Juárez,Río Bravo,27.515,-100.616111,Riego,Río Salado,Contr,1932,265.8,4.00001,261.799987792969,1322.36999511719,259.24,874.1,35,257.95,685.539,0.784279830682988
1557482,2016-01-01,VCVJL,"Vicente C. Villaseñor, Jal.",Valle de Juárez,Jalisco,Valle de Juárez,Lerma-Santiago-Pacífico,19.939722,-102.941667,Riego,Río Quitupán,Libre,1950,1880,2,1878,18.1200008392334,1877,14.4399995803833,18,1877,14.442,1.00013853321848
1557611,2016-01-01,SGBDR,"San Gabriel, Dgo.",Federalismo Mexicano,Durango,Ocampo,Río Bravo,26.436667,-105.560833,Riego,Río Florido,Libre,1991,1785.6,2.20999,1783.39001464844,377.338012695312,1777.90002441406,245.430999755859,48,1773.22,159.777,0.651005782313306
