idmonitoreodiario,fechamonitoreo,clavesih,nombreoficial,nombrecomun,estado,nommunicipio,regioncna,latitud,longitud,uso,corriente,tipovertedor,inicioop,elevcorona,bordolibre,nameelev,namealmac,namoelev,namoalmac,alturacortina,elevacionactual,almacenaactual,llenano
1967779,2021-08-15,NEXPB,"Nexapa, Pue.","Nexapa, Pue.",Puebla,Tlaola,Golfo Centro,20.168333,-97.984722,GH,R. Nexapa,Libre,1912,1364,1,1362.35,15.313,1360,12.5,44,1360.18,12.749,1.01992
1967766,2021-08-15,VHGDR,"Villa Hidalgo, Dgo.","Villa Hidalgo, Dgo.",Durango,Hidalgo,Cuencas Centrales del Norte,26.2425,-104.928889,RI,A. Cerro Gordo,Libre,1977,1731.28,1.73,1729.55,39.555,1726.23,23.08,34.2,1724.63,17.204,0.745407279029463
1967767,2021-08-15,SNJSL,"San José, S.L.P.","San José, S.L.P.",San Luis Potosí,San Luis Potosí,Cuencas Centrales del Norte,22.150278,-101.054444,AP,R. Santiago,Libre,1903,1955.5,0.359985,1933.7,5.656,1933.3,5.223,32,1933.59,5.463,1.04595060310167
1967768,2021-08-15,ELPSL,"Gonzalo N. Santos, S.L.P.","El Peaje, S.L.P.",San Luis Potosí,San Luis Potosí,Cuencas Centrales del Norte,22.092222,-101.098611,AP,A. Grande o Azul,Libre,1953,2049.6,1.73,2047.87,9.054,2044.849976,6.685,39,2030.01,0.472,0.0706058339566193
1967769,2021-08-15,EPOSL,"El Potosino, S.L.P.","El Potosino, S.L.P.",San Luis Potosí,San Luis Potosí,Cuencas Centrales del Norte,22.099722,-101.078056,RI,A. El Potosino,Libre,1990,2000.85,0.150024,2000.84997558594,5.19899988174438,1996.80004882812,3.29299998283386,30.85,1996.15,3.034,0.921348319409654
1967770,2021-08-15,ELOSL,"Cañada del Lobo, S.L.P.","Cañada del Lobo, S.L.P.",San Luis Potosí,San Luis Potosí,Cuencas Centrales del Norte,22.094722,-100.9675,CA,R. Españita,Libre,1987,1963.7,1.54998,1962.1,2.161,1958.8,1.244,28,1955.43,0.574,0.461414790996785
1967771,2021-08-15,IVGSL,"Valentín Gama, S.L.P.","Ojo Caliente, S.L.P.",San Luis Potosí,Villa de Reyes,Cuencas Centrales del Norte,21.88,-100.820556,RI,R. Santa María,Libre,1970,1789.55,1.45002,1788.09997558594,22.3999996185303,1783.80004882812,9.51000022888184,24,1783.79,9.486,0.997476316687254
1967772,2021-08-15,ANGCP,"Doctor Belisario Domínguez, Chis.","La Angostura, Chis.",Chiapas,Acala,Frontera Sur,16.401389000000002,-92.778889,GH,R. Grijalva,Contr,1976,543,3.5,539.5,19736.4,533,13169.63,147,521.57,7130.89,0.541464718446912
1967773,2021-08-15,CHICP,"Manuel Moreno Torres, Chis.","Chicoasén, Chis.",Chiapas,Osumacinta,Frontera Sur,16.941667,-93.100556,GH,R. Grijalva,Contr,1980,405,7,395,1318.6,392.5,205.98,261,390.75,170.968,0.830022332265268
1967774,2021-08-15,MALCP,"Nezahualcóyotl, Chis.","Malpaso, Chis.",Chiapas,Mezcalapa,Frontera Sur,17.178611,-93.598889,GH,R. Grijalva o Mezcalapa,Contr,1964,192,4,188,14056.32,182.5,9317.39,138,165.79,4712.19,0.505741414709484
1967775,2021-08-15,JSBCP,"Juan Sabines, Chis.","El Portillo II o Cuxtepeques, Chis.",Chiapas,La Concordia,Frontera Sur,15.996389,-92.898611,RI,R. Cuxtepeques,Libre,1981,620.25,1.97998,618.27001953125,116.110000610352,612.119995117188,68.1500015258789,46,612.69,71.855,1.05436534689899
1967776,2021-08-15,PENCP,"Ángel Albino Corzo, Chis.","Peñitas, Chis.",Chiapas,Ostuacán,Frontera Sur,17.446111,-93.458611,GH,R. Grijalva,Contr,1986,98,5,95.5,578.63,87.4,215.041,58,85.63,174.109,0.809654903018494
1967777,2021-08-15,NNEPB,"Necaxa, Pue.","Necaxa, Pue.",Puebla,Juan Galindo,Golfo Centro,20.216667,-98.000556,GH,R. Necaxa,Libre,1908,1344,1,1343,39.283,1338,29.055,59,1327.82,12.154,0.418310101531578
1967778,2021-08-15,TENPB,"Tenango, Pue.","Tenango, Pue.",Puebla,Huauchinango,Golfo Centro,20.199444,-97.983333,GH,R. Coacuila,Libre,1912,1353,2,1351.4,46.576,1345.6,28.479,39,1334.34,6.336,0.222479721900348
1967780,2021-08-15,LLAHD,"La Laguna, Hgo.","Tejocotal, Pue.",Hidalgo,Acaxochitlán,Golfo Centro,20.135556,-98.128333,RI,A. Huitzilin,Libre,1903,2185,1,2184.5,49.227,2183,40.638,19,2176.36,9.126,0.224568138195777
1967781,2021-08-15,LREHD,"Los Reyes, Hgo.","Omiltepec, Pue.",Hidalgo,Acaxochitlán,Golfo Centro,20.174722,-98.131944,RI,R. Omiltepec,Libre,1913,2168.5,1.5,2167,29.263,2165,24.031,30,2156.42,6.144,0.255669759893471
1967782,2021-08-15,SOLPB,"La Soledad, Pue.","La Soledad, Pue.",Puebla,Tlatlauquitepec,Golfo Centro,19.960833,-97.446667,GH,R. Apulco y Xiucayucan,Contr,1962,806.5,1.5,805,14.98,804.5,13.9,91.5,800.5,7.01,0.50431654676259
1967783,2021-08-15,PEMVC,"El Moralillo, Ver.",Piedra Labrada,Veracruz de Ignacio de la Llav,Tepetzintla,Golfo Centro,21.184444,-97.814444,AP,Río Buenavista,Libre,,116,0,115.94,8.126,110.78,2.5,15.5,110.84,2.54,1.016
1967726,2021-08-15,GDLMX,"Sierra de Guadalupe, Méx.","Guadalupe,Méx.",Estado de México,Cuautitlán Izcalli,Aguas del Valle de México,19.635556,-99.252222,RI,R. Cuautitlán,Libre,1936,2308.75,1.92993,2306.820068,64.08,2305.199951,56.91,33,2301.71,43.13,0.757863292918644
1967727,2021-08-15,CNPMX,"La Concepción, Méx.","La Concepción, Méx.",Estado de México,Tepotzotlán,Aguas del Valle de México,19.695,-99.304444,RI,R. Tepotzotlán,Libre,1949,2355.64,3.09996,2352.540039,12.599,2352.100098,12.111,39,2349.41,9.507,0.784988853108744
1967728,2021-08-15,PMDMX,"Madín, Méx.","Madín, Méx.",Estado de México,Naucalpan de Juárez,Aguas del Valle de México,19.526944,-99.260833,AP,R. Tlanepantla,Contr,1959,2348.5,2.46,2346.04,17.964,2332.5,7.13,75,2332.74,7.251,1.01697054698457
1967729,2021-08-15,PRGHD,"Javier Rojo Gómez, Hgo.","La Peña, Hgo.",Hidalgo,Alfajayucan,Aguas del Valle de México,20.359722,-99.329444,RI,R. Alfajayucan,Contr,1979,1980.96,1.3,1977.839,43.317,1976.84,39.99,60,1975.09,34.84,0.871217804451113
1967730,2021-08-15,TXMHD,"Taxhimay, Méx.","Taxhimay, Méx.",Estado de México,Villa del Carbón,Aguas del Valle de México,19.834722,-99.385278,RI,R. San Luis de las P,Libre,1912,2217.05,7.05,2216.1,47.386,2214.1,39.914,43,2212.74,34.802,0.871924637971639
1967731,2021-08-15,PRQHD,"Requena, Hgo.","Requena, Hgo.",Hidalgo,Tula de Allende,Aguas del Valle de México,19.963056,-99.310833,RI,R. Tula,Mixto,,2116.59,1.5,2110.3,61.519,2107.5,40.98,38,2106.26,33.036,0.806149341142021
1967732,2021-08-15,ENDHD,"Endhó, Hgo.","Endhó, Hgo.",Hidalgo,Tepetitlán,Aguas del Valle de México,20.163889,-99.36,RI,R. Tula,Libre,1951,2023,3,2020,208.65,2018,182.9,60,2017.68,179.064,0.979026790595954
1967733,2021-08-15,PVAHD,"Vicente Aguirre, Hgo.","Las Golondrinas, Hgo.",Hidalgo,Alfajayucan,Aguas del Valle de México,20.435556,-99.375833,RI,R. Alfajayucan,Libre,1954,1865.9,7.4,1855.5,19.685,1854.9,17.799,27,1849.63,5.603,0.31479296589696
1967734,2021-08-15,SJATL,"San José Atlanga, Tlax.","Atlanga,Tlax.",Tlaxcala,Atlangatepec,Balsas,19.556111,-98.200556,RI,R. Zahuapán,Libre,1959,2500,2.32988,2486.8701171875,47.97,2486.39990234375,42.63,24.2,2484.48,24.42,0.57283603096411
1967735,2021-08-15,BDDPB,"Manuel Ávila Camacho, Pue.","Valsequillo o Balcón del Diablo, Pue.",Puebla,Puebla,Balsas,18.9125,-98.108611,RI,R. Atoyac,Libre,1946,2064,2,2062,391.489,2059.02,300.654,85,2053.68,175.604,0.584073386683696
1967736,2021-08-15,YOSOX,"Yosocuta, Oax.",San Marcos Arteaga,Oaxaca,San Marcos Arteaga,Balsas,17.724444,-97.826111,RI/AP,Río Huajuapan,Libre,,1513.7,0,1512.55,57.26,1509.7,47.226,53.7,1509.73,47.314,1.00186338034134
1967737,2021-08-15,PUCMC,"Pucuato, Mich.","Pucuato, Mich.",Michoacán de Ocampo,Hidalgo,Balsas,19.621389,-100.684167,RI,A. Los Charcos,Libre,1946,2501.25,1.25,2500,11.534,2499,9.485,15,2496.15,4.676,0.492988929889299
1967738,2021-08-15,SABMC,"Sabaneta, Mich.","Sabaneta, Mich.",Michoacán de Ocampo,Hidalgo,Balsas,19.622778,-100.669444,RI,A. Los Charcos,Libre,1948,2494.9,2.05,2508.95,5.875,2508,5.043,17,2505.66,3.224,0.639302002776125
1967739,2021-08-15,AGOMC,"Agostitlán, Mich.","Mata de Pinos, Mich.",Michoacán de Ocampo,Hidalgo,Balsas,19.579722,-100.608889,RI,A. El Chaparro,Libre,1955,2379,1.16,2377.84,18.754,2376.6,15.675,25,2375.1,12.352,0.788006379585327
1967793,2021-08-15,ZMPHD,"Ing. Fernando Hiriart Balderrama, Hgo.","Zimapán, Hgo.",Hidalgo,Zimapán,Golfo Norte,20.663333,-99.501111,GH,R. Moctezuma,Contr,1990,1565,2,1563,1460,1560,1390,203,1547.47,1171.04,0.842474820143885
1967794,2021-08-15,CHYVC,"Paso de Piedras, Ver.","Chicayán, Ver.",Veracruz de Ignacio de la Llav,Pánuco,Golfo Norte,21.7375,-98.155833,RI,R. Chicayán,Contr,1979,32.25,3.97,28.28,572.32,22.18,180,34,20.17,106.131,0.589616666666667
1967795,2021-08-15,ERCTP,"Estudiante Ramiro Caballero Dorantes, Tamps.","Las Ánimas, Tamps.",Tamaulipas,González,Golfo Norte,22.605,-98.691667,AP/RI,A. Las Ánimas,Libre,1976,55,2.45,52.55,654.37,51.7,563.443,31.2,47.77,248.58,0.441180385593574
1967796,2021-08-15,SLZTP,"Lic. Emilio Portes Gil, Tamps.","San Lorenzo, Tamps.",Tamaulipas,Xicoténcatl,Golfo Norte,22.943889,-98.791389,AP/RI,A. El Sargento,Libre,1983,125,1.1,123.9000015,255.65,122.9499969,230.78,50.4,114.15,90.577,0.39248201750585
1967797,2021-08-15,IDFQT,"San Ildefonso, Qro.","El Tepozán, Qro.",Querétaro,Amealco de Bonfil,Golfo Norte,20.198611,-99.9625,RI,R. San Juan,Libre,1942,2261.93,1.87,2242.5,58.026,2239,47.812,62.7,2222.69,12.981,0.271500878440559
1967798,2021-08-15,CNSQT,"Constitución de 1917, Qro.","Hidalgo, Qro.",Querétaro,San Juan del Río,Golfo Norte,20.418611,-100.080278,RI,Dren Caracol,Contr,1969,1937,1.55005,1928.39,76.461,1927.06,66.08,35,1917.99,14.77,0.223516949152542
1967799,2021-08-15,VNTQT,"La Venta, Qro.","La Venta, Qro.",Querétaro,Pedro Escobedo,Golfo Norte,20.498611,-100.190556,RI,Dren Culebra,Libre,1907,1896,0.619946,1907.68005371094,3.77699995040894,1906.68005371094,2.47900009155273,4.3,1904.91,0.517,0.208551827715413
1967800,2021-08-15,LLAQT,"La Llave, Qro.","Divino Redentor, Qro.",Querétaro,San Juan del Río,Golfo Norte,20.461944,-99.994722,RI,Dren Culebra,Libre,1885,0,0.0500244,1891.09997558594,14.4139995574951,1890,9.3120002746582,5,1887.5,0,0
1967801,2021-08-15,CNTQT,"El Centenario, Qro.","El Centenario, Qro.",Querétaro,Tequisquiapan,Golfo Norte,20.513333,-99.897778,RI,R. San Juan,Mixto,1910,1898,0.51001,1882.5,14.178,1881.55,9.781,13,1880.01,4.892,0.500153358552295
1967802,2021-08-15,PNDMX,"Ñadó, Méx.","Ñadó, Méx.",Estado de México,Aculco,Aguas del Valle de México,20.038611,-99.864444,RI,R. Ñadó,Libre,1980,2477.5,2,2475.5,18.5,2474,16.7999992370605,52.5,2468.6,10.65,0.633928600217211
1967803,2021-08-15,HPNMX,"Huapango, Méx.","Huapango, Méx.",Estado de México,Timilpan,Aguas del Valle de México,20.046389,-99.696944,RI,R. Huapango,Libre,1765,2513,0.199951,2512.8,126.5,2512.65,121.3,14,2508.8,11.95,0.0985160758450124
1967804,2021-08-15,PMNMX,"El Molino, Méx.","El Molino, Méx.",Estado de México,Aculco,Aguas del Valle de México,20.124167,-99.739722,RI,A. Zarco,Libre,1980,2491,0,2385.09,8.7,2384.39,7.686,12,2380.02,1.827,0.237704918032787
1967805,2021-08-15,PERHD,"La Esperanza, Hgo.","La Esperanza, Hgo.",Hidalgo,Cuautepec de Hinojosa,Golfo Norte,20.0575,-98.334722,RI,R. Santa María,Libre,1943,2210.6,0.999902,2209.60009765625,4.19999980926514,2207.69995117188,3.92000007629395,28.7,2207.7,3.925,1.00127549071652
1967806,2021-08-15,DNXMX,"Danxhó, Méx.","Danxhó, Méx.",Estado de México,Jilotepec,Aguas del Valle de México,19.884722,-99.559722,RI,R. Coscomate,Libre,1951,2455.6,0.470117,2455.13,32.67,2454,31.046,31,2450.3,16.593,0.534464987437995
1967807,2021-08-15,SBBMX,"José Antonio Alzate, Méx.","San Bernabé, Méx.",Estado de México,Temoaya,Lerma-Santiago-Pacífico,19.465833,-99.704722,RI,R. Lerma,Libre,1962,2567,1.58008,2566.919921875,52.5089988708496,2565.5,35.3120002746582,24,2564.5,25.839,0.731734248952854
1967808,2021-08-15,PIRMX,"Ignacio Ramírez, Méx.","La Gavia, Méx.",Estado de México,Almoloya de Juárez,Lerma-Santiago-Pacífico,19.461667,-99.775,RI,R. La Gavia,Libre,1965,2553.76,3.28002,2550.47998046875,36.2999992370605,2548.44,20.227,23.5,2546.46,9.222,0.455925248430316
1967809,2021-08-15,TPTMX,"San Andrés Tepetitlán, Méx.","Tepetitlán,Méx.",Estado de México,San Felipe del Progreso,Lerma-Santiago-Pacífico,19.660833,-99.961389,RI,R. San José,Libre,1964,2597.38,2.92004,2594.4599609375,81.0289993286133,2592.02001953125,59.9659996032715,35,2589.6,42.39,0.706900581670407
1967810,2021-08-15,TEPMC,"Tepuxtepec, Mich.","Tepuxtepec, Mich.",Michoacán de Ocampo,Contepec,Lerma-Santiago-Pacífico,20.000278,-100.229167,GH/RI,R. Lerma,Contr,1930,2352,2,2350,537.527,2346.56,384.33,47,2347.08,405.391,1.0547992610517
1967811,2021-08-15,SLSGJ,"Solís, Gto.","Solis, Gto.",Guanajuato,Acámbaro,Lerma-Santiago-Pacífico,20.055278,-100.669722,RI,R. Lerma,Contr,1949,1901.7,3,1898.7,1214.14,1892.54,800,56.7,1889.62,633.152,0.79144
1967812,2021-08-15,PFBMX,"Francisco José Trinidad Fabela, Méx.","Islas de las Aves o El Salto, Méx.",Estado de México,Atlacomulco,Lerma-Santiago-Pacífico,19.829167,-99.790278,RI,R. Del Salto,Libre,1945,2697.5,1.69995,2697.800049,12.32,2696.699951,9.93,19.15,2694.42,5.95,0.599194360523666
1967813,2021-08-15,LDYGJ,"Laguna de Yuriria, Gto.","Bordo de Tavamatacheo, Gto.",Guanajuato,Yuriria,Lerma-Santiago-Pacífico,20.286944,-101.073056,RI,R. Lerma,Contr,1550,0,0,1731.40002441406,325.195007324219,1730.92,278.79,10,1728.51,83.582,0.299802718892356
1967814,2021-08-15,TMUMC,"Tercer Mundo, Mich.","Chincua, Mich.",Michoacán de Ocampo,Senguio,Lerma-Santiago-Pacífico,19.766389,-100.299167,RI,R. Chincua,Libre,1972,2431.2,2.41992,2428.580078125,17.3320007324219,2427.580078125,14.9720001220703,32,2421.75,4.397,0.293681536478106
1967815,2021-08-15,COIMC,"Cointzio, Mich.","Cointzio, Mich.",Michoacán de Ocampo,Morelia,Lerma-Santiago-Pacífico,19.629722,-101.259167,AP/RI,R. Grande de Morelia,Contr,1939,1997,1.50005,2001.31994628906,79.2330017089844,1995.97,50.84,46,1996.97,55.583,1.09329268292683
1967816,2021-08-15,MLPMC,"Malpaís, Mich.","La Ciénega, Mich.",Michoacán de Ocampo,Queréndaro,Lerma-Santiago-Pacífico,19.829167,-100.873611,RI,R. Quérendaro,Mixto,1938,1830.96,1,1843.56,27.249,1842.530029,18.512,7,1842,14.65,0.79137856525497
1967817,2021-08-15,PRSGJ,"La Purísima, Gto.","La Purísima, Gto.",Guanajuato,Guanajuato,Lerma-Santiago-Pacífico,20.867222,-101.287778,RI,R. Guanajuato,Contr,,1863,0,1860.7,181.926,1853.47,110,43,1847.03,61.483,0.558936363636364
1967818,2021-08-15,SLDGJ,"La Soledad, Gto.","La Soledad, Gto.",Guanajuato,Guanajuato,Lerma-Santiago-Pacífico,21.04,-101.279722,AP,R. Santa Ana,Libre,1956,2211.4,2.2501,2209.14990234375,2.37100005149841,2207.75,1.857,51,2206.77,1.524,0.820678513731826
1967845,2021-08-15,PECAG,"Plutarco Elías Calles, Ags.","Calles, Ags.",Aguascalientes,San José de Gracia,Lerma-Santiago-Pacífico,22.141111,-102.417222,AP/RI,R. Santiago,Libre,1931,2022.6,0.6,2022,407.438,2020,358.121,67,2007.65,134.064,0.374353919485314
1967846,2021-08-15,JCQAG,"Jocoque, Ags.","Derecha Jocoque, Ags.",Aguascalientes,San José de Gracia,Lerma-Santiago-Pacífico,22.121667,-102.356944,RI,R. San Pedro,Libre,1929,1944.95,1.54998,1943.40002441406,11.3999996185303,1942.44995117188,10.9750003814697,44,1942.46,10.982,1.00063777843162
1967847,2021-08-15,ABRAG,"Abelardo L. Rodríguez, Ags.","Abelardo L. Rodríguez, Ags.",Aguascalientes,Jesús María,Lerma-Santiago-Pacífico,21.916944,-102.427778,RI,R. Morcinique,Libre,1934,1890.2,1.47,1890,18.816,1888.88,15.997,25,1885.19,8.704,0.544102019128587
1967848,2021-08-15,NGRAG,"El Niágara, Ags.","El Niágara, Ags.",Aguascalientes,Aguascalientes,Lerma-Santiago-Pacífico,21.78,-102.371667,RI,R. Aguascalientes,Libre,1963,1833,0.599976,1832.40002441406,31.6949996948242,1828.40002441406,16.1879997253418,31.5,1828.51,16.505,1.01958242402006
1967849,2021-08-15,CRTJL,"El Cuarenta, Jal.","El Cuarenta, Jal.",Jalisco,Lagos de Moreno,Lerma-Santiago-Pacífico,21.497778,-101.7375,RI,A. Azul,Libre,1949,2004,2.05005,2001.94995117188,38.9599990844727,1998.75,30.625,42,1997.86,28.264,0.92290612244898
1967874,2021-08-15,CRNJL,"Corrinchis, Jal.",Corrinchis,Jalisco,Mascota,Lerma-Santiago-Pacífico,20.479722,-104.780833,RI,Río Mascota,Libre,,1337,0,1336.1,29,1332.6,20,38,1332.81,20.39,1.0195
1967850,2021-08-15,ESTJL,"El Estribón, Jal.","El Estribón, Jal.",Jalisco,Yahualica de González Gallo,Lerma-Santiago-Pacífico,21.185556,-102.900556,RI,A. Las Pilas,Libre,1946,1882.5,1.08997,1881.41003417969,7.73999977111816,1880,6.37799978256226,29,1878.15,5.048,0.791470707446787
1967851,2021-08-15,PMOZC,"Los Moraleños, Zac.",Moraleños,Zacatecas,Jalpa,Lerma-Santiago-Pacífico,21.711111,-102.903611,RI,Río Calvillo,Libre,,1324.75,0,1322.93,26.07,1318.96,20.932,47.05,1319.14,21.238,1.01461876552647
1967852,2021-08-15,PALZC,"Palomas, Zac.","Palomas, Zac.",Zacatecas,Villanueva,Lerma-Santiago-Pacífico,22.347778,-102.798056,RI,R. Palomas,Libre,1970,1908.34,0.86002,1907.47998046875,8.761,1904.25,4.62,28,1904.27,4.642,1.0047619047619
1967853,2021-08-15,TAYZC,"Ing. Julián Adame Alatorre, Zac.","Tayahua, Zac.",Zacatecas,Villanueva,Lerma-Santiago-Pacífico,22.120556,-102.864167,RI,R. Juchipila,Libre,1976,1701.7,0.289966,1701.41003417969,50.3769989013672,1696.01000976562,31.5979995727539,54.3,1696.17,32.085,1.01541238160108
1967854,2021-08-15,CHIZC,"El Chique, Zac.","El Chique, Zac.",Zacatecas,Tabasco,Lerma-Santiago-Pacífico,21.997222,-102.896111,RI,R. Juchipila,Libre,1958,1588.48,2.00002,1586.47998046875,192.567001342773,1580.18005371094,138.908996582031,61,1574.85,100.741,0.725230204513848
1967855,2021-08-15,CDRAG,"La Codorniz, Ags.","La Codorniz, Ags.",Aguascalientes,Calvillo,Lerma-Santiago-Pacífico,21.9975,-102.676944,RI,R. De La Labor,Libre,1966,1840,2.23999,1837.76000976562,6.52799987792969,1836,5.36600017547607,36,1836.06,5.404,1.00708159211354
1967856,2021-08-15,MNLAG,"Media Luna, Ags.","Media Luna, Ags.",Aguascalientes,Calvillo,Lerma-Santiago-Pacífico,21.8075,-102.788333,RI,R. Calvillo,Libre,1976,1624.1,2.14004,1621.9599609375,21.1959991455078,1619.19995117188,15,40.6,1619.33,15.433,1.02886666666667
1967857,2021-08-15,CUQJL,"Cuquío, Jal.","Los Gigantes, Jal.",Jalisco,Cuquío,Lerma-Santiago-Pacífico,20.948056,-103.039444,RI,A. Achichilco,Libre,1967,1808.5,1.92004,1806.57995605469,8.85000038146973,1805.5,7.5,24,1802.7,4.325,0.576666666666667
1967858,2021-08-15,REDJL,"La Red, Jal.","La Red, Jal.",Jalisco,Acatic,Lerma-Santiago-Pacífico,20.718889,-102.815278,RI,R. Calderón,Libre,1968,1796.5,1.80005,1794.69995117188,18.2999992370605,1792.5,14.25,24,1790.38,10.347,0.726105263157895
1967886,2021-08-15,CHTSO,"Cuauhtémoc, Son.","Santa Teresa, Son.",Sonora,Tubutama,Noroeste,30.873333,-111.516389,RI,R. Altar,Libre,1950,603,2.75,600.25,66.3300018310547,597,41.4700012207031,57.2,588.9,7.276,0.175452128908248
1967859,2021-08-15,EGCJL,"Ing. Elías González Chávez, Jal.","Puente Calderón, Jal.",Jalisco,Zapotlanejo,Lerma-Santiago-Pacífico,20.681389,-102.976111,AP,R. Calderón,Libre,1991,1622,2,1620,100,1618,80,36,1611.42,31.64,0.3955
1967860,2021-08-15,AGMNR,"Aguamilpa Solidaridad, Nay.","Aguamilpa, Nay.",Nayarit,Tepic,Lerma-Santiago-Pacífico,21.839167,-104.802222,GH,R. Santiago,Contr,1993,235,3,232,6950,222,5785.16,187,213.7,4870,0.841809042446536
1967861,2021-08-15,CJNNR,"Leonardo Rodríguez Alcaine, Nay.","Leonardo Rodríguez Alcáine, Nay.",Nayarit,Santa María del Oro,Lerma-Santiago-Pacífico,21.428333,-104.450833,GH,R. Santiago,Contr,2006,394.5,0.5,394,2393.11,391,2282.13,186,376.98,1763.5,0.772743007628838
1967862,2021-08-15,RSRNR,"San Rafael, Nay.",San Rafael,Nayarit,Tepic,Lerma-Santiago-Pacífico,21.780833,-104.8875,RI/GH,Río Grande de Santiago,Contr,,67.85,0,66.1,35.591,63.41,26.179,51.85,63.1,25.199,0.962565415027312
1967863,2021-08-15,PLYJL,"Ing. Alfredo Elías Ayub, Jal.","La Yesca, Jal.",Nayarit,Hostotipaquillo,Lerma-Santiago-Pacífico,21.196944,-104.105833,GH,R. Santiago,Contr,2012,579,1,578,2392.88,575,2292.92,207,560.47,1854.51,0.808798388081573
1967864,2021-08-15,STEZC,"Independencia Nacional, Zac.",Santa Teresa,Zacatecas,Monte Escobedo,Lerma-Santiago-Pacífico,22.326667,-103.495833,RI,Arroyo Santa Teresa,Libre,,1951.6,0,1949.33,13.944,1946,9.172,31.6,1946.18,9.41,1.02594853903184
1967865,2021-08-15,LOBZC,"Manuel Felgueres, Zac.","Lobatos, Zac.",Zacatecas,Valparaíso,Lerma-Santiago-Pacífico,22.845278,-103.382778,RI,R. Cuevecillas,Libre,1980,2082.3,2.12007,2080.17993164062,9.4350004196167,2077.05004882812,6.90500020980835,35,2076.87,6.787,0.982910904239983
1967894,2021-08-15,LDCSI,"Luis Donaldo Colosio, Sin.","Huites, Sin.",Sinaloa,Choix,Pacífico Norte,26.844722,-108.367778,GH,R. Fuerte,Contr,1995,290.75,0.75,290,4567.08,274,3202.16,164.75,257,2100.42,0.655938491518225
1967866,2021-08-15,BTEZC,"Ramón López Velarde, Zac.","Boca del Tesorero, Zac.",Zacatecas,Jerez,Lerma-Santiago-Pacífico,22.824167,-102.953333,RI,R. Jeréz,Libre,1975,2100.5,2.34009,2098.15991210938,36.7439994812012,2096,26.2199993133545,30,2095.9,25.792,0.98367660852163
1967867,2021-08-15,ACHZC,"Achimec, Jal.","Vaqueros, Jal.",Jalisco,Huejúcar,Lerma-Santiago-Pacífico,22.327222,-103.225278,RI,R. Huejúcar,Libre,1969,1846.3,2.02998,1844.27001953125,12.2119998931885,1841.5,7.36399984359741,28.5,1841.58,7.482,1.01602392163346
1967898,2021-08-15,GBESI,"Ing. Guillermo Blake Águilar, Sin.","El Sabinal, Sin.",Sinaloa,Sinaloa,Pacífico Norte,26.103056,-108.3275,AP/RI,A. Ocoroni,Libre,1985,201.2,4.59,196.6100006,469.2,188.4499969,294.578,81.2,176.1,122.522,0.415923796074384
1967899,2021-08-15,EBLSI,"Lic. Eustaquio Buelna, Sin.","Guamúchil, Sin.",Sinaloa,Salvador Alvarado,Pacífico Norte,25.484722,-108.065556,AP/RI,R. Mocorito,Contr,1972,71.2,2.35,68.8499984741211,264.950012207031,63.54,80.08,41,59.56,21.765,0.271790709290709
1967900,2021-08-15,ALMSI,"Adolfo López Mateos, Sin.","El Humaya o El Varejonal, Sin.",Sinaloa,Badiraguato,Pacífico Norte,25.101389,-107.388333,AP/RI,R. Humaya,Libre,1964,186.5,3.02,183.479995727539,4034.52001953125,176,3086.61010742188,105.5,148.7,809.113,0.262136444785966
1967901,2021-08-15,JGRSI,"Juan Guerrero Alcocer, Sin.","Vinoramas, Sin.",Sinaloa,Culiacán,Pacífico Norte,24.753611,-107.059444,RI,A. El Bledal,Libre,1994,178.3,2.02,176.2799988,102,168.5,54.684,50,153.26,8.311,0.151982298295662
1967902,2021-08-15,SNLSI,"Sanalona, Sin.","Sanalona, Sin.",Sinaloa,Culiacán,Pacífico Norte,24.815,-107.151389,AP/GH/RI,R. Tamazula,Libre,1948,165,2.83,162.17,987.522,156.2,687.988,81,147.52,366.83,0.533192439403013
1967903,2021-08-15,JLPSI,"José López Portillo, Sin.","Comedero, Sin.",Sinaloa,Cosalá,Pacífico Norte,24.571667,-106.807222,AP/GH/RI,R. San Lorenzo,Contr,1981,290,4.54999,286.950012207031,3966.169921875,272.16,2580.19,136,243.58,902.385,0.349735872164453
1967904,2021-08-15,CBRDR,"Caboraca, Dgo.","Canoas, Dgo.",Durango,Canatlán,Pacífico Norte,24.538333,-104.810278,RI,R. La Sauceda,Libre,1992,2003.75,2.46997,2001.28002929688,57.8800010681152,1998.25,45,37,1998.23,44.899,0.997755555555556
1967905,2021-08-15,PAGDR,"Peña del Águila, Dgo.","Peña Del Águila, Dgo.",Durango,Durango,Pacífico Norte,24.203889,-104.656667,RI,R. La Sauceda,Libre,1954,1896.8,1.52998,1895.27002,54.902,1892.5,27.948,25,1892.6,28.743,1.02844568484328
1967906,2021-08-15,GVCDR,"Presidente Guadalupe Victoria, Dgo.","El Tunal, Dgo.",Durango,Durango,Pacífico Norte,23.961111,-104.753056,RI,R. Tunal,Mixto,1962,1934.8,1.69,1934.61,94.617,1931,78.06,72.8,1929.66,72.326,0.926543684345375
1967907,2021-08-15,SBYDR,"Santiago Bayacora, Dgo.","Santiago Bayacora, Dgo.",Durango,Durango,Pacífico Norte,23.874444,-104.675833,RI,R. Santiago Bayacora,Libre,1990,1962,0.810059,1965.93994140625,169.869003295898,1959.01000976562,130.046997070312,66.75,1958.81,129.023,0.992125946055034
1967908,2021-08-15,FVLDR,"Francisco Villa, Dgo.","El Bosque, Dgo.",Durango,Poanas,Pacífico Norte,24.001667,-103.960833,RI,R. Poanas,Libre,1968,1998.7,2.57,1996.13000488281,96.5699996948242,1993,73.2600021362305,58.7,1993.01,73.333,1.00099642180782
1967909,2021-08-15,SLTSI,"Ing. Aurelio Benassini Vizcaíno, Sin.","El Salto o Elota, Sin.",Sinaloa,Elota,Pacífico Norte,24.121944,-106.695833,RI,R. Elota,Libre,1988,167.1,2.46,164.6399994,815.592,154.5,403.9,73,145.5,192.525,0.476665016093092
1967910,2021-08-15,SELDR,"Santa Elena, Dgo.","Santa Elena, Dgo.",Durango,Súchil,Pacífico Norte,23.623056,-104.054444,RI,R. Graseros,Libre,1977,2002.75,1.14001,2001.61,18.766,1999.8,15.08,30.75,1999.92,15.296,1.01432360742706
1967911,2021-08-15,RMEGR,"Revolución Mexicana, Gro.","El Guineo, Gro.",Guerrero,Ayutla de los Libres,Pacífico Sur,16.823611,-99.166111,RI,R. Nexpa,Libre,1984,110.7,3.11,107.5899963,259.502,94.40000153,126.694,70.7,94.97,131.188,1.03547129303677
1967912,2021-08-15,JDMOX,"Presidente Benito Juárez, Oax.","Bordo Benito Juárez, Oax.",Oaxaca,Santa María Jalapa del Marqués,Pacífico Sur,16.445556,-95.397778,RI,R. Tehuantepec,Libre,1961,138.4,2.64999,139.8500061,1726.747,124.25,720.317,85.5,123.19,671.551,0.932299251579513
1967913,2021-08-15,LBQCH,"La Boquilla, Chih.","Lago de Toronto, Chih.",Chihuahua,San Francisco de Conchos,Río Bravo,27.544722,-105.414167,GH/RI,R. Conchos,Libre,1916,1322,2.90002,1319.1,3192.75,1317,2846.78,82,1299.53,861.206,0.302519337637612
1967914,2021-08-15,SGBDR,"San Gabriel, Dgo.","San Gabriel, Dgo.",Durango,Ocampo,Río Bravo,26.436667,-105.560833,RI,R. Florido,Libre,1991,1785.6,2.20999,1783.39001464844,377.338012695312,1777.90002441406,245.430999755859,48,1764.51,59.871,0.24394228952152
1967915,2021-08-15,PAGCH,"Pico del Águila, Chih.","Pico Del Águila, Chih.",Chihuahua,Coronado,Río Bravo,26.546389,-105.254167,RI,R. Florido,Libre,1993,1625.9,2.5,1619,59.843,1616.900024,48.276,42,1616.9,48.276,1
1967916,2021-08-15,FIMCH,"Las Vírgenes, Chih.","Francisco I. Madero, Chih.",Chihuahua,Rosales,Río Bravo,28.166111,-105.628889,RI,R. San Pedro,Libre,1949,1243.8,1.23994,1242.56005859375,477.622009277344,1239.30004882812,355.286010742188,57,1232.09,140.278,0.394831194470509
1967917,2021-08-15,LLNCH,"El Granero, Chih.","Ing. Luis L. León, Chih.",Chihuahua,Aldama,Río Bravo,28.984444,-105.28,RI,R. Conchos,Contr,1968,1053,2.5,1050.5,824.76181,1034.8,284.382,62,1023.84,96.172,0.338178928342863
1967918,2021-08-15,CHUCH,"Chihuahua, Chih.","Chihuahua, Chih.",Chihuahua,Chihuahua,Río Bravo,28.570556,-106.167778,AP,R. Chuviscar,Libre,1960,1546,1.71997,1544.28002929688,35.6310005187988,1540.81994628906,23.382999420166,58,1535.76,11.208,0.479322596669697
1967919,2021-08-15,ERECH,"El Rejón, Chih.","El Rejón, Chih.",Chihuahua,Chihuahua,Río Bravo,28.614722,-106.119444,AP,A. El Rejón,Libre,1966,1479.8,1.48005,1478.31994628906,7.75500011444092,1477,6.528,33,1472.32,3.224,0.493872549019608
1967920,2021-08-15,PAZCH,"Piedras Azules, Chih.",,Chihuahua,Allende,Río Bravo,27.249167,-105.211111,RI,Río Parral,Libre,,2000,0,1998.42,13.194,1996.5,8.712,22,1994.28,4.801,0.551078971533517
1967921,2021-08-15,CILAAMSMX,"Internacional La Amistad, Coah.","La Amistad, Coah.",Coahuila de Zaragoza,Acuña,Río Bravo,29.446944,-101.057222,AP/RI,R. Bravo,Contr,1968,351.22,0,349.03,2707.437,340.46,1769.66,87.57,326.035,198.819,0.112348699750234
1967922,2021-08-15,CNTCL,"El Centenario, Coah.","El Centenario, Coah.",Coahuila de Zaragoza,Jiménez,Río Bravo,29.213611,-100.95,RI,R. San Diego,Libre,1935,338,1.62,336.380004882812,25.711,336.149993896484,24.5890007019043,17,334.73,18.416,0.748952762385898
1967923,2021-08-15,SMGCL,"San Miguel, Coah.","San Miguel, Coah.",Coahuila de Zaragoza,Jiménez,Río Bravo,29.034167,-100.953889,AP/RI,R. San Diego,Libre,1935,343.5,1.54001,341.959991455078,22.193000793457,341.739990234375,21.1679992675781,15,340.88,17.524,0.827853392211732
1967924,2021-08-15,LFGCL,"La Fragua, Coah.","La Fragua, Coah",Coahuila de Zaragoza,Jiménez,Río Bravo,28.82,-100.832222,RI,R. San Rodrigo,Libre,1993,306.68,2.00001,303.96,85.379997253418,300.299987792969,47.2949981689453,24.7,294.71,14.661,0.309990497253611
1967740,2021-08-15,DBOMC,"El Bosque, Mich.","El Bosque, Mich.",Michoacán de Ocampo,Zitácuaro,Balsas,19.387778,-100.421111,AP,R. San Juan,Libre,1954,1745,2,1743,220.1,1741.4,202.4,70,1734.95,138.085,0.68223814229249
1967741,2021-08-15,VBRMX,"Valle de Bravo, Méx.","Valle de Bravo, Méx.",Estado de México,Valle de Bravo,Balsas,19.2075,-100.18,AP,R. Valle de Bravo,Libre,1947,1835.37,2.5,1833,449.42,1830,394.39,56,1816.2,167.858,0.42561423971196
1967742,2021-08-15,VVCMX,"Villa Victoria, Méx.","Villa Victoria,Méx.",Estado de México,Villa Victoria,Balsas,19.461667,-100.055556,AP,R. San Juan Malacate,Libre,1944,2561.96,0,2607.5,249.943,2605.5,185.723,19,2600.72,68.426,0.368430404419485
1967743,2021-08-15,EGLGR,"El Gallo, Gro.","El Gallo, Gro.",Guerrero,Cutzamala de Pinzón,Balsas,18.703056,-100.671111,GH/RI,R. Cutzamala,Libre,1998,370.5,2.5,368,545.966003417969,362.779998779297,400.039001464844,67.5,363.18,410.24,1.02550000999353
1967744,2021-08-15,RODMR,"El Rodeo, Mor.","El Rodeo, Mor.",Morelos,Miacatlán,Balsas,18.765278,-99.331389,RI,R. Tembembe,Libre,1974,1166.5,2.30005,1166.5,33.1370010375977,1164.19995117188,26.9839992523193,8,1154.19,4.78,0.177142014988351
1967745,2021-08-15,LDTGR,"Laguna de Tuxpan, Gro.","Laguna de Tuxpan, Gro.",Guerrero,Iguala de la Independencia,Balsas,18.363333,-99.503056,RI,Antiguo canal de riego,Libre,1937,744.75,0,743.349975585938,19.5030002593994,742.840026855469,17.6469993591309,8,741.65,13.47,0.763302572061941
1967746,2021-08-15,AFIGR,"Andrés Figueroa, Gro.","Las Garzas, Gro.",Guerrero,Ajuchitlán del Progreso,Balsas,18.075833,-100.5175,RI,R. Ajuchitán,Libre,1984,385,2.39001,382.6099854,133.029,377,102.5,72.5,372.22,82.08,0.800780487804878
1967747,2021-08-15,VTRGR,"Valerio Trujano, Gro.","Tepecoacuilco, Gro.",Guerrero,Tepecoacuilco de Trujano,Balsas,18.295833,-99.466111,AP/RI,R. Tepecoacuilco,Libre,1964,844.3,1.51997,842.7800293,51.727,840,31.014,33.3,838.9,24.842,0.800993099890372
1967748,2021-08-15,VGRGR,"Vicente Guerrero, Gro.","Palos Altos, Gro.",Guerrero,Arcelia,Balsas,18.382778,-100.265833,AP/RI,R. Poliutla,Libre,1968,433,2.70001,430.299987792969,300,425,249.49,67.5,417.6,168.5,0.67537777065213
1967749,2021-08-15,LCLGR,"La Calera, Gro.","La Calera, Gro.",Guerrero,Zirándaro,Balsas,18.418611,-101.003056,RI,R. Chiquito o El Oro,Libre,1964,124.3,1.68,122.6200027,34.1928,118,9.393,31.8,118.45,11.067,1.17821782178218
1967750,2021-08-15,ECAGR,"Ing. Carlos Ramírez Ulloa, Gro.","El Caracol, Gro.",Guerrero,General Heliodoro Castillo,Balsas,17.947778,-99.995556,GH,R. Balsas,Contr,1986,526,2.4,523.6,1183.23,520,1010.46,126,510.98,690.131,0.682986956435683
1967751,2021-08-15,LOLMC,"Los Olivos, Mich.","Los Olivos, Mich.",Michoacán de Ocampo,Tepalcatepec,Balsas,19.210833,-102.865556,RI,Los Otates,Libre,1961,423,2,421,16.2709999084473,418,10.2620000839233,37,417.78,9.922,0.966868049001871
1967752,2021-08-15,SJUMC,"San Juanico, Mich.","La Laguna, Mich.",Michoacán de Ocampo,Cotija,Balsas,19.839444,-102.651389,RI,R. Cotija,Libre,1950,1574.6,0,1604.56,71.69,1603.86,60.545,5.7,1601.99,37.273,0.615624741927492
1967753,2021-08-15,CHLMC,"Constitución de Apatzingán, Jal.","Chilatán, Jal.",Jalisco,Jilotlán de los Dolores,Balsas,19.287778,-102.774167,RI,R. Grande,Libre,1990,440,2.32001,437.679992675781,807.150024414062,429.450012207031,590.025024414062,107,429.32,586.992,0.994859498684696
1967754,2021-08-15,ZICMC,"Zicuirán, Mich.","La Peña, Mich.",Michoacán de Ocampo,La Huacana,Balsas,18.921111,-101.931944,RI,R. Zicuirán,Libre,1957,302.75,1.31,301.440002441406,47.4850006103516,299,36.2939987182617,46,299.25,37.369,1.0296192571693
1967755,2021-08-15,INFMC,"Infiernillo, Mich.","Infiernillo, Mich.",Guerrero,Arteaga,Balsas,18.266667,-101.883333,GH,R. Balsas,Contr,1964,184,0.8,183.2,15194.8,165,7872.585,151.5,154.15,4970.461,0.631363268862769
1967756,2021-08-15,VILMC,"José María Morelos y Pavón, Mich.","La Villita, Mich.",Michoacán de Ocampo,Lázaro Cárdenas,Balsas,18.048333,-102.180278,AP/GH/RI,R. Balsas,Contr,1973,59.73,3,56.73,686.94,51.2,545.93,73,50,515.325,0.943939699228839
1967757,2021-08-15,LCRDR,"Lázaro Cárdenas, Dgo.","El Palmito, Dgo.",Durango,Indé,Cuencas Centrales del Norte,25.594167,-105.015833,RI,R. Nazas,Contr,1946,1635,3,1632,4278.541,1620.87,2770.51,100,1602.14,1197.03,0.432061245041527
1967758,2021-08-15,FZRDR,"Francisco Zarco, Dgo.","Las Tórtolas, Dgo.",Durango,Cuencamé,Cuencas Centrales del Norte,25.270833,-103.773611,RI,R. Nazas,Contr,1968,1213,2.94995,1210.05004882812,383.160003662109,1208.2,309.24,39.5,1205.1,207.389,0.670640926141508
1967759,2021-08-15,LNRDR,"Los Naranjos, Dgo.","Los Naranjos, Dgo.",Durango,General Simón Bolívar,Cuencas Centrales del Norte,24.613056,-103.306944,RI,R. Santa Clara,Libre,1985,1663,1.91003,1661.08996582031,27.3899993896484,1658.40002441406,20.928,48,1658.3,20.713,0.989726681957187
1967760,2021-08-15,TGRDR,"El Tigre, Dgo.",El Tigre,Durango,San Juan de Guadalupe,Cuencas Centrales del Norte,24.563056,-102.785,RI,Arroyo El Tigre,Libre,,1581.62,0,1580.12,18.56,1576.92,14,34.5,1570.03,5.523,0.3945
1967761,2021-08-15,SGOZC,"Santiago, Zac.",Santiago,Zacatecas,Miguel Auza,Cuencas Centrales del Norte,24.288611,-103.506111,RI,Río Santiago,Libre,,2001.8,0,2000.26,11.421,1997.26,6.2,25.6,1997.3,6.26,1.00967741935484
1967762,2021-08-15,ELCZC,"El Cazadero, Zac.","El Cazadero, Zac",Zacatecas,Río Grande,Cuencas Centrales del Norte,23.693333,-103.098333,RI,R. Aguanaval,Libre,1964,1920.12,1.50006,1919.93994140625,44.6800003051758,1916,22.17799949646,27.12,1916.03,22.323,1.0065380334941
1967763,2021-08-15,LREZC,"Gobernador Leobardo Reynoso, Zac.","Trujillo, Zac.",Zacatecas,Fresnillo,Cuencas Centrales del Norte,23.18,-103.216944,RI,R. San Francisco o Los Lazos,Libre,1946,2131.85,2.31997,2129.53,125.921,2127.35,95.717,40.34,2125.86,78.444,0.819540938391299
1967764,2021-08-15,STRZC,"Santa Rosa, Zac.","Santa Rosa, Zac.",Zacatecas,Fresnillo,Cuencas Centrales del Norte,22.923611,-103.108889,RI,A. El Arenal,Libre,1937,2250.19,0.550107,2249.63989257812,14.0410003662109,2248.63989257812,10.4759998321533,15,2248.68,10.612,1.01298207044919
1967765,2021-08-15,APRDR,"Ing. Benjamín Ortega Cantero, Dgo.","Agua Puerca, Dgo.",Durango,Hidalgo,Cuencas Centrales del Norte,26.226389,-104.493889,RI,A. Grande del Derrame,Libre,1984,1436.4,2.30002,1434.09997558594,56.060001373291,1430.19995117188,30.764,34.8,1425.66,12.016,0.390586399687947
1967819,2021-08-15,EPLGJ,"El Palote, Gto.","El Palote, Gto.",Guanajuato,León,Lerma-Santiago-Pacífico,21.173611,-101.678889,AP,R. De Los Gómez,Libre,1954,1839.5,0.9,1838.6,17.161,1836.15,9.643,20.5,1833.9,4.172,0.432645442289744
1967820,2021-08-15,GLNGJ,"La Golondrina, Gto.","La Golondrina,Gto.",Guanajuato,Pénjamo,Lerma-Santiago-Pacífico,20.439167,-101.7425,RI,R. Penjamo,Libre,1968,1838.7,1.58,1837.11999511719,5.96999979019165,1835.19995117188,4.67000007629395,45.7,1834.4,4.191,0.897430392190898
1967821,2021-08-15,MOCMC,"Melchor Ocampo, Mich.","El Rosario, Mich.",Michoacán de Ocampo,Angamacutiro,Lerma-Santiago-Pacífico,20.127222,-101.724444,RI,R. Angúlo,Libre,1975,1716.5,2.08997,1714.41003417969,249.843002319336,1711.90002441406,194.453994750977,34,1708.17,122.15,0.628169146930763
1967822,2021-08-15,AMEMC,"Aristeo Mercado, Mich.","Wilson ,Mich.",Michoacán de Ocampo,Jiménez,Lerma-Santiago-Pacífico,19.926111,-101.661111,RI,A. sin nombre,Libre,1926,1999.83,6.03,1993.8,28.305,1993.5,25.344,9.2,1991.8,11.188,0.441445707070707
1967823,2021-08-15,PTZMC,"Pátzcuaro, Mich.","Pátzcuaro, Mich.",Michoacán de Ocampo,Pátzcuaro,Lerma-Santiago-Pacífico,19.542778,-101.616944,RI,R. Jaripo,Libre,,,0,2042.35,1135.573,2038.57,646.582,,2035.24,319.492,0.494124488463954
1967824,2021-08-15,LANMC,"Los Ángeles, Mich.",Tres Mezquites,Michoacán de Ocampo,José Sixto Verduzco,Lerma-Santiago-Pacífico,20.248889,-101.626667,RI,C. El Alto Las Cañas,Libre,,1689.95,0,1688.45,17.096,1687.95,14.59,10,1685.6,4.747,0.32535983550377
1967825,2021-08-15,LDFMC,"Laguna del Fresno, Mich.","Laguna del Fresno, Mich.",Michoacán de Ocampo,Maravatío,Lerma-Santiago-Pacífico,19.838056,-100.406389,RI,R. Cachiví,Libre,1946,2059,2,2057,13.132,2055.98,10.299,8.8,2054.12,5.618,0.545489853383824
1967826,2021-08-15,MABGJ,"Mariano Abasolo, Gto.","San Antonio de Aceves, Gto.",Guanajuato,Pénjamo,Lerma-Santiago-Pacífico,20.507222,-101.931111,RI,A. los Otates,Libre,1971,1755,1.92,1753.08,23.946,1751.3,20.079,43,1745.83,10.4,0.517954081378555
1967827,2021-08-15,CPAMC,"Copándaro, Mich.","Copándaro de Dolores, Mich.",Michoacán de Ocampo,Jiquilpan,Lerma-Santiago-Pacífico,20.001667,-102.861389,RI,R. La Patera,Libre,1927,1999,9.79,1989.209,9.717,1987.659,2.752,5.7,1984.43,0.003,0.00109011627906977
1967828,2021-08-15,HRTJL,"Hurtado, Jal.","Valencia, Jal.",Jalisco,Acatlán de Juárez,Lerma-Santiago-Pacífico,20.466944,-103.651111,RI,A. San Antonio,Libre,1879,1464,1.34,1462.66,22.625,1462.5,21.727,10.35,1461.46,16.063,0.739310535278685
1967829,2021-08-15,JARMC,"Jaripo, Mich.","Jaripo, Mich.",Michoacán de Ocampo,Villamar,Lerma-Santiago-Pacífico,19.958333,-102.601944,RI,A. sin nombre,Libre,1951,1548.5,2.2,1580.42,9.265,1578.91,6.028,20,1576.62,2.329,0.386363636363636
1967830,2021-08-15,GUAMC,"Guaracha, Mich.","San Antonio, Mich.",Michoacán de Ocampo,Villamar,Lerma-Santiago-Pacífico,19.979167,-102.541389,RI,A. sin nombre,Libre,1913,1596.72,0,1580.11,29.79,1580.01,28.677,8,1577.21,3.336,0.116330160058584
1967831,2021-08-15,UREMC,"Urepetiro, Mich.","Urepetiro, Mich.",Michoacán de Ocampo,Tlazazalca,Lerma-Santiago-Pacífico,19.962222,-102.137778,RI,R. Tlazazalca,Libre,1964,1752.5,1.5,1745.68,10.923,1745,8.282,31,1744.9,8.058,0.972953392900266
1967832,2021-08-15,POLJL,"Ing. Guillermo Lugo Sanabria, Jal.","La Pólvora, Jal.",Jalisco,Degollado,Lerma-Santiago-Pacífico,20.491111,-102.231944,RI,R. Huascato,Libre,1989,1669.1,4.1,1665,56.15,1663.46,51.675,69,1649.46,22.536,0.43611030478955
1967833,2021-08-15,DGNMC,"De Gonzalo, Mich.","De Gonzalo, Mich.",Michoacán de Ocampo,Vista Hermosa,Lerma-Santiago-Pacífico,20.304444,-102.436944,RI,A. sin nombre,Libre,1890,1535.83,0.93,1534.9,10,1533.88,8.837,10,1532.84,3.301,0.373543057598733
1967834,2021-08-15,LDCJL,"Lago de Chapala, Jal.","Chapala, Jal.",Jalisco,Chapala,Lerma-Santiago-Pacífico,20.290556,-103.201667,AP,R. Lerma,Libre,,0,0,99,9279.71,98,8126.41,0,94.64,4367.11,0.537397202454712
1967835,2021-08-15,LCLJL,"La Colonia, Jal.","La Colonia, Jal.",Jalisco,Zapotlán del Rey,Lerma-Santiago-Pacífico,20.43,-102.931944,RI,A. Los Sabinos,Libre,1927,0,0,103.400001525879,6.5,103,5.775,6,102.1,3.335,0.577489177489177
1967836,2021-08-15,CHLJL,"Chila, Jal.","Chila, Jal.",Jalisco,Zapotlán del Rey,Lerma-Santiago-Pacífico,20.489722,-102.944167,RI,A. Chila,Libre,1945,1525.88,1,99,1,98.7,0.762,10,97.8,0.586,0.769028871391076
1967837,2021-08-15,BATQT,"El Batán, Qro.",Los Arcos,Querétaro,Corregidora,Lerma-Santiago-Pacífico,20.504167,-100.412222,RI,Río El Pueblito,Libre,,1914.85,0,1905.15,8.042,1902.1,5.791,45.5,1890.07,0.952,0.164393023657399
1967838,2021-08-15,IALGJ,"Ignacio Allende, Gto.","La Begoña, Gto.",Guanajuato,San Miguel de Allende,Lerma-Santiago-Pacífico,20.848056,-100.825833,RI,R. de la Laja,Contr,1968,1834.7,2.04998,1833.33,241.41,1828.75,125.12,43,1824.9,60.639,0.484646739130435
1967839,2021-08-15,PNLGJ,"Peñuelitas, Gto.","Peñuelitas, Gto.",Guanajuato,Dolores Hidalgo Cuna de la Independencia Nacional,Lerma-Santiago-Pacífico,21.105,-100.878333,RI,R. De la Erre,Libre,1960,1908.2,0.91,1907.29,30.169,1904.7,17.46,28,1900.14,3.243,0.18573883161512
1967840,2021-08-15,SRSJL,"Manuel M. Diéguez, Jal.","Santa Rosa, Jal.",Jalisco,Amatitán,Lerma-Santiago-Pacífico,20.908889,-103.705556,GH,R. Santiago,Contr,1964,747,0.5,748,418,744,361,114,743.97,360.73,0.999252077562327
1967841,2021-08-15,ESLJL,"El Salto, Jal.","El Salto, Jal.",Jalisco,Valle de Guadalupe,Lerma-Santiago-Pacífico,21.037222,-102.705,AP,R. El Salto,Libre,1940,1814.5,2,1812.5,118.54,1810.160034,85,42,1810.42,88.75,1.04411764705882
1967842,2021-08-15,SA1JL,"La Sauceda, Jal.","Garabatillos, Jal.",Jalisco,Lagos de Moreno,Lerma-Santiago-Pacífico,21.359167,-101.835556,RI,R. La Sauceda,Libre,1982,1923,1.96997,1921.03002929688,21.5,1918.90002441406,16,38.1,1914.86,7.8,0.4875
1967843,2021-08-15,ANVAG,"Cincuenta Aniversario, Ags.",San José de Gracia,Aguascalientes,San José de Gracia,Lerma-Santiago-Pacífico,22.188611,-102.464167,AP/RI,Río Blanco,Libre,,89.2,0,2088.57,5.039,2086,4.1,39.2,2086.14,4.148,1.01170731707317
1967844,2021-08-15,PTRAG,"Derivadora Pabellón, Ags.","Derecha Potrerillos, Ags.",Aguascalientes,Rincón de Romos,Lerma-Santiago-Pacífico,22.235,-102.4375,RI,R. San Pedro,Libre,1931,2099.86,0,2093,2.09999990463257,2092.60009765625,2.03800010681152,35,2086.78,1.264,0.62021586543366
1967868,2021-08-15,TENJL,"Tenasco, Jal.","Boquilla de Zaragoza, Jal.",Jalisco,Santa María de los Ángeles,Lerma-Santiago-Pacífico,22.171944,-103.198611,RI,A. Tenasco,Libre,1960,1777,0,1724.83996582031,13.8500003814697,1722.84997558594,10.49,32,1717.38,4.474,0.42650142993327
1967869,2021-08-15,EXCZC,"Miguel Alemán, Zac.","Excamé, Zac.",Zacatecas,Tepechitlán,Lerma-Santiago-Pacífico,21.645833,-103.35,RI,R. Tlaltenango,Contr,1949,1707,2.5,1704.5,70.9199981689453,1700.76,50.55,48,1700.2,47.81,0.945796241345203
1967870,2021-08-15,VILZC,"José María Morelos, Zac.","La Villita, Zac.",Zacatecas,Tepechitlán,Lerma-Santiago-Pacífico,21.588889000000002,-103.3375,RI,A. San Pedro,Libre,1986,1833.2,2.01006,1831.18994140625,11.164999961853,1829,9.01799964904785,39.2,1829.08,9.094,1.00842762851074
1967871,2021-08-15,TCTJL,"Tacotán, Jal.","Tacotán, Jal.",Jalisco,Unión de Tula,Lerma-Santiago-Pacífico,20.036111,-104.320278,RI,R. Ayutla,Libre,1960,1407.5,1.20996,1406.2900390625,169,1403.06005859375,149.238998413086,68.5,1400.32,136.397,0.913950116593922
1967872,2021-08-15,BBAJL,"Basilio Vadillo, Jal.","Las Piedras, Jal.",Jalisco,El Limón,Lerma-Santiago-Pacífico,19.913611,-104.061111,RI,R. Tuxcacuesco,Libre,1973,982.8,2.7,978.97,146.888,974.35,124.75,96,973.46,120.24,0.963847695390782
1967873,2021-08-15,TMLJL,"Ramón Corona Madrigal General, Jal.","Trigomil, Jal.",Jalisco,Ayutla,Lerma-Santiago-Pacífico,19.976111,-104.370278,RI,R. Ayuquila,Libre,1993,1209.34,2.94001,1209.35998535156,324,1201.40002441406,250,107,1197.94,221.513,0.886052
1967875,2021-08-15,VEGJL,"Ing. Santiago Camarena, Jal.","La Vega, Jal.",Jalisco,Teuchitlán,Lerma-Santiago-Pacífico,20.596389,-103.845833,RI,R. Ameca,Libre,1960,1261,2.14001,1258.85998535156,80,1257,44.0349998474121,18,1257.09,45.921,1.04282957100314
1967876,2021-08-15,LDACM,"Laguna de Amela, Col.","Tecomán, Col.",Colima,Tecomán,Lerma-Santiago-Pacífico,18.809167,-103.774167,RI,Canal Bajo Amela y Dren Zanja,Libre,,10.89,3.25,7.64,41.3,7.39,38.343,6.35,7.07,34.616,0.902798424745064
1967877,2021-08-15,TRJCM,"Solidaridad, Jal.","Trojes, Jal.",Jalisco,Pihuamo,Lerma-Santiago-Pacífico,18.967222,-103.396667,RI,R. El Cajón,Libre,1994,303.6,0,301.11,285.742,292.37,203.388,87,289.14,178.269,0.876497138474246
1967878,2021-08-15,CPEJL,"Cajón de Peña, Jal.","Tomatlán, Jal.",Jalisco,Tomatlán,Lerma-Santiago-Pacífico,19.9975,-105.129722,RI,R. Tomatlán,Contr,1976,142,2.8,139.2,707.62,129.37,442.76,68,130.6,472.62,1.06744059987352
1967879,2021-08-15,VCVJL,"Vicente C. Villaseñor, Jal.","Valle de Juárez, Jal.",Jalisco,Valle de Juárez,Lerma-Santiago-Pacífico,19.939722,-102.941667,RI,R. Quitupan,Libre,1950,1880,2,1878,18.1200008392334,1877,14.4399995803833,18,1875.84,10.316,0.714404452893078
1967880,2021-08-15,LCDSO,"Lázaro Cárdenas, Son.","La Angostura, Son.",Sonora,Nacozari de García,Noroeste,30.437778,-109.378889,RI,R. Bavispe,Libre,1942,843.75,3.59998,840.150024414062,1116.4599609375,830.700012207031,703.380004882812,91.75,823.22,449.362,0.638860924223836
1967881,2021-08-15,PECSO,"Plutarco Elías Calles, Son.","El Novillo, Son.",Sonora,Soyopa,Noroeste,28.976667,-109.642222,GH,R. Yaqui,Contr,1964,297.8,1.00001,296.8,3511.96,290.5,2833.07,133.8,272,1302.15,0.459625071036014
1967882,2021-08-15,AOBSO,"Álvaro Obregón, Son.","Oviachic, Son.",Sonora,Cajeme,Noroeste,27.8225,-109.8925,AP/GH/RI,R. Yaqui,Libre,1952,115.1,2.9,112.1999969,4478.215,105.5,3023.14,90,92.3,1164.14,0.385076443697612
1967883,2021-08-15,AGZCH,"Abraham González, Chih.","Guadalupe, Chih.",Chihuahua,Guerrero,Noroeste,28.481667,-107.482778,RI,R. Papigochi,Libre,1961,2052.9,1.59995,2051.30004882812,102.891,2047.80004882812,79.354,41.9,2040.44,39.359,0.495992640572624
1967884,2021-08-15,IRASO,"Ignacio R. Alatorre, Son.","Punta de Agua, Son.",Sonora,Guaymas,Noroeste,28.426389,-110.396944,RI,R. San Marcial o Mátape,Libre,1972,105,2.29,102.709999084473,29.6900005340576,100,16.1599998474121,30,96.36,5.056,0.312871290082944
1967885,2021-08-15,ARCSO,"Adolfo Ruíz Cortínes, Son.","Mocúzari, Son.",Sonora,Álamos,Noroeste,27.226111,-109.106667,AP/GH/RI,R. Mayo,Mixto,1955,148,2.53,145.4700012,1822.141,135,950.25,88.5,121.36,304.356,0.32029044988161
1967887,2021-08-15,AGCSO,"Agua Caliente, Son.",Dique 10,Sonora,Cajeme,Noroeste,27.75,-109.887778,RI,Canal Alto Oviachic,Libre,,100.85,0,79.6,41.16,79.1,37.58,8.35,76.87,22.97,0.611229377328366
1967888,2021-08-15,ARLSO,"Abelardo Rodríguez Luján, Son.","Hermosillo, Son.",Sonora,Hermosillo,Noroeste,29.076667,-110.92,AP,R. Sonora,Contr,1948,231.6,3.20001,228.399993896484,284.470001220703,226.98,219.52,36,214.92,0.006,2.7332361516035e-5
1967889,2021-08-15,PMOSO,"Ing. Rodolfo Félix Valdés, Son.","El Molinito, Son.",Sonora,Hermosillo,Noroeste,29.2125,-110.725556,AP,R. Sonora,Libre,,295.4,2.00001,293.4,222.47,289.36,121.202,31.4,278.94,13.081,0.107927261926371
1967890,2021-08-15,CRRBN,"El Carrizo, B.C.","El Carrizo, B.C.",Baja California,Tijuana,Península de Baja California,32.479444,-116.696944,AP,A. Carrizo,Libre,1978,288.34,2.12,286.220001220703,44.5849990844727,284.700012207031,40.8660011291504,55.8,275.4,21.762,0.53252090732403
1967891,2021-08-15,ALRBN,"Abelardo L. Rodríguez, B.C.","Tijuana, B.C.",Baja California,Tijuana,Península de Baja California,32.444722,-116.908333,AP,R. Tijuana,Contr,1937,127,2,125,121.392,115.85,76.9,72,96.69,14.079,0.183081924577373
1967892,2021-08-15,AURBN,"Las Auras, B.C.",,Baja California,Tecate,Península de Baja California,32.544722,-116.531667,AP,A. Las Auras,Libre,,822,0,822,5.1,820,5.01,40,813.09,2.326,0.464271457085828
1967893,2021-08-15,ELZBN,"Emilio López Zamora, B.C.","Ensenada, B.C.",Baja California,Ensenada,Península de Baja California,31.890278,-116.6025,AP,A. Ensenada,Libre,1978,27,1.74,25.2600002288818,6.34200000762939,19.8899993896484,2.73200011253357,34,12.35,0.478,0.174963389572015
1967895,2021-08-15,PMHSI,"Miguel Hidalgo, Sin.","El Mahoné, Sin.",Sinaloa,El Fuerte,Pacífico Norte,26.509722,-108.58,AP/GH/RI,R. Fuerte,Mixto,1956,151.4,3.4,148,4171.273,140.83,3096.63,81,116.25,680.39,0.219719501522623
1967896,2021-08-15,JORSI,"Josefa Ortiz de Domínguez, Sin.","El Sabino, Sin.",Sinaloa,El Fuerte,Pacífico Norte,26.426944,-108.7025,AP/RI,A. Alamos,Contr,1967,113.5,2.93,112.6500015,685.11,109.5,519.28,44,96.46,90.06,0.173432444923741
1967897,2021-08-15,GDOSI,"Gustavo Díaz Ordaz, Sin.","Bacurato, Sin.",Sinaloa,Sinaloa,Pacífico Norte,25.856667,-107.911111,AP/GH/RI,R. Sinaloa,Contr,1981,256,3.5,252.5,2687.074,237.06,1618.751,116,215.82,636.501,0.393205008058682
1967925,2021-08-15,CILAFLCMX,"Internacional Falcón, Tamps.","Falcón, Tamps.",Tamaulipas,Guerrero,Río Bravo,26.560278,-99.170556,AP/RI,R. Bravo,Contr,1953,98.45,0,93.482,1607.962,91.81,1351.63,50,79.76,125.993,0.0932155989434978
1967926,2021-08-15,PSANL,"Salinillas, N.L.","Salinillas, N.L.",Nuevo León,Anáhuac,Río Bravo,27.429167,-100.372222,RI,R. Salado,Libre,1930,0,0,232,19.0109996795654,232,19.0109996795654,10,231.02,14.476,0.761453907947828
1967927,2021-08-15,VCRCL,"Venustiano Carranza, Coah.","Don Martín, Coah.",Coahuila de Zaragoza,Juárez,Río Bravo,27.515,-100.616111,AP/RI,R. Sabinas,Contr,1932,265.8,4.00001,261.799987792969,1322.372,257.38,613.7,38.86,251.95,155.155,0.252818966921949
1967928,2021-08-15,LBCNL,"Rodrigo Gómez, N.L.","La Boca, N.L.",Nuevo León,Santiago,Río Bravo,25.428056,-100.128056,AP,A. La Chueca - San Juan,Contr,1961,450.04,0.839988,449.2000122,42.657,447.55,35,34,445.2,25.243,0.721228571428571
1967929,2021-08-15,CCHNL,"Cuchillo Solidaridad, N.L.","El Cuchillo, N.L.",Nuevo León,China,Río Bravo,25.711667,-99.276944,AP/RI,R. San Juan,Contr,1994,169.2,3,166.660003662109,1784.292,162.35,1123.143,44,157.85,636.262,0.566501327079455
1967930,2021-08-15,MRGTP,"Marte Rodolfo Gómez, Tamps.","El Azúcar, Tamps.",Tamaulipas,Camargo,Río Bravo,26.204722,-98.925556,RI,R. San Juan,Libre,1946,86,3,83,2208.663,76.3,781.7,49,75.97,735.735,0.94119866956633
1967931,2021-08-15,LBLTP,"Derivadora Las Blancas, Tamps.","Las Blancas, Tamps.",Tamaulipas,Mier,Río Bravo,26.408889,-99.233611,RI,R. Sombreretillo,Libre,2000,93.3,1.5,91.80000305,133.43206,89.91999817,83.784,32.38,85.51,29.964,0.357633915783443
1967932,2021-08-15,TNTCH,"El Tintero, Chih.","El Tintero, Chih.",Chihuahua,Buenaventura,Río Bravo,29.5625,-107.384167,RI,R. Santa María,Libre,1950,1712,2.96997,1709.03002929688,216.703002929688,1703,125.074996948242,56,1694.77,47.387,0.378868688036902
1967933,2021-08-15,LJSCH,"Las Lajas, Chih.","Las Lajas, Chih.",Chihuahua,Buenaventura,Río Bravo,29.88,-107.025833,RI,R. El Carmen o Santa Clara,Libre,1964,1563.8,2.18,1561.61999511719,106.546997070312,1558.69995117188,83.265998840332,47,1543.68,11.809,0.141822594630067
1967934,2021-08-15,CPRNL,"José López Portillo, N.L.","Cerro Prieto, N.L.",Nuevo León,Linares,Río Bravo,24.9375,-99.399722,AP,A. Pablillo - Hualauises,Contr,1984,288,2.5,285.5,393,282.52,300,50,268.16,48.833,0.162776666666667
1967935,2021-08-15,TMPTP,"Tampico, Tamps.",Sistema lagunario Chairel,Tamaulipas,Tampico,Golfo Norte,22.238333,-97.876111,,L. El Chairel,Libre,,,0,1.4,854,1,676,,0.71,547,0.809171597633136
1967784,2021-08-15,TEMOX,"Presidente Alemán, Oax.","Temascal, Oax.",Oaxaca,San Miguel Soyaltepec,Golfo Centro,18.232222,-96.412222,GH,R. Papaloapan,Contr,1955,74.79,3.5,68.5,9105.54,66.5,8119.09,76,55.08,3608.08,0.444394630432721
1967785,2021-08-15,CDOOX,"Miguel de la Madrid Hurtado, Oax.","Cerro de Oro, Oax.",Oaxaca,San Lucas Ojitlán,Golfo Centro,17.999167,-96.263611,CA,R. Papaloapan,Contr,1988,75.6,2.8,70.01,3547.16,64.86,2599.51,70,55.61,1297.48,0.49912483506507
1967786,2021-08-15,LDCVC,"Canseco, Ver.","Laguna de Catemaco, Ver.",Veracruz de Ignacio de la Llav,Catemaco,Golfo Centro,18.415833,-95.118333,GH,R. Grande,Contr,1960,334.5,1,333.5,552.7,332.7,493.02,7.2,331.96,438.56,0.889537949778914
1967787,2021-08-15,LCAVC,"La Cangrejera, Ver.","La Crangrejera, Ver.",Veracruz de Ignacio de la Llav,Coatzacoalcos,Golfo Centro,18.109444,-94.330833,AP,R. Teapa,Libre,1980,23.87,2.22,21.6499996185303,31.6000003814697,21.25,28.5370006561279,15.87,17.57,8.653,0.303220373586875
1967788,2021-08-15,PJMTP,"Pedro José Méndez, Tamps.","Pedro J. Méndez, Tamps.",Tamaulipas,Hidalgo,Golfo Norte,24.2475,-99.555833,RI,R. San Juan,Libre,1982,453,3.60001,449.399993896484,38.3600006103516,447.220001220703,31.2600002288818,55,440.85,15.515,0.496321173589287
1967789,2021-08-15,VGRTP,"Vicente Guerrero, Tamps.","Las Adjuntas, Tamps.",Tamaulipas,Padilla,Golfo Norte,23.959444,-98.666389,AP/RI,R. Soto La Marina,Contr,1967,148,4.12001,144.039993286133,5498.22998046875,140.44,3910.69,62,132.43,1470.15,0.375931101672595
1967790,2021-08-15,RSPTP,"República Española, Tamps.","Real Viejo o El Sombrero, Tamps.",Tamaulipas,Aldama,Golfo Norte,23.259444,-97.991944,AP,A. San Pedro,Libre,1974,92,2.57,89.4300003051758,105.98999786377,83,54.7799987792969,30,77.59,17.532,0.320043818741849
1967791,2021-08-15,JLPQT,"Jalpan, Qro.",Jalpan,Querétaro,Jalpan de Serra,Golfo Norte,21.230278,-99.479722,RI/AP,Río Jalpan,Libre,,785,0,784.55,11.2,780.55,8,41,779.37,7.285,0.910625
1967792,2021-08-15,TIESL,"La Muñeca, S.L.P.","La Muñeca, S.L.P.",San Luis Potosí,Tierra Nueva,Golfo Norte,21.629444,-100.548333,AP,R. Jofre,Libre,1981,1843.75,2,1841.75,31,1837.699951,24.14,40.25,1826.7,6.2,0.256835128417564
