idmonitoreodiario,fechamonitoreo,clavesih,nombreoficial,nombrecomun,estado,nommunicipio,regioncna,latitud,longitud,uso,corriente,tipovertedor,inicioop,elevcorona,bordolibre,nameelev,namealmac,namoelev,namoalmac,alturacortina,elevacionactual,almacenaactual,llenano
1862541,2020-04-01,GDLMX,"Sierra de Guadalupe, Méx.","Guadalupe,Méx.",Estado de México,Cuautitlán Izcalli,Aguas del Valle de México,19.635556,-99.252222,RI,R. Cuautitlán,Libre,1936,2308.75,1.92993,2306.820068,64.08,2305.199951,56.91,33,2299.66,35.95,0.631699174134599
1862559,2020-04-01,RODMR,"El Rodeo, Mor.","El Rodeo, Mor.",Morelos,Miacatlán,Balsas,18.765278,-99.331389,RI,R. Tembembe,Libre,1937,1166.5,2.30005,1166.5,33.1370010375977,1164.19995117188,26.9839992523193,8,1156.02,8.056,0.298547295553589
1862583,2020-04-01,ELPSL,"Gonzalo N. Santos, S.L.P.","El Peaje, S.L.P.",San Luis Potosí,San Luis Potosí,Cuencas Centrales del Norte,22.092222,-101.098611,AP,A. Grande o Azul,Libre,1953,2049.6,1.73,2047.87,9.054,2044.849976,6.685,39,2025.53,0.02,0.00299177262528048
1862584,2020-04-01,EPOSL,"El Potosino, S.L.P.","El Potosino, S.L.P.",San Luis Potosí,San Luis Potosí,Cuencas Centrales del Norte,22.099722,-101.078056,RI,A. El Potosino,Libre,1990,2000.85,0.150024,2000.84997558594,5.19899988174438,1996.80004882812,3.29299998283386,30.85,1987.65,0.731,0.22198603213199
1862585,2020-04-01,ELOSL,"Cañada del Lobo, S.L.P.","Cañada del Lobo, S.L.P.",San Luis Potosí,San Luis Potosí,Cuencas Centrales del Norte,22.094722,-100.9675,CA,R. Españita,Libre,1987,1963.7,1.54998,1962.1,2.161,1958.8,1.244,28,1953.74,0.341,0.27411575562701
1862613,2020-04-01,CNSQT,"Constitución de 1917, Qro.","Hidalgo, Qro.",Querétaro,San Juan del Río,Golfo Norte,20.418611,-100.080278,RI,Dren Caracol,Contr,1969,1937,1.55005,1928.39,76.461,1927.06,66.08,35,1912.81,2.542,0.0384685230024213
1862586,2020-04-01,IVGSL,"Valentín Gama, S.L.P.","Ojo Caliente, S.L.P.",San Luis Potosí,Villa de Reyes,Cuencas Centrales del Norte,21.88,-100.820556,RI,R. Santa María,Libre,1970,1789.55,1.45002,1788.09997558594,22.3999996185303,1783.80004882812,9.51000022888184,24,1776.28,0.536,0.0563617231440405
1862587,2020-04-01,ANGCP,"Doctor Belisario Domínguez, Chis.","La Angostura, Chis.",Chiapas,Acala,Frontera Sur,16.401389000000002,-92.778889,GH,R. Grijalva,Contr,1976,543,3.5,539.5,19736.4296875,533,15549.16,147,524.68,10973.1,0.705703716470858
1862588,2020-04-01,CHICP,"Manuel Moreno Torres, Chis.","Chicoasén, Chis.",Chiapas,Osumacinta,Frontera Sur,16.941667,-93.100556,GH,R. Grijalva,Contr,1980,405,7,395,1443.08996582031,392.5,1384.86,261,390.71,1229.249,0.88763412908164
1862589,2020-04-01,MALCP,"Nezahualcóyotl, Chis.","Malpaso, Chis.",Chiapas,Tecpatán,Frontera Sur,17.178611,-93.598889,GH,R. Grijalva o Mezcalapa,Contr,1964,192,4,188,14056.3,182.5,12373.1,138,165.12,7595.75,0.613892233959153
1862590,2020-04-01,JSBCP,"Juan Sabines, Chis.","El Portillo II o Cuxtepeques, Chis.",Chiapas,La Concordia,Frontera Sur,15.996389,-92.898611,RI,R. Cuxtepeques,Libre,1982,620.25,1.97998,618.27001953125,116.110000610352,612.119995117188,68.1500015258789,46,607.18,42.394,0.622068951589114
1862591,2020-04-01,PENCP,"Ángel Albino Corzo, Chis.","Peñitas, Chis.",Chiapas,Ostuacán,Frontera Sur,17.446111,-93.458611,GH,R. Grijalva,Contr,1986,98,5,95.5,1084.741,87.4,396.551,58,86.27,369.728,0.932359267786489
1862592,2020-04-01,NNEPB,"Necaxa, Pue.","Necaxa, Pue.",Puebla,Juan Galindo,Golfo Centro,20.216667,-98.000556,GH,R. Necaxa,Libre,1908,1344,1,1343,39.283,1338,29.055,59,1336.21,25.732,0.885630700395801
1862593,2020-04-01,TENPB,"Tenango, Pue.","Tenango, Pue.",Puebla,Huauchinango,Golfo Centro,20.199444,-97.983333,GH,R. Coacuila,Libre,1912,1353,2,1351.4,46.576,1345.6,28.479,39,1338.21,11.902,0.417921977597528
1862595,2020-04-01,LLAHD,"La Laguna, Hgo.","Tejocotal, Pue.",Hidalgo,Acaxochitlán,Golfo Centro,20.135556,-98.128333,RI,A. Huitzilin,Libre,1903,2185,1,2184.5,49.227,2183,40.638,19,2175.67,7.039,0.17321226438309
1862596,2020-04-01,LREHD,"Los Reyes, Hgo.","Omiltepec, Pue.",Hidalgo,Acaxochitlán,Golfo Centro,20.174722,-98.131944,RI,R. Omiltepec,Libre,1913,2168.5,1.5,2167,29.263,2165,24.031,30,2155.67,5.113,0.212766842828014
1862597,2020-04-01,SOLPB,"La Soledad, Pue.","La Soledad, Pue.",Puebla,Tlatlauquitepec,Golfo Centro,19.960833,-97.446667,GH,R. Apulco y Xiucayucan,Contr,1962,806.5,1.5,805,14.978,804.5,13.9,91.5,798.09,4.224,0.303884892086331
1862598,2020-04-01,PEMVC,"El Moralillo, Ver.",Piedra Labrada,Veracruz de Ignacio de la Llav,Tepetzintla,Golfo Centro,21.184444,-97.814444,Agua Potable,Río Buenavista,Libre,1998,116,0,115.94,8.126,110.78,2.5,15.5,110.21,2.123,0.8492
1862599,2020-04-01,TEMOX,"Presidente Alemán, Oax.","Temascal, Oax.",Oaxaca,San Miguel Soyaltepec,Golfo Centro,18.232222,-96.412222,GH,R. Papaloapan,Contr,1955,74.79,3.5,68.5,9105.54,66.5,8828.25,76,60.19,5377.07,0.60907541132161
1862600,2020-04-01,CDOOX,"Miguel de la Madrid Hurtado, Oax.","Cerro de Oro, Oax.",Oaxaca,San Lucas Ojitlán,Golfo Centro,17.999167,-96.263611,CA,R. Papaloapan,Contr,1988,75.6,2.8,72.80000305,4117.45,64.86,2599.51,70,60.37,1896.07,0.729395155240795
1862601,2020-04-01,LDCVC,"Canseco, Ver.","Canseco, Ver.",Veracruz de Ignacio de la Llav,Catemaco,Golfo Centro,18.415833,-95.118333,GH,R. Grande,Contr,1960,334.5,1,333.5,252.7,332.7,193.02,7.2,332.01,142.2,0.736711221635064
1862602,2020-04-01,LCAVC,"La Cangrejera, Ver.","La Crangrejera, Ver.",Veracruz de Ignacio de la Llav,Coatzacoalcos,Golfo Centro,18.109444,-94.330833,AP,R. Teapa,Libre,1980,23.87,2.22,21.6499996185303,31.6000003814697,21.25,28.5370006561279,15.87,19.7,18.561,0.650418739644745
1862603,2020-04-01,PJMTP,"Pedro José Méndez, Tamps.","Pedro J. Méndez, Tamps.",Tamaulipas,Hidalgo,Golfo Norte,24.2475,-99.555833,RI,R. San Juan,Libre,1982,453,3.60001,449.399993896484,38.3600006103516,447.220001220703,31.2600002288818,55,442.89,19.758,0.632053738174484
1862604,2020-04-01,VGRTP,"Vicente Guerrero, Tamps.","Las Adjuntas, Tamps.",Tamaulipas,Padilla,Golfo Norte,23.959444,-98.666389,AP/RI,R. Soto La Marina,Contr,1971,148,4.12001,144.039993286133,5498.22998046875,140.44,3910.69,62,135.07,2129.12,0.544435892387277
1862605,2020-04-01,RSPTP,"República Española, Tamps.","Real Viejo o El Sombrero, Tamps.",Tamaulipas,Aldama,Golfo Norte,23.259444,-97.991944,AP,A. San Pedro,Libre,1974,92,2.57,89.4300003051758,105.98999786377,83,54.7799987792969,30,78.54,22.595,0.412468063225649
1862606,2020-04-01,JLPQT,"Jalpan, Qro.",Jalpan,Querétaro,Jalpan de Serra,Golfo Norte,21.230278,-99.479722,Riego y A. Pot.,Río Jalpan,Libre,1976,785,0,784.55,11.2,780.55,8,41,777.24,5.82,0.7275
1862607,2020-04-01,TIESL,"La Muñeca, S.L.P.","La Muñeca, S.L.P.",San Luis Potosí,Tierra Nueva,Golfo Norte,21.629444,-100.548333,AP,R. Jofre,Libre,1981,1843.75,2,1841.75,31,1837.699951,24.14,40.25,1829.75,9.808,0.406296603148302
1862608,2020-04-01,ZMPHD,"Ing. Fernando Hiriart Balderrama, Hgo.","Zimapán, Hgo.",Hidalgo,Zimapán,Golfo Norte,20.663333,-99.501111,GH,R. Moctezuma,Contr,1990,1565,2,1563,1460,1560,1390,203,1554.25,1289.52,0.927712230215827
1862609,2020-04-01,CHYVC,"Paso de Piedras, Ver.","Chicayán, Ver.",Veracruz de Ignacio de la Llav,Pánuco,Golfo Norte,21.7375,-98.155833,RI,R. Chicayán,Contr,1977,32.25,3.97,28.28,572.32,23.07,220,34,19.67,91.473,0.415786363636364
1862610,2020-04-01,ERCTP,"Estudiante Ramiro Caballero Dorantes, Tamps.","Las Ánimas, Tamps.",Tamaulipas,González,Golfo Norte,22.605,-98.691667,AP/RI,A. Las Ánimas,Libre,1976,55,2.45,52.55,654.37,51.7,563.443,31.2,47.84,252.332,0.447839444273866
1862611,2020-04-01,SLZTP,"Lic. Emilio Portes Gil, Tamps.","San Lorenzo, Tamps.",Tamaulipas,Xicoténcatl,Golfo Norte,22.943889,-98.791389,AP/RI,A. El Sargento,Libre,1983,125,1.1,123.9000015,255.65,122.9499969,230.78,50.4,115.32,102.416,0.443781956842014
1862612,2020-04-01,IDFQT,"San Ildefonso, Qro.","El Tepozán, Qro.",Querétaro,Amealco de Bonfil,Golfo Norte,20.198611,-99.9625,RI,R. San Juan,Libre,1942,2261.93,1.87,2242.5,58.026,2239,47.812,62.7,2207,0,0
1862614,2020-04-01,VNTQT,"La Venta, Qro.","La Venta, Qro.",Querétaro,Pedro Escobedo,Golfo Norte,20.498611,-100.190556,RI,Dren Culebra,Libre,1907,1896,0.619946,1907.68005371094,3.77699995040894,1906.68005371094,2.47900009155273,4.3,1904,0,0
1862615,2020-04-01,LLAQT,"La Llave, Qro.","Divino Redentor, Qro.",Querétaro,San Juan del Río,Golfo Norte,20.461944,-99.994722,RI,Dren Culebra,Libre,1885,0,0.0500244,1891.09997558594,14.4139995574951,1890,9.3120002746582,5,1887.5,0,0
1862616,2020-04-01,CNTQT,"El Centenario, Qro.","El Centenario, Qro.",Querétaro,Tequisquiapan,Golfo Norte,20.513333,-99.897778,RI,R. San Juan,Mixto,1910,1898,0.51001,1882.5,14.178,1881.55,9.781,13,1879.04,3.033,0.310090992741028
1862617,2020-04-01,PNDMX,"Ñadó, Méx.","Ñadó, Méx.",Estado de México,Aculco,Aguas del Valle de México,20.038611,-99.864444,RI,R. Ñadó,Libre,1981,2477.5,2,2475.5,18.5,2474,16.7999992370605,52.5,2460.84,5.22,0.310714299824774
1862618,2020-04-01,HPNMX,"Huapango, Méx.","Huapango, Méx.",Estado de México,Timilpan,Aguas del Valle de México,20.046389,-99.696944,RI,R. Huapango,Libre,1765,2513,0.199951,2512.8,126.5,2512.65,121.3,14,2507.6,2.925,0.0241137675185491
1862619,2020-04-01,PMNMX,"El Molino, Méx.","El Molino, Méx.",Estado de México,Aculco,Aguas del Valle de México,20.124167,-99.739722,RI,A. Zarco,Libre,1880,2491,0,2385.09,8.7,2384.39,7.686,12,2378.9,0.864,0.112412177985948
1862620,2020-04-01,PERHD,"La Esperanza, Hgo.","La Esperanza, Hgo.",Hidalgo,Cuautepec de Hinojosa,Golfo Norte,20.0575,-98.334722,RI,R. Santa María,Libre,1943,2210.6,0.999902,2209.60009765625,4.19999980926514,2207.69995117188,3.92000007629395,28.7,2206.45,3.433,0.875765289077656
1862621,2020-04-01,DNXMX,"Danxhó, Méx.","Danxhó, Méx.",Estado de México,Jilotepec,Aguas del Valle de México,19.884722,-99.559722,RI,R. Coscomate,Libre,1949,2455.6,0.470117,2455.13,32.67,2454,31.046,31,2450.37,16.825,0.541937769761
1862622,2020-04-01,SBBMX,"José Antonio Alzate, Méx.","San Bernabé, Méx.",Estado de México,Temoaya,Lerma-Santiago-Pacífico,19.465833,-99.704722,RI,R. Lerma,Libre,1962,2567,1.58008,2566.919921875,52.5089988708496,2565.5,35.3120002746582,24,2559.5,4.07,0.11525826824715
1862623,2020-04-01,PIRMX,"Ignacio Ramírez, Méx.","La Gavia, Méx.",Estado de México,Almoloya de Juárez,Lerma-Santiago-Pacífico,19.461667,-99.775,RI,R. La Gavia,Libre,1965,2553.76,3.28002,2550.47998046875,36.2999992370605,2548.44,20.227,23.5,2547.74,15.775,0.779898155930192
1862624,2020-04-01,TPTMX,"San Andrés Tepetitlán, Méx.","Tepetitlán,Méx.",Estado de México,San Felipe del Progreso,Lerma-Santiago-Pacífico,19.660833,-99.961389,RI,R. San José,Libre,1964,2597.38,2.92004,2594.4599609375,81.0289993286133,2592.02001953125,59.9659996032715,35,2588.8,37.448,0.62448721355021
1862625,2020-04-01,TEPMC,"Tepuxtepec, Mich.","Tepuxtepec, Mich.",Michoacán de Ocampo,Contepec,Lerma-Santiago-Pacífico,20.000278,-100.229167,GH/RI,R. Lerma,Contr,1930,2352,2,2350,537.527,2347.56,425.2,47,2342.86,248.62,0.584713076199436
1862626,2020-04-01,SLSGJ,"Solís, Gto.","Solis, Gto.",Guanajuato,Acámbaro,Lerma-Santiago-Pacífico,20.055278,-100.669722,RI,R. Lerma,Contr,1949,1901.7,3,1898.7,1214.14,1892.54,800,56.7,1890.05,656.476,0.820595
1862627,2020-04-01,PFBMX,"Francisco José Trinidad Fabela, Méx.","Islas de las Aves o El Salto, Méx.",Estado de México,Atlacomulco,Lerma-Santiago-Pacífico,19.829167,-99.790278,RI,R. Del Salto,Libre,1945,2697.5,1.69995,2697.800049,12.32,2696.699951,9.93,19.15,2691.02,1.79,0.180261832829809
1862628,2020-04-01,LDYGJ,"Laguna de Yuriria, Gto.","Bordo de Tavamatacheo, Gto.",Guanajuato,Yuriria,Lerma-Santiago-Pacífico,20.286944,-101.073056,RI,R. Lerma,Contr,1550,0,0,1731.40002441406,325.195007324219,1730.92,278.79,10,1729.06,118.273,0.424236880806342
1862629,2020-04-01,TMUMC,"Tercer Mundo, Mich.","Chincua, Mich.",Michoacán de Ocampo,Senguio,Lerma-Santiago-Pacífico,19.766389,-100.299167,RI,R. Chincua,Libre,1959,2431.2,2.41992,2428.580078125,17.3320007324219,2427.580078125,14.9720001220703,32,2421.94,4.651,0.310646537675613
1862630,2020-04-01,COIMC,"Coíntzio, Mich.","Cointzio, Mich.",Michoacán de Ocampo,Morelia,Lerma-Santiago-Pacífico,19.629722,-101.259167,AP/RI,R. Grande de Morelia,Contr,1939,1997,1.50005,2001.31994628906,79.2330017089844,1999.47,68.52,46,1993.56,40.328,0.58855808523059
1862631,2020-04-01,MLPMC,"Malpaís, Mich.","La Ciénega, Mich.",Michoacán de Ocampo,Queréndaro,Lerma-Santiago-Pacífico,19.829167,-100.873611,RI,R. Querendaro,Mixto,1938,1830.96,1,1843.56,27.249,1842.530029,18.512,7,1841.8,13.385,0.723044511668107
1862632,2020-04-01,PRSGJ,"La Purísima, Gto.","La Purísima, Gto.",Guanajuato,Guanajuato,Lerma-Santiago-Pacífico,20.867222,-101.287778,RI,R. Guanajuato,Contr,1979,1863,0,1860.7,181.926,1853.47,110,43,1846.18,56.191,0.510827272727273
1862633,2020-04-01,SLDGJ,"La Soledad, Gto.","La Soledad, Gto.",Guanajuato,Guanajuato,Lerma-Santiago-Pacífico,21.04,-101.279722,AP,R. Santa Ana,Libre,1956,2211.4,2.2501,2209.14990234375,2.37100005149841,2207.75,1.857,51,2206.77,1.524,0.820678513731826
1862634,2020-04-01,EPLGJ,"El Palote, Gto.","El Palote, Gto.",Guanajuato,León,Lerma-Santiago-Pacífico,21.173611,-101.678889,AP,R. De Los Gómez,Libre,1954,1839.5,0.9,1838.6,17.161,1836.15,9.643,20.5,1834.21,4.818,0.499637042414186
1862635,2020-04-01,GLNGJ,"La Golondrina, Gto.","La Golondrina,Gto.",Guanajuato,Pénjamo,Lerma-Santiago-Pacífico,20.439167,-101.7425,RI,R. Penjamo,Libre,1968,1838.7,1.58,1837.11999511719,5.96999979019165,1835.19995117188,4.67000007629395,45.7,1830.52,2.276,0.487366159061437
1862687,2020-04-01,BBAJL,"Basilio Vadillo, Jal.","Las Piedras, Jal.",Jalisco,El Limón,Lerma-Santiago-Pacífico,19.913611,-104.061111,RI,R. Tuxcacuesco,Libre,1973,982.8,2.7,978.97,146.888,974.35,124.75,96,969.9,105.098,0.84246893787575206
1862688,2020-04-01,TMLJL,"Ramón Corona Madrigal General, Jal.","Trigomil, Jal.",Jalisco,Ayutla,Lerma-Santiago-Pacífico,19.976111,-104.370278,RI,R. Ayuquila,Libre,1993,1209.34,2.94001,1209.35998535156,324,1201.40002441406,250,107,1199.26,231.885,0.92754
1862689,2020-04-01,CRNJL,"Corrinchis, Jal.",Corrinchis,Jalisco,Mascota,Lerma-Santiago-Pacífico,20.479722,-104.780833,Riego,Río Mascota,Libre,1977,1337,0,1336.1,29,1332.6,20,38,1331.61,17.317,0.86585
1862690,2020-04-01,VEGJL,"Ing. Santiago Camarena, Jal.","La Vega, Jal.",Jalisco,Teuchitlán,Lerma-Santiago-Pacífico,20.596389,-103.845833,RI,R. Ameca,Libre,1956,1261,2.14001,1258.85998535156,80,1257,44.0349998474121,18,1257.39,52.209,1.18562507507465
1862691,2020-04-01,LDACM,"Laguna de Amela, Col.","Tecomán, Col.",Colima,Tecomán,Lerma-Santiago-Pacífico,18.809167,-103.774167,RI,Canal Bajo Amela y Dren Zanja,Libre,1963,10.89,3.25,7.64,41.3,7.39,38.343,6.35,7.2,36.118,0.941971155100018
1862692,2020-04-01,TRJCM,"Solidaridad, Jal.","Trojes, Jal.",Jalisco,Pihuamo,Lerma-Santiago-Pacífico,18.967222,-103.396667,RI,R. El Cajón,Libre,1994,303.6,0,301.11,285.742,292.37,203.388,87,288.39,172.778,0.849499478828643
1862693,2020-04-01,CPEJL,"Cajón de Peña, Jal.","Tomatlán, Jal.",Jalisco,Tomatlán,Lerma-Santiago-Pacífico,19.9975,-105.129722,RI,R. Tomatlán,Contr,1976,142,2.8,139.2,707.62,130.37,466.693,68,128.82,430.184,0.921770842931006
1862694,2020-04-01,VCVJL,"Vicente C. Villaseñor, Jal.","Valle de Juárez, Jal.",Jalisco,Valle de Juárez,Lerma-Santiago-Pacífico,19.939722,-102.941667,RI,R. Quitupan,Libre,1950,1880,2,1878,18.1200008392334,1877,14.4399995803833,18,1875.84,10.316,0.714404452893078
1862695,2020-04-01,LCDSO,"Lázaro Cárdenas, Son.","La Angostura, Son.",Sonora,Nacozari de García,Noroeste,30.437778,-109.378889,RI,R. Bavispe,Libre,1942,843.75,3.59998,840.150024414062,1116.4599609375,830.700012207031,703.380004882812,91.75,832,753.708,1.07155164316275
1862696,2020-04-01,PECSO,"Plutarco Elías Calles, Son.","El Novillo, Son.",Sonora,Soyopa,Noroeste,28.976667,-109.642222,GH,R. Yaqui,Contr,1964,297.8,1.00001,296.799987792969,3511.964,290.5,2833.07,133.8,289.39,2725.38,0.961988231847431
1862697,2020-04-01,AOBSO,"Álvaro Obregón, Son.","Oviachic, Son.",Sonora,Cajeme,Noroeste,27.8225,-109.8925,AP/GH/RI,R. Yaqui,Libre,1952,115.1,2.9,112.1999969,4478.215,105.5,3023.14,90,92.54,1187.96,0.392955668609459
1862698,2020-04-01,AGZCH,"Abraham González, Chih.","Guadalupe, Chih.",Chihuahua,Guerrero,Noroeste,28.481667,-107.482778,RI,R. Papigochi,Libre,1961,2052.9,1.59995,2051.30004882812,102.891,2047.80004882812,79.354,41.9,2047.27,75.997,0.957695894346851
1862699,2020-04-01,IRASO,"Ignacio R. Alatorre, Son.","Punta de Agua, Son.",Sonora,Guaymas,Noroeste,28.426389,-110.396944,RI,R. San Marcial o Mátape,Libre,1972,105,2.29,102.709999084473,29.6900005340576,100,16.1599998474121,30,92.54,0.306,0.0189356437431528
1862700,2020-04-01,ARCSO,"Adolfo Ruíz Cortínes, Son.","Mocúzari, Son.",Sonora,Alamos,Noroeste,27.226111,-109.106667,AP/GH/RI,R. Mayo,Mixto,1955,148,2.53,145.4700012,1822.141,136.3,1039.61,88.5,122.8,349.139,0.335836515616433
1862701,2020-04-01,CHTSO,"Cuauhtémoc, Son.","Santa Teresa, Son.",Sonora,Tubutama,Noroeste,30.873333,-111.516389,RI,R. Altar,Libre,1950,603,2.75,600.25,66.3300018310547,597,41.4700012207031,57.2,590.36,11.287,0.272172646919653
1862702,2020-04-01,AGCSO,"Agua Caliente, Son.",Dique 10,Sonora,Cajeme,Noroeste,27.75,-109.887778,Riego,Canal Alto Oviachic,Libre,1991,100.85,0,79.6,41.16,79.1,37.58,8.35,78.94,36.421,0.969159127195317
1862703,2020-04-01,ARLSO,"Abelardo Rodríguez Luján, Son.","Hermosillo, Son.",Sonora,Hermosillo,Noroeste,29.076667,-110.92,AP,R. Sonora,Contr,1948,231.6,3.20001,228.399993896484,284.470001220703,226.98,219.52,36,218.24,16.286,0.074189139941691
1862704,2020-04-01,PMOSO,"Ing. Rodolfo Félix Valdés, Son.","El Molinito, Son.",Sonora,Hermosillo,Noroeste,29.2125,-110.725556,AP,R. Sonora,Libre,1991,295.4,2.00001,293.4,222.47,289.36,121.202,31.4,282.27,30.198,0.249154304384416
1862705,2020-04-01,CRRBN,"El Carrizo, B.C.","El Carrizo, B.C.",Baja California,Tijuana,Península de Baja California,32.479444,-116.696944,AP,A. Carrizo,Libre,1978,288.34,2.12,286.220001220703,44.5849990844727,284.700012207031,40.8660011291504,55.8,277.46,25.468,0.623207539184284
1862706,2020-04-01,ALRBN,"Abelardo L. Rodríguez, B.C.","Tijuana, B.C.",Baja California,Tijuana,Península de Baja California,32.444722,-116.908333,AP,R. Tijuana,Contr,1937,127,2,125,121.392,115.85,76.9,72,97.13,14.898,0.193732119635891
1862707,2020-04-01,AURBN,"Las Auras, B.C.",,Baja California,Tecate,Península de Baja California,32.544722,-116.531667,A. Pot.,A. Las Auras,Libre,2014,822,0,822,5.1,820,5.01,40,814.76,2.877,0.574251497005988
1862708,2020-04-01,ELZBN,"Emilio López Zamora, B.C.","Ensenada, B.C.",Baja California,Ensenada,Península de Baja California,31.890278,-116.6025,AP,A. Ensenada,Libre,1978,27,1.74,25.2600002288818,6.34200000762939,19.8899993896484,2.73200011253357,34,20.45,2.988,1.09370420092297
1862709,2020-04-01,LDCSI,"Luis Donaldo Colosio, Sin.","Huites, Sin.",Sinaloa,Choix,Pacífico Norte,26.844722,-108.367778,GH,R. Fuerte,Contr,1995,290.75,0.75,290,4568,274,3202.9,164.75,263.97,2505.39,0.78222548315589
1862710,2020-04-01,PMHSI,"Miguel Hidalgo, Sin.","El Mahoné, Sin.",Sinaloa,El Fuerte,Pacífico Norte,26.509722,-108.58,AP/GH/RI,R. Fuerte,Mixto,1956,151.4,3.4,148,4171.273,142.36,3312.89,81,130.96,1886.35,0.569397112490907
1862711,2020-04-01,JORSI,"Josefa Ortiz de Domínguez, Sin.","El Sabino, Sin.",Sinaloa,El Fuerte,Pacífico Norte,26.426944,-108.7025,AP/RI,A. Alamos,Contr,1967,113.5,2.93,112.6500015,685.11,109.5,519.28,44,104.57,304.92,0.587197658296102
1862712,2020-04-01,GDOSI,"Gustavo Díaz Ordaz, Sin.","Bacurato, Sin.",Sinaloa,Sinaloa,Pacífico Norte,25.856667,-107.911111,AP/GH/RI,R. Sinaloa,Contr,1981,256,3.5,252.5,2687.074,237.06,1618.751,116,220.32,796.12,0.491811279189943
1862713,2020-04-01,GBESI,"Ing. Guillermo Blake Águilar, Sin.","El Sabinal, Sin.",Sinaloa,Sinaloa,Pacífico Norte,26.103056,-108.3275,AP/RI,A. Ocoroni,Libre,1985,201.2,4.59,196.6100006,469.2,188.4499969,294.578,81.2,170.64,77.388,0.26270800942365
1862741,2020-04-01,PSANL,"Salinillas, N.L.","Salinillas, N.L.",Nuevo León,Anáhuac,Río Bravo,27.429167,-100.372222,RI,R. Salado,Libre,1930,0,0,232,19.0109996795654,232,19.0109996795654,10,230.56,12.508,0.657934890896065
1862742,2020-04-01,VCRCL,"Venustiano Carranza, Coah.","Don Martín, Coah.",Coahuila de Zaragoza,Juárez,Río Bravo,27.515,-100.616111,AP/RI,R. Sabinas,Contr,1932,265.8,4.00001,261.799987792969,1322.372,259.24,874.104,38.86,254.84,349.33,0.399643520679461
1862743,2020-04-01,LBCNL,"Rodrigo Gómez, N.L.","La Boca, N.L.",Nuevo León,Santiago,Río Bravo,25.428056,-100.128056,AP,A. La Chueca - San Juan,Contr,1961,450.04,0.839988,449.2000122,42.657,448.54,39.49,34,445.59,26.708,0.676323119777159
1862744,2020-04-01,CCHNL,"Cuchillo Solidaridad, N.L.","El Cuchillo, N.L.",Nuevo León,China,Río Bravo,25.711667,-99.276944,AP/RI,R. San Juan,Contr,1994,169.2,3,166.660003662109,1784.292,162.35,1123.143,44,158.42,689.68,0.614062501391185
1862745,2020-04-01,MRGTP,"Marte Rodolfo Gómez, Tamps.","El Azúcar, Tamps.",Tamaulipas,Camargo,Río Bravo,26.204722,-98.925556,RI,R. San Juan,Libre,1946,86,3,83,2208.663,76.3,781.7,49,74.9,597.983,0.764977612894972
1862746,2020-04-01,LBLTP,"Derivadora Las Blancas, Tamps.","Las Blancas, Tamps.",Tamaulipas,Mier,Río Bravo,26.408889,-99.233611,RI,R. Sombreretillo,Libre,2000,93.3,1.5,91.80000305,133.43206,89.91999817,83.784,32.38,85.52,30.086,0.359090041057958
1862747,2020-04-01,TNTCH,"El Tintero, Chih.","El Tintero, Chih.",Chihuahua,Buenaventura,Río Bravo,29.5625,-107.384167,RI,R. Santa María,Libre,1950,1712,2.96997,1709.03002929688,216.703002929688,1703,125.074996948242,56,1699.42,85.103,0.680415767151422
1862748,2020-04-01,LJSCH,"Las Lajas, Chih.","Las Lajas, Chih.",Chihuahua,Buenaventura,Río Bravo,29.88,-107.025833,RI,R. El Carmen o Santa Clara,Libre,1964,1563.8,2.18,1561.61999511719,106.546997070312,1558.69995117188,83.265998840332,47,1557,71.26,0.855811507607633
1862749,2020-04-01,CPRNL,"José López Portillo, N.L.","Cerro Prieto, N.L.",Nuevo León,Linares,Río Bravo,24.9375,-99.399722,AP,A. Pablillo - Hualauises,Contr,1984,288,2.5,285.5,393,282.52,300,50,272.77,100.286,0.334286666666667
1862750,2020-04-01,TMPTP,"Tampico, Tamps.",Sistema lagunario Chairel,Tamaulipas,Tampico,Golfo Norte,22.238333,-97.876111,,L. El Chairel,Libre,,,0,1.4,854,1,676,,0.62,507,0.75
1862594,2020-04-01,NEXPB,"Nexapa, Pue.","Nexapa, Pue.",Puebla,Tlaola,Golfo Centro,20.168333,-97.984722,GH,R. Nexapa,Libre,1912,1364,1,1362.35,15.313,1360,12.5,44,1351.92,3.781,0.30248
1862556,2020-04-01,VBRMX,"Valle de Bravo, Méx.","Valle de Bravo, Méx.",Estado de México,Valle de Bravo,Balsas,19.2075,-100.18,AP,R. Valle de Bravo,Libre,1947,1835.37,2.5,1833,449.42,1830,394.39,56,1827.17,344.762,0.874165166459596
1862557,2020-04-01,VVCMX,"Villa Victoria, Méx.","Villa Victoria,Méx.",Estado de México,Villa Victoria,Balsas,19.461667,-100.055556,AP,R. San Juan Malacate,Libre,1944,2561.96,0,2607.5,249.943,2605.5,185.723,19,2603.1,120.519,0.648918012308653
1862558,2020-04-01,EGLGR,"El Gallo, Gro.","El Gallo, Gro.",Guerrero,Cutzamala de Pinzón,Balsas,18.703056,-100.671111,GH/RI,R. Cutzamala,Libre,1998,370.5,2.5,368,545.966003417969,362.779998779297,400.039001464844,67.5,359.93,333.48,0.833618719122083
1862560,2020-04-01,LDTGR,"Laguna de Tuxpan, Gro.","Laguna de Tuxpan, Gro.",Guerrero,Iguala de la Independencia,Balsas,18.363333,-99.503056,RI,Antiguo canal de riego,Libre,1937,744.75,0,743.349975585938,19.5030002593994,742.840026855469,17.6469993591309,8,741.65,13.47,0.763302572061941
1862561,2020-04-01,AFIGR,"Andrés Figueroa, Gro.","Las Garzas, Gro.",Guerrero,Ajuchitlán del Progreso,Balsas,18.075833,-100.5175,RI,R. Ajuchitán,Libre,1984,385,2.39001,382.6099854,133.029,377,102.5,72.5,367.92,64.88,0.632975609756098
1862562,2020-04-01,VTRGR,"Valerio Trujano, Gro.","Tepecoacuilco, Gro.",Guerrero,Tepecoacuilco de Trujano,Balsas,18.295833,-99.466111,AP/RI,R. Tepecoacuilco,Libre,1964,844.3,1.51997,842.7800293,51.727,840,31.014,33.3,836.36,14.151,0.456277810021281
1862563,2020-04-01,VGRGR,"Vicente Guerrero, Gro.","Palos Altos, Gro.",Guerrero,Arcelia,Balsas,18.382778,-100.265833,AP/RI,R. Poliutla,Libre,1968,433,2.70001,430.299987792969,300,425,249.49,67.5,417.71,169.6,0.679786765000601
1862564,2020-04-01,LCLGR,"La Calera, Gro.","La Calera, Gro.",Guerrero,Zirándaro,Balsas,18.418611,-101.003056,RI,R. Chiquito o El Oro,Libre,1967,124.3,1.68,122.6200027,34.1928,118,9.393,31.8,117.1,6.892,0.733737889918024
1862565,2020-04-01,ECAGR,"Ing. Carlos Ramírez Ulloa, Gro.","El Caracol, Gro.",Guerrero,General Heliodoro Castillo,Balsas,17.947778,-99.995556,GH,R. Balsas,Contr,1986,526,2.4,523.6,1202.398,521,1084.85,126,520.34,1055.77,0.973194450845739
1862566,2020-04-01,LOLMC,"Los Olivos, Mich.","Los Olivos, Mich.",Michoacán de Ocampo,Tepalcatepec,Balsas,19.210833,-102.865556,RI,Los Otates,Libre,1961,423,2,421,16.2709999084473,418,10.2620000839233,37,416.83,8.474,0.825764951344674
1862567,2020-04-01,SJUMC,"San Juanico, Mich.","La Laguna, Mich.",Michoacán de Ocampo,Cotija,Balsas,19.839444,-102.651389,RI,R. Cotija,Libre,1950,1574.6,0,1604.56,71.69,1603.86,60.545,5.7,1602.44,42.457,0.701247006358907
1862568,2020-04-01,CHLMC,"Constitución de Apatzingán, Jal.","Chilatán, Jal.",Jalisco,Jilotlán de los Dolores,Balsas,19.287778,-102.774167,RI,R. Grande,Libre,1989,440,2.32001,437.679992675781,807.150024414062,429.450012207031,590.025024414062,107,419.73,393.972,0.667720831656662
1862569,2020-04-01,ZICMC,"Zicuirán, Mich.","La Peña, Mich.",Michoacán de Ocampo,La Huacana,Balsas,18.921111,-101.931944,RI,R. Zicuirán,Libre,1957,302.75,1.31,301.440002441406,47.4850006103516,299,36.2939987182617,46,295.44,23.103,0.636551518595152
1862570,2020-04-01,INFMC,"Infiernillo, Mich.","Infiernillo, Mich.",Guerrero,Arteaga,Balsas,18.266667,-101.883333,GH,R. Balsas,Contr,1964,184,0.8,183.2,13567.65,169,8303,151.5,161.77,7038.649,0.84772359388173
1862571,2020-04-01,VILMC,"José María Morelos y Pavón, Mich.","La Villita, Mich.",Michoacán de Ocampo,Lázaro Cárdenas,Balsas,18.048333,-102.180278,AP/GH/RI,R. Balsas,Contr,1968,59.73,3,56.73,686.94,51.2,545.92,73,50.49,508.908,0.932202520515827
1862572,2020-04-01,LCRDR,"Lázaro Cárdenas, Dgo.","El Palmito, Dgo.",Durango,Indé,Cuencas Centrales del Norte,25.594167,-105.015833,RI,R. Nazas,Contr,1946,1635,3,1632,4278.541,1622.46,2957.608,100,1612.58,1949.83,0.659259103978621
1862573,2020-04-01,FZRDR,"Francisco Zarco, Dgo.","Las Tórtolas, Dgo.",Durango,Cuencamé,Cuencas Centrales del Norte,25.270833,-103.773611,RI,R. Nazas,Contr,1968,1213,2.94995,1210.05004882812,383.160003662109,1208.2,309.24,39.5,1203.1,154.633,0.500042038546113
1862574,2020-04-01,LNRDR,"Los Naranjos, Dgo.","Los Naranjos, Dgo.",Durango,General Simón Bolívar,Cuencas Centrales del Norte,24.613056,-103.306944,RI,R. Santa Clara,Libre,1985,1663,1.91003,1661.08996582031,27.3899993896484,1658.40002441406,20.928,48,1651.8,9.318,0.445240825688073
1862575,2020-04-01,TGRDR,"El Tigre, Dgo.",El Tigre,Durango,San Juan de Guadalupe,Cuencas Centrales del Norte,24.563056,-102.785,Riego,Arroyo El Tigre,Libre,2007,1581.62,0,1580.12,18.56,1576.92,14,34.5,1564.88,2.087,0.149071428571429
1862576,2020-04-01,SGOZC,"Santiago, Zac.",Santiago,Zacatecas,Miguel Auza,Cuencas Centrales del Norte,24.288611,-103.506111,Riego,Río Santiago,Libre,1994,2001.8,0,2000.26,11.421,1997.26,6.2,25.6,1993.91,2.324,0.374838709677419
1862577,2020-04-01,ELCZC,"El Cazadero, Zac.","El Cazadero, Zac",Zacatecas,Río Grande,Cuencas Centrales del Norte,23.693333,-103.098333,RI,R. Aguanaval,Libre,1964,1920.12,1.50006,1919.93994140625,44.6800003051758,1916,22.17799949646,27.12,1910.71,4.443,0.200333668539815
1862578,2020-04-01,LREZC,"Gobernador Leobardo Reynoso, Zac.","Trujillo, Zac.",Zacatecas,Fresnillo,Cuencas Centrales del Norte,23.18,-103.216944,RI,R. San Francisco o Los Lazos,Libre,1949,2131.85,2.31997,2129.53,125.921,2127.35,95.717,40.34,2121.39,40.113,0.419079160441719
1862579,2020-04-01,STRZC,"Santa Rosa, Zac.","Santa Rosa, Zac.",Zacatecas,Fresnillo,Cuencas Centrales del Norte,22.923611,-103.108889,RI,A. El Arenal,Libre,1937,2250.19,0.550107,2249.63989257812,14.0410003662109,2248.63989257812,10.4759998321533,15,2248.42,9.744,0.930126017193448
1862580,2020-04-01,APRDR,"Ing. Benjamín Ortega Cantero, Dgo.","Agua Puerca, Dgo.",Durango,Hidalgo,Cuencas Centrales del Norte,26.226389,-104.493889,RI,A. Grande del Derrame,Libre,1984,1436.4,2.30002,1434.09997558594,56.060001373291,1430.19995117188,30.764,34.8,1423.9,7.496,0.243661422441815
1862581,2020-04-01,VHGDR,"Villa Hidalgo, Dgo.","Villa Hidalgo, Dgo.",Durango,Hidalgo,Cuencas Centrales del Norte,26.2425,-104.928889,RI,A. Cerro Gordo,Libre,1977,1731.28,1.73,1729.55,39.555,1726.23,23.08,34.2,1721.56,8.621,0.373526863084922
1862582,2020-04-01,SNJSL,"San José, S.L.P.","San José, S.L.P.",San Luis Potosí,San Luis Potosí,Cuencas Centrales del Norte,22.150278,-101.054444,AP,R. Santiago,Libre,1903,1955.5,0.359985,1933.7,5.656,1933.3,5.223,32,1925.87,0.826,0.158146659008233
1862636,2020-04-01,MOCMC,"Melchor Ocampo, Mich.","El Rosario, Mich.",Michoacán de Ocampo,Angamacutiro,Lerma-Santiago-Pacífico,20.127222,-101.724444,RI,R. Angúlo,Libre,1972,1716.5,2.08997,1714.41003417969,249.843002319336,1711.90002441406,194.453994750977,34,1709.52,146.96,0.755757166049488
1862637,2020-04-01,AMEMC,"Aristeo Mercado, Mich.","Wilson ,Mich.",Michoacán de Ocampo,Jiménez,Lerma-Santiago-Pacífico,19.926111,-101.661111,RI,A. sin nombre,Libre,1926,1999.83,6.03,1993.8,28.305,1993.5,25.344,9.2,1990,2.798,0.110400883838384
1862638,2020-04-01,PTZMC,"Pátzcuaro, Mich.","Pátzcuaro, Mich.",Michoacán de Ocampo,Pátzcuaro,Lerma-Santiago-Pacífico,19.542778,-101.616944,RI,R. Jaripo,Libre,,,0,2042.35,1135.573,2038.57,646.582,,2035.9,373.295,0.577335898617654
1862639,2020-04-01,LANMC,"Los Ángeles, Mich.",Tres Mezquites,Michoacán de Ocampo,José Sixto Verduzco,Lerma-Santiago-Pacífico,20.248889,-101.626667,Riego,C. El Alto Las Cañas,Libre,1960,1689.95,0,1688.45,17.096,1687.95,14.59,10,1683,0,0
1862640,2020-04-01,LDFMC,"Laguna del Fresno, Mich.","Laguna del Fresno, Mich.",Michoacán de Ocampo,Maravatío,Lerma-Santiago-Pacífico,19.838056,-100.406389,RI,R. Cachiví,Libre,1946,2059,2,2057,13.132,2055.98,10.299,8.8,2053.02,3.28,0.318477522089523
1862641,2020-04-01,MABGJ,"Mariano Abasolo, Gto.","San Antonio de Aceves, Gto.",Guanajuato,Pénjamo,Lerma-Santiago-Pacífico,20.507222,-101.931111,RI,A. los Otates,Libre,1971,1755,1.92,1753.08,23.946,1751.3,20.079,43,1744.14,8.04,0.400418347527267
1862642,2020-04-01,CPAMC,"Copándaro, Mich.","Copándaro de Dolores, Mich.",Michoacán de Ocampo,Jiquilpan,Lerma-Santiago-Pacífico,20.001667,-102.861389,RI,R. La Patera,Libre,1927,1999,9.79,1989.209,9.717,1987.659,2.752,5.7,1986.12,0.322,0.117005813953488
1862643,2020-04-01,HRTJL,"Hurtado, Jal.","Valencia, Jal.",Jalisco,Acatlán de Juárez,Lerma-Santiago-Pacífico,20.466944,-103.651111,RI,A. San Antonio,Libre,1879,1464,1.34,1462.66,22.625,1462.5,21.727,10.35,1461.13,14.382,0.661941363280711
1862644,2020-04-01,JARMC,"Jaripo, Mich.","Jaripo, Mich.",Michoacán de Ocampo,Villamar,Lerma-Santiago-Pacífico,19.958333,-102.601944,RI,A. sin nombre,Libre,1951,1548.5,2.2,1580.42,9.265,1578.91,6.028,20,1576.81,2.57,0.426343729263437
1862645,2020-04-01,GUAMC,"Guaracha, Mich.","San Antonio, Mich.",Michoacán de Ocampo,Villamar,Lerma-Santiago-Pacífico,19.979167,-102.541389,RI,A. sin nombre,Libre,1913,1596.72,0,1580.11,29.79,1580.01,28.677,8,1577.3,3.931,0.137078494961119
1862646,2020-04-01,UREMC,"Urepetiro, Mich.","Urepetiro, Mich.",Michoacán de Ocampo,Tlazazalca,Lerma-Santiago-Pacífico,19.962222,-102.137778,RI,R. Tlazazalca,Libre,1963,1752.5,1.5,1745.68,10.923,1745,8.282,31,1743.16,4.462,0.538758753924173
1862647,2020-04-01,POLJL,"Ing. Guillermo Lugo Sanabria, Jal.","La Pólvora, Jal.",Jalisco,Degollado,Lerma-Santiago-Pacífico,20.491111,-102.231944,RI,R. Huascato,Libre,1989,1669.1,4.1,1665,56.15,1663.46,51.675,69,1655.4,32.96,0.637832607643928
1862648,2020-04-01,DGNMC,"De Gonzalo, Mich.","De Gonzalo, Mich.",Michoacán de Ocampo,Vista Hermosa,Lerma-Santiago-Pacífico,20.304444,-102.436944,RI,A. sin nombre,Libre,1890,1535.83,0.93,1534.9,10,1533.88,8.837,10,1532.13,0.835,0.0944890800045264
1862649,2020-04-01,LDCJL,"Lago de Chapala, Jal.","Chapala, Jal.",Jalisco,Chapala,Lerma-Santiago-Pacífico,20.290556,-103.201667,AP,R. Lerma,Libre,,0,0,99,9279.71,98,8126.41,0,95.52,5319.39,0.654580558943002
1862650,2020-04-01,LCLJL,"La Colonia, Jal.","La Colonia, Jal.",Jalisco,Zapotlán del Rey,Lerma-Santiago-Pacífico,20.43,-102.931944,RI,A. Los Sabinos,Libre,1927,0,0,103.400001525879,6.5,103,5.775,6,101.35,2.015,0.348917748917749
1862651,2020-04-01,CHLJL,"Chila, Jal.","Chila, Jal.",Jalisco,Zapotlán del Rey,Lerma-Santiago-Pacífico,20.489722,-102.944167,RI,A. Chila,Libre,1945,1525.88,1,99,1,98.7,0.762,10,97.8,0.586,0.769028871391076
1862652,2020-04-01,BATQT,"El Batán, Qro.",Los Arcos,Querétaro,Corregidora,Lerma-Santiago-Pacífico,20.504167,-100.412222,Agua Potable,Río El Pueblito,Libre,1990,1914.85,0,1905.15,8.042,1902.1,5.791,45.5,1887.99,0.588,0.1015368675531
1862653,2020-04-01,IALGJ,"Ignacio Allende, Gto.","La Begoña, Gto.",Guanajuato,San Miguel de Allende,Lerma-Santiago-Pacífico,20.848056,-100.825833,RI,R. de la Laja,Contr,1968,1834.7,2.04998,1833.33,241.41,1830.75,170.79,43,1824.91,60.763,0.355776099303238
1862654,2020-04-01,PNLGJ,"Peñuelitas, Gto.","Peñuelitas, Gto.",Guanajuato,Dolores Hidalgo Cuna de la Independencia Nacional,Lerma-Santiago-Pacífico,21.105,-100.878333,RI,R. De la Erre,Libre,1960,1908.2,0.91,1907.29,30.169,1904.7,17.46,28,1898.68,1.212,0.0694158075601374
1862655,2020-04-01,SRSJL,"Manuel M. Dieguez, Jal.","Santa Rosa, Jal.",Jalisco,Amatitán,Lerma-Santiago-Pacífico,20.908889,-103.705556,GH,R. Santiago,Contr,1964,747,0.5,748,258.468,746.46,242.97,114,740.58,187.69,0.772482199448492
1862656,2020-04-01,ESLJL,"El Salto, Jal.","El Salto, Jal.",Jalisco,Valle de Guadalupe,Lerma-Santiago-Pacífico,21.037222,-102.705,AP,R. El Salto,Libre,1994,1814.5,2,1812.5,118.54,1810.160034,85,42,1809.49,79.023,0.929682352941176
1862657,2020-04-01,SA1JL,"La Sauceda, Jal.","Garabatillos, Jal.",Jalisco,Lagos de Moreno,Lerma-Santiago-Pacífico,21.359167,-101.835556,RI,R. La Sauceda,Libre,1982,1923,1.96997,1921.03002929688,21.5,1918.90002441406,16,38.1,1914.99,7.985,0.4990625
1862658,2020-04-01,ANVAG,"Cincuenta Aniversario, Ags.",San José de Gracia,Aguascalientes,San José de Gracia,Lerma-Santiago-Pacífico,22.188611,-102.464167,Riego y A.Pot.,Río Blanco,Libre,1977,89.2,0,2088.57,5.039,2086,4.1,39.2,2085.8,4.042,0.985853658536585
1862659,2020-04-01,PTRAG,"Derivadora Pabellón, Ags.","Derecha Potrerillos, Ags.",Aguascalientes,Rincón de Romos,Lerma-Santiago-Pacífico,22.235,-102.4375,RI,R. San Pedro,Libre,1931,2099.86,0,2093,2.09999990463257,2092.60009765625,2.03800010681152,35,2086.55,1.236,0.606476906389243
1862660,2020-04-01,PECAG,"Plutarco Elías Calles, Ags.","Calles, Ags.",Aguascalientes,San José de Gracia,Lerma-Santiago-Pacífico,22.141111,-102.417222,AP/RI,R. Santiago,Libre,1931,2022.6,0.6,2022,407.438,2020,358.121,67,2009.46,160.41,0.447921233326166
1862661,2020-04-01,JCQAG,"Jocoque, Ags.","Derecha Jocoque, Ags.",Aguascalientes,San José de Gracia,Lerma-Santiago-Pacífico,22.121667,-102.356944,RI,R. San Pedro,Libre,1929,1944.95,1.54998,1943.40002441406,11.3999996185303,1942.44995117188,10.9750003814697,44,1942.1,10.72,0.976765341903744
1862662,2020-04-01,ABRAG,"Abelardo L. Rodríguez, Ags.","Abelardo L. Rodríguez, Ags.",Aguascalientes,Jesús María,Lerma-Santiago-Pacífico,21.916944,-102.427778,RI,R. Morcinique,Libre,1934,1890.2,1.47,1890,18.816,1888.88,15.997,25,1883.36,6.034,0.377195724198287
1862663,2020-04-01,NGRAG,"El Niágara, Ags.","El Niágara, Ags.",Aguascalientes,Aguascalientes,Lerma-Santiago-Pacífico,21.78,-102.371667,RI,R. Aguascalientes,Libre,1964,1833,0.599976,1832.40002441406,31.6949996948242,1828.40002441406,16.1879997253418,31.5,1828.26,15.785,0.975105032605671
1862664,2020-04-01,CRTJL,"El Cuarenta, Jal.","El Cuarenta, Jal.",Jalisco,Lagos de Moreno,Lerma-Santiago-Pacífico,21.497778,-101.7375,RI,A. Azul,Libre,1949,2004,2.05005,2001.94995117188,38.9599990844727,1998.75,30.625,42,1994.85,21.185,0.691755102040816
1862665,2020-04-01,ESTJL,"El Estribón, Jal.","El Estribón, Jal.",Jalisco,Yahualica de González Gallo,Lerma-Santiago-Pacífico,21.185556,-102.900556,RI,A. Las Pilas,Libre,1946,1882.5,1.08997,1881.41003417969,7.73999977111816,1880,6.37799978256226,29,1878.15,5.048,0.791470707446787
1862666,2020-04-01,PMOZC,"Los Moraleños, Zac.",Moraleños,Zacatecas,Jalpa,Lerma-Santiago-Pacífico,21.711111,-102.903611,Riego,Río Calvillo,Libre,2004,1324.75,0,1322.93,26.07,1318.96,20.932,47.05,1316.23,16.368,0.781960634435314
1862667,2020-04-01,PALZC,"Palomas, Zac.","Palomas, Zac.",Zacatecas,Villanueva,Lerma-Santiago-Pacífico,22.347778,-102.798056,RI,R. Palomas,Libre,1973,1908.34,0.86002,1907.47998046875,8.761,1904.25,4.62,28,1904.11,4.463,0.966017316017316
1862668,2020-04-01,TAYZC,"Ing. Julián Adame Alatorre, Zac.","Tayahua, Zac.",Zacatecas,Villanueva,Lerma-Santiago-Pacífico,22.120556,-102.864167,RI,R. Juchipila,Libre,1976,1701.7,0.289966,1701.41003417969,50.3769989013672,1696.01000976562,31.5979995727539,54.3,1693.67,25.218,0.798088497404272
1862669,2020-04-01,CHIZC,"El Chique, Zac.","El Chique, Zac.",Zacatecas,Tabasco,Lerma-Santiago-Pacífico,21.997222,-102.896111,RI,R. Juchipila,Libre,1958,1588.48,2.00002,1586.47998046875,192.567001342773,1580.18005371094,138.908996582031,61,1574.52,98.619,0.709954016129989
1862670,2020-04-01,CDRAG,"La Codorniz, Ags.","La Codorniz, Ags.",Aguascalientes,Calvillo,Lerma-Santiago-Pacífico,21.9975,-102.676944,RI,R. De La Labor,Libre,1966,1840,2.23999,1837.76000976562,6.52799987792969,1836,5.36600017547607,36,1833.81,4.146,0.772642539027156
1862671,2020-04-01,MNLAG,"Media Luna, Ags.","Media Luna, Ags.",Aguascalientes,Calvillo,Lerma-Santiago-Pacífico,21.8075,-102.788333,RI,R. Calvillo,Libre,1976,1624.1,2.14004,1621.9599609375,21.1959991455078,1619.19995117188,15,40.6,1614.4,7.44,0.496
1862672,2020-04-01,CUQJL,"Cuquío, Jal.","Los Gigantes, Jal.",Jalisco,Cuquío,Lerma-Santiago-Pacífico,20.948056,-103.039444,RI,A. Achichilco,Libre,1967,1808.5,1.92004,1806.57995605469,8.85000038146973,1805.5,7.5,24,1802.7,4.325,0.576666666666667
1862673,2020-04-01,REDJL,"La Red, Jal.","La Red, Jal.",Jalisco,Acatic,Lerma-Santiago-Pacífico,20.718889,-102.815278,RI,R. Calderón,Libre,1968,1796.5,1.80005,1794.69995117188,18.2999992370605,1792.5,14.25,24,1788.47,7.743,0.543368421052632
1862674,2020-04-01,EGCJL,"Ing. Elías González Chávez, Jal.","Puente Calderón, Jal.",Jalisco,Zapotlanejo,Lerma-Santiago-Pacífico,20.681389,-102.976111,AP,R. Calderón,Libre,1991,1622,2,1620,100,1618,80,36,1612.67,38.584,0.4823
1862675,2020-04-01,AGMNR,"Aguamilpa Solidaridad, Nay.","Aguamilpa, Nay.",Nayarit,Tepic,Lerma-Santiago-Pacífico,21.839167,-104.802222,GH,R. Santiago,Contr,1993,235,3,232,6950,222,5785.16,187,207.94,4332.63,0.748921378146845
1862676,2020-04-01,CJNNR,"Leonardo Rodríguez Alcaine, Nay.","Leonardo Rodríguez Alcáine, Nay.",Nayarit,Santa María del Oro,Lerma-Santiago-Pacífico,21.428333,-104.450833,GH,R. Santiago,Contr,2006,394.5,0.5,394,2393.107,391,2282.13,186,375.13,1695.07,0.742757862172619
1862677,2020-04-01,RSRNR,"San Rafael, Nay.",San Rafael,Nayarit,Tepic,Lerma-Santiago-Pacífico,21.780833,-104.8875,Riego y Gener.,Río Grande de Santiago,Contr,1994,67.85,0,66.1,28.1,63.41,27.35,51.85,62.34,22.896,0.837148080438757
1862678,2020-04-01,PLYJL,"Ing. Alfredo Elías Ayub, Jal.","La Yesca, Jal.",Nayarit,Hostotipaquillo,Lerma-Santiago-Pacífico,21.196944,-104.105833,GH,R. Santiago,Contr,2012,579,1,578,2392.88989257812,575,2292.92,207,565.98,2013.22,0.878015805174188
1862679,2020-04-01,STEZC,"Independencia Nacional, Zac.",Santa Teresa,Zacatecas,Monte Escobedo,Lerma-Santiago-Pacífico,22.326667,-103.495833,Riego,Arroyo Santa Teresa,Libre,1985,1951.6,0,1949.33,13.944,1946,9.172,31.6,1945.28,8.287,0.903510684692543
1862680,2020-04-01,LOBZC,"Manuel Felgueres, Zac.","Lobatos, Zac.",Zacatecas,Valparaíso,Lerma-Santiago-Pacífico,22.845278,-103.382778,RI,R. Cuevecillas,Libre,1980,2082.3,2.12007,2080.17993164062,9.4350004196167,2077.05004882812,6.90500020980835,35,2076.41,6.464,0.936133208340541
1862681,2020-04-01,BTEZC,"Ramón López Velarde, Zac.","Boca del Tesorero, Zac.",Zacatecas,Jerez,Lerma-Santiago-Pacífico,22.824167,-102.953333,RI,R. Jeréz,Libre,1975,2100.5,2.34009,2098.15991210938,36.7439994812012,2096,26.2199993133545,30,2093.13,15.488,0.590694142089911
1862682,2020-04-01,ACHZC,"Achimec, Jal.","Vaqueros, Jal.",Jalisco,Huejúcar,Lerma-Santiago-Pacífico,22.327222,-103.225278,RI,R. Huejúcar,Libre,1969,1846.3,2.02998,1844.27001953125,12.2119998931885,1841.5,7.36399984359741,28.5,1836.56,2.127,0.288837594401812
1862683,2020-04-01,TENJL,"Tenasco, Jal.","Boquilla de Zaragoza, Jal.",Jalisco,Santa María de los Ángeles,Lerma-Santiago-Pacífico,22.171944,-103.198611,RI,A. Tenasco,Libre,1960,1777,0,1724.83996582031,13.8500003814697,1722.84997558594,10.49,32,1716.96,4.138,0.394470924690181
1862684,2020-04-01,EXCZC,"Miguel Alemán, Zac.","Excamé, Zac.",Zacatecas,Tepechitlán,Lerma-Santiago-Pacífico,21.645833,-103.35,RI,R. Tlaltenango,Contr,1949,1707,2.5,1704.5,70.9199981689453,1703.4,64.56,48,1699.14,42.873,0.664079925650558
1862685,2020-04-01,VILZC,"José María Morelos, Zac.","La Villita, Zac.",Zacatecas,Tepechitlán,Lerma-Santiago-Pacífico,21.588889000000002,-103.3375,RI,A. San Pedro,Libre,1986,1833.2,2.01006,1831.18994140625,11.164999961853,1829,9.01799964904785,39.2,1827.49,7.759,0.860390363933893
1862686,2020-04-01,TCTJL,"Tacotán, Jal.","Tacotán, Jal.",Jalisco,Unión de Tula,Lerma-Santiago-Pacífico,20.036111,-104.320278,RI,R. Ayutla,Libre,1956,1407.5,1.20996,1406.2900390625,169,1403.06005859375,149.238998413086,68.5,1399.28,131.721,0.882617823763484
1862714,2020-04-01,EBLSI,"Lic. Eustaquio Buelna, Sin.","Guamúchil, Sin.",Sinaloa,Salvador Alvarado,Pacífico Norte,25.484722,-108.065556,AP/RI,R. Mocorito,Contr,1972,71.2,2.35,68.8499984741211,264.950012207031,63.54,80.08,41,60.8,34.69,0.433191808191808
1862715,2020-04-01,ALMSI,"Adolfo López Mateos, Sin.","El Humaya o El Varejonal, Sin.",Sinaloa,Badiraguato,Pacífico Norte,25.101389,-107.388333,AP/RI,R. Humaya,Libre,1964,186.5,3.02,183.479995727539,4034.52001953125,176,3086.61010742188,105.5,161,1608.8,0.52121905391665
1862716,2020-04-01,JGRSI,"Juan Guerrero Alcocer, Sin.","Vinoramas, Sin.",Sinaloa,Culiacán,Pacífico Norte,24.753611,-107.059444,RI,A. El Bledal,Libre,1994,178.3,2.02,176.2799988,102,168.5,54.684,50,157.94,16.903,0.309103211176944
1862717,2020-04-01,SNLSI,"Sanalona, Sin.","Sanalona, Sin.",Sinaloa,Culiacán,Pacífico Norte,24.815,-107.151389,AP/GH/RI,R. Tamazula,Libre,1948,165,2.83,162.17,987.522,156.2,687.988,81,148.68,402.815,0.585497130763909
1862718,2020-04-01,JLPSI,"José López Portillo, Sin.","Comedero, Sin.",Sinaloa,Cosalá,Pacífico Norte,24.571667,-106.807222,AP/GH/RI,R. San Lorenzo,Contr,1981,290,4.54999,286.950012207031,3966.169921875,272.16,2580.19,136,247.38,1059.59,0.410663555784651
1862719,2020-04-01,CBRDR,"Caboraca, Dgo.","Canoas, Dgo.",Durango,Canatlán,Pacífico Norte,24.538333,-104.810278,RI,R. La Sauceda,Libre,1992,2003.75,2.46997,2001.28002929688,57.8800010681152,1998.25,45,37,1994.14,29.652,0.658933333333333
1862720,2020-04-01,PAGDR,"Peña del Águila, Dgo.","Peña Del Águila, Dgo.",Durango,Durango,Pacífico Norte,24.203889,-104.656667,RI,R. La Sauceda,Libre,1954,1896.8,1.52998,1895.27002,54.902,1892.5,27.948,25,1888.97,9.145,0.327214827536854
1862721,2020-04-01,GVCDR,"Presidente Guadalupe Victoria, Dgo.","El Tunal, Dgo.",Durango,Durango,Pacífico Norte,23.961111,-104.753056,RI,R. Tunal,Mixto,1962,1934.8,1.69,1934.61,94.617,1931,78.06,72.8,1928.7,68.354,0.875659748911094
1862722,2020-04-01,SBYDR,"Santiago Bayacora, Dgo.","Santiago Bayacora, Dgo.",Durango,Durango,Pacífico Norte,23.874444,-104.675833,RI,R. Santiago Bayacora,Libre,1988,1962,0.810059,1965.93994140625,169.869003295898,1959.01000976562,130.046997070312,66.75,1952.71,100.098,0.7697063542796
1862723,2020-04-01,FVLDR,"Francisco Villa, Dgo.","El Bosque, Dgo.",Durango,Poanas,Pacífico Norte,24.001667,-103.960833,RI,R. Poanas,Libre,1968,1998.7,2.57,1996.13000488281,96.5699996948242,1993,73.2600021362305,58.7,1989.47,51.847,0.70771223707567
1862724,2020-04-01,SLTSI,"Ing. Aurelio Benassini Vizcaíno, Sin.","El Salto o Elota, Sin.",Sinaloa,Elota,Pacífico Norte,24.121944,-106.695833,RI,R. Elota,Libre,1988,167.1,2.46,164.6399994,815.592,154.5,403.9,73,144.47,175.919,0.435550878930428
1862725,2020-04-01,SELDR,"Santa Elena, Dgo.","Santa Elena, Dgo.",Durango,General Simón Bolívar,Pacífico Norte,24.608333,-103.079722,RI,R. Graseros,Libre,1971,2002.75,1.14001,2001.609985,18.766,1999.800049,15.08,30.75,1991.94,3.937,0.261074270557029
1862726,2020-04-01,RMEGR,"Revolución Mexicana, Gro.","El Guineo, Gro.",Guerrero,Ayutla de los Libres,Pacífico Sur,16.823611,-99.166111,RI,R. Nexpa,Libre,1984,110.7,3.11,107.5899963,259.502,94.40000153,126.694,70.7,92.46,112.096,0.884777495382575
1862727,2020-04-01,JDMOX,"Presidente Benito Juárez, Oax.","Bordo Benito Juárez, Oax.",Oaxaca,Santa María Jalapa del Marqués,Pacífico Sur,16.445556,-95.397778,RI,R. Tehuantepec,Libre,1961,138.4,2.64999,139.8500061,1726.747,124.25,720.317,85.5,115.94,390.01,0.541442170599889
1862728,2020-04-01,LBQCH,"La Boquilla, Chih.","Lago de Toronto,Chih.",Chihuahua,San Francisco de Conchos,Río Bravo,27.544722,-105.414167,GH/RI,R. Conchos,Libre,1916,1322,2.90002,1320,3453.576,1317,2893.57104492188,82,1309.73,1815.471,0.627415388050033
1862729,2020-04-01,SGBDR,"San Gabriel, Dgo.","San Gabriel, Dgo.",Durango,Ocampo,Río Bravo,26.436667,-105.560833,RI,R. Florido,Libre,1979,1785.6,2.20999,1783.39001464844,377.338012695312,1777.90002441406,245.430999755859,48,1769.58,109.222,0.445021208032595
1862730,2020-04-01,PAGCH,"Pico del Águila, Chih.","Pico Del Águila, Chih.",Chihuahua,Coronado,Río Bravo,26.546389,-105.254167,RI,R. Florido,Libre,1993,1625.9,2.5,1619,59.843,1616.900024,48.276,42,1611.46,24.292,0.50318999088574
1862731,2020-04-01,FIMCH,"Francisco I. Madero, Chih.","Las Vírgenes, Chih.",Chihuahua,Rosales,Río Bravo,28.166111,-105.628889,RI,R. San Pedro,Libre,1949,1243.8,1.23994,1242.56005859375,477.622009277344,1239.30004882812,355.286010742188,57,1238.6,331.498,0.933045461901259
1862732,2020-04-01,LLNCH,"Ing. Luis L. León, Chih.","El Granero, Chih.",Chihuahua,Aldama,Río Bravo,28.984444,-105.28,RI,R. Conchos,Contr,1968,1053,2.5,1050.5,832.409,1034.8,292.47,62,1031.17,216.832,0.741382022087735
1862733,2020-04-01,CHUCH,"Chihuahua, Chih.","Chihuahua, Chih.",Chihuahua,Chihuahua,Río Bravo,28.570556,-106.167778,AP,R. Chuviscar,Libre,1960,1546,1.71997,1544.28002929688,35.6310005187988,1540.81994628906,23.382999420166,58,1537.22,14.136,0.604541776099468
1862734,2020-04-01,ERECH,"El Rejón, Chih.","El Rejón, Chih.",Chihuahua,Chihuahua,Río Bravo,28.614722,-106.119444,AP,A. El Rejón,Libre,1966,1479.8,1.48005,1478.31994628906,7.75500011444092,1477,6.528,33,1473.52,3.911,0.599111519607843
1862735,2020-04-01,PAZCH,"Piedras Azules, Chih.",,Chihuahua,Allende,Río Bravo,27.249167,-105.211111,Riego,Río Parral,Libre,2015,2000,0,1998.42,13.194,1996.5,8.712,22,1994.28,4.801,0.551078971533517
1862736,2020-04-01,CILAAMSMX,"Internacional La Amistad, Coah.","La Amistad, Coah.",Coahuila de Zaragoza,Acuña,Río Bravo,29.446944,-101.057222,AP/RI,R. Bravo,Contr,1968,351.22,0,349.03,2707.437,340.46,1769.66,87.57,328.225,139.863,0.0790338257066329
1862737,2020-04-01,CNTCL,"El Centenario, Coah.","El Centenario, Coah.",Coahuila de Zaragoza,Jiménez,Río Bravo,29.213611,-100.95,RI,R. San Diego,Libre,1935,338,1.62,336.380004882812,25.711,336.149993896484,24.5890007019043,17,334.38,17.07,0.694212839592054
1862738,2020-04-01,SMGCL,"San Miguel, Coah.","San Miguel, Coah.",Coahuila de Zaragoza,Jiménez,Río Bravo,29.034167,-100.953889,AP/RI,R. San Diego,Libre,1935,343.5,1.54001,341.959991455078,22.193000793457,341.739990234375,21.1679992675781,15,339.97,14.24,0.672713553132564
1862739,2020-04-01,LFGCL,"La Fragua, Coah.","La Fragua, Coah",Coahuila de Zaragoza,Jiménez,Río Bravo,28.82,-100.832222,RI,R. San Rodrigo,Libre,1991,306.68,2.00001,303.96,85.379997253418,300.299987792969,47.2949981689453,24.7,297.17,25.805,0.545617951137674
1862740,2020-04-01,CILAFLCMX,"Internacional Falcón, Tamps.","Falcón, Tamps.",Tamaulipas,Guerrero,Río Bravo,26.560278,-99.170556,AP/RI,R. Bravo,Contr,1953,98.45,0,93.482,1607.962,91.81,1351.63,50,80.515,183.23,0.135562247064655
1862542,2020-04-01,CNPMX,"La Concepción, Méx.","La Concepción, Méx.",Estado de México,Tepotzotlán,Aguas del Valle de México,19.695,-99.304444,RI,R. Tepotzotlán,Libre,1949,2355.64,3.09996,2352.540039,12.599,2352.100098,12.111,39,2347.82,8.15,0.672941953595905
1862543,2020-04-01,PMDMX,"Madín, Méx.","Madín, Méx.",Estado de México,Naucalpan de Juárez,Aguas del Valle de México,19.526944,-99.260833,AP,R. Tlanepantla,Contr,1977,2348.5,2.46,2346.04,17.964,2336.29,9.37,75,2336.68,9.645,1.02934898612593
1862544,2020-04-01,PRGHD,"Javier Rojo Gómez, Hgo.","La Peña, Hgo.",Hidalgo,Alfajayucan,Aguas del Valle de México,20.359722,-99.329444,RI,R. Alfajayucan,Contr,1979,1980.96,1.3,1977.839,43.317,1976.84,39.99,60,1970.89,25.007,0.625331332833208
1862545,2020-04-01,TXMHD,"Taxhimay, Méx.","Taxhimay, Méx.",Estado de México,Villa del Carbón,Aguas del Valle de México,19.834722,-99.385278,RI,R. San Luis de las P,Libre,1912,2217.05,7.05,2216.1,47.386,2214.1,39.914,43,2211.9,31.807,0.796888309866212
1862546,2020-04-01,PRQHD,"Requena, Hgo.","Requena, Hgo.",Hidalgo,Tula de Allende,Aguas del Valle de México,19.963056,-99.310833,RI,R. Tula,Mixto,1922,2116.59,1.5,2110.3,61.519,2109,51.57,38,2104.82,24.816,0.481210005817336
1862547,2020-04-01,ENDHD,"Endhó, Hgo.","Endhó, Hgo.",Hidalgo,Tepetitlán,Aguas del Valle de México,20.163889,-99.36,RI,R. Tula,Libre,1951,2023,3,2020,208.65,2018,182.9,60,2012.97,122.609,0.670360852925096
1862548,2020-04-01,PVAHD,"Vicente Aguirre, Hgo.","Las Golondrinas, Hgo.",Hidalgo,Alfajayucan,Aguas del Valle de México,20.435556,-99.375833,RI,R. Alfajayucan,Libre,1952,1865.9,7.4,1855.5,19.685,1854.9,17.799,27,1850.4,6.887,0.386931850103938
1862549,2020-04-01,SJATL,"San José Atlanga, Tlax.","Atlanga,Tlax.",Tlaxcala,Atlangatepec,Balsas,19.556111,-98.200556,RI,R. Zahuapán,Libre,1959,2500,2.32988,2486.8701171875,47.97,2486.39990234375,42.63,24.2,2485.13,30.029,0.70441003987802
1862550,2020-04-01,BDDPB,"Manuel Ávila Camacho, Pue.","Valsequillo o Balcón del Diablo, Pue.",Puebla,Puebla,Balsas,18.9125,-98.108611,RI,R. Atoyac,Libre,1946,2064,2,2062,391.489,2059.02,300.654,85,2058.59,289.066,0.961457356296607
1862551,2020-04-01,YOSOX,"Yosocuta, Oax.",San Marcos Arteaga,Oaxaca,San Marcos Arteaga,Balsas,17.724444,-97.826111,Riego y A. Pot.,Río Huajuapan,Libre,1969,1513.7,0,1512.55,57.26,1509.7,47.226,53.7,1507.73,41.344,0.87544996400288
1862552,2020-04-01,PUCMC,"Pucuato, Mich.","Pucuato, Mich.",Michoacán de Ocampo,Hidalgo,Balsas,19.621389,-100.684167,RI,A. Los Charcos,Libre,1946,2501.25,1.25,2500,11.534,2499,9.485,15,2498.49,8.512,0.897416974169742
1862553,2020-04-01,SABMC,"Sabaneta, Mich.","Sabaneta, Mich.",Michoacán de Ocampo,Hidalgo,Balsas,19.622778,-100.669444,RI,A. Los Charcos,Libre,1948,2494.9,2.05,2508.95,5.875,2508,5.043,17,2507.88,4.942,0.979972238746778
1862554,2020-04-01,AGOMC,"Agostitlán, Mich.","Mata de Pinos, Mich.",Michoacán de Ocampo,Hidalgo,Balsas,19.579722,-100.608889,RI,A. El Chaparro,Libre,1954,2379,1.16,2377.84,18.754,2376.6,15.675,25,2374.94,12.019,0.766762360446571
1862555,2020-04-01,DBOMC,"El Bosque, Mich.","El Bosque, Mich.",Michoacán de Ocampo,Zitácuaro,Balsas,19.387778,-100.421111,AP,R. San Juan,Libre,1954,1745,2,1743,220.1,1741.4,202.4,70,1731.79,110.12,0.544071146245059
