idmonitoreodiario,fechamonitoreo,clavesih,nombreoficial,nombrecomun,estado,nommunicipio,regioncna,latitud,longitud,uso,corriente,tipovertedor,inicioop,elevcorona,bordolibre,nameelev,namealmac,namoelev,namoalmac,alturacortina,elevacionactual,almacenaactual,llenano
2066632,2022-12-01,GDLMX,"Sierra de Guadalupe, Méx.","Guadalupe,Méx.",Estado de México,Cuautitlán Izcalli,Aguas del Valle de México,19.635556,-99.252222,RI,R. Cuautitlán,Libre,1936,2308.75,1.92993,2306.820068,64.08,2305.199951,56.91,33,2304.16,52.573,0.923791952205236
2066651,2022-12-01,LDTGR,"Laguna de Tuxpan, Gro.","Laguna de Tuxpan, Gro.",Guerrero,Iguala de la Independencia,Balsas,18.363333,-99.503056,RI,Antiguo canal de riego,Libre,1937,744.75,0,743.349975585938,19.5030002593994,742.840026855469,17.6469993591309,8,741.65,13.47,0.763302572061941
2066652,2022-12-01,AFIGR,"Andrés Figueroa, Gro.","Las Garzas, Gro.",Guerrero,Ajuchitlán del Progreso,Balsas,18.075833,-100.5175,RI,R. Ajuchitán,Libre,1984,385,2.39001,382.6099854,133.029,377,102.5,72.5,377.07,102.808,1.00300487804878
2066653,2022-12-01,VTRGR,"Valerio Trujano, Gro.","Tepecoacuilco, Gro.",Guerrero,Tepecoacuilco de Trujano,Balsas,18.295833,-99.466111,AP/RI,R. Tepecoacuilco,Libre,1964,844.3,1.51997,842.7800293,51.727,840,31.014,33.3,839.12,26.012,0.838717998323338
2066654,2022-12-01,VGRGR,"Vicente Guerrero, Gro.","Palos Altos, Gro.",Guerrero,Arcelia,Balsas,18.382778,-100.265833,AP/RI,R. Poliutla,Libre,1968,433,2.70001,430.299987792969,300,425,249.49,67.5,424.81,247.325,0.991322297486873
2066655,2022-12-01,LCLGR,"La Calera, Gro.","La Calera, Gro.",Guerrero,Zirándaro,Balsas,18.418611,-101.003056,RI,R. Chiquito o El Oro,Libre,1964,124.3,1.68,122.6200027,34.1928,118,9.393,31.8,119.02,13.208,1.40615351857766
2066656,2022-12-01,ECAGR,"Ing. Carlos Ramírez Ulloa, Gro.","El Caracol, Gro.",Guerrero,General Heliodoro Castillo,Balsas,17.947778,-99.995556,GH,R. Balsas,Contr,1986,526,2.4,523.6,1183.23,521,1057.29,126,520.22,1020.766,0.965455078549878
2066657,2022-12-01,LOLMC,"Los Olivos, Mich.","Los Olivos, Mich.",Michoacán de Ocampo,Tepalcatepec,Balsas,19.210833,-102.865556,RI,Los Otates,Libre,1961,423,2,421,16.2709999084473,418,10.2620000839233,37,417.36,9.274,0.903722463862463
2066658,2022-12-01,SJUMC,"San Juanico, Mich.","La Laguna, Mich.",Michoacán de Ocampo,Cotija,Balsas,19.839444,-102.651389,RI,R. Cotija,Libre,1950,1574.6,0,1604.56,71.69,1603.86,60.545,5.7,1602.42,42.218,0.697299529275745
2066659,2022-12-01,CHLMC,"Constitución de Apatzingán, Jal.","Chilatán, Jal.",Jalisco,Jilotlán de los Dolores,Balsas,19.287778,-102.774167,RI,R. Grande,Libre,1990,440,2.32001,437.679992675781,807.150024414062,429.450012207031,590.025024414062,107,427.5,545.675,0.924833655219784
2066660,2022-12-01,ZICMC,"Zicuirán, Mich.","La Peña, Mich.",Michoacán de Ocampo,La Huacana,Balsas,18.921111,-101.931944,RI,R. Zicuirán,Libre,1957,302.75,1.31,301.440002441406,47.4850006103516,299,36.2939987182617,46,298.51,34.331,0.945913958572054
2066661,2022-12-01,INFMC,"Infiernillo, Mich.","Infiernillo, Mich.",Guerrero,Arteaga,Balsas,18.266667,-101.883333,GH,R. Balsas,Contr,1964,184,0.8,183.2,15194.8,169,9367.77,151.5,156.25,5515.68,0.588793277375512
2066662,2022-12-01,VILMC,"José María Morelos y Pavón, Mich.","La Villita, Mich.",Michoacán de Ocampo,Lázaro Cárdenas,Balsas,18.048333,-102.180278,AP/GH/RI,R. Balsas,Contr,1973,59.73,3,56.73,686.94,51.2,545.93,73,50.16,519.405,0.951413184840547
2066663,2022-12-01,LCRDR,"Lázaro Cárdenas, Dgo.","El Palmito, Dgo.",Durango,Indé,Cuencas Centrales del Norte,25.594167,-105.015833,RI,R. Nazas,Contr,1946,1635,3,1632,4278.541,1622.46,2957.61,100,1617.6,2417.73,0.817460719973222
2066664,2022-12-01,FZRDR,"Francisco Zarco, Dgo.","Las Tórtolas, Dgo.",Durango,Cuencamé,Cuencas Centrales del Norte,25.270833,-103.773611,RI,R. Nazas,Contr,1968,1213,2.94995,1210.05004882812,383.160003662109,1208.2,309.24,39.5,1207.4,280.837,0.908152244211616
2066665,2022-12-01,LNRDR,"Los Naranjos, Dgo.","Los Naranjos, Dgo.",Durango,General Simón Bolívar,Cuencas Centrales del Norte,24.613056,-103.306944,RI,R. Santa Clara,Libre,1985,1663,1.91003,1661.08996582031,27.3899993896484,1658.40002441406,20.928,48,1658.4,20.928,1
2066666,2022-12-01,TGRDR,"El Tigre, Dgo.",El Tigre,Durango,San Juan de Guadalupe,Cuencas Centrales del Norte,24.563056,-102.785,RI,Arroyo El Tigre,Libre,,1581.62,0,1580.12,18.56,1576.92,14,34.5,1571.64,7.056,0.504
2066667,2022-12-01,SGOZC,"Santiago, Zac.",Santiago,Zacatecas,Miguel Auza,Cuencas Centrales del Norte,24.289167,-103.488889,RI,Río Santiago,Libre,,2001.8,0,2000.26,11.421,1997.26,6.2,25.6,1996.93,5.718,0.922258064516129
2066668,2022-12-01,ELCZC,"El Cazadero, Zac.","El Cazadero, Zac",Zacatecas,Río Grande,Cuencas Centrales del Norte,23.693056,-103.093611,RI,R. Aguanaval,Libre,1964,1920.12,1.50006,1919.93994140625,44.6800003051758,1916,22.17799949646,27.12,1915.91,21.79,0.982505207626058
2066669,2022-12-01,LREZC,"Gobernador Leobardo Reynoso, Zac.","Trujillo, Zac.",Zacatecas,Fresnillo,Cuencas Centrales del Norte,23.179444,-103.207222,RI,R. San Francisco o Los Lazos,Libre,1946,2131.85,2.31997,2129.53,125.921,2127.35,95.717,40.34,2123.58,56.509,0.590375795313267
2066670,2022-12-01,STRZC,"Santa Rosa, Zac.","Santa Rosa, Zac.",Zacatecas,Fresnillo,Cuencas Centrales del Norte,22.925833,-103.112778,RI,A. El Arenal,Libre,1937,2250.19,0.550107,2249.63989257812,14.0410003662109,2248.63989257812,10.4759998321533,15,2247.48,6.887,0.657407417940402
2066671,2022-12-01,APRDR,"Ing. Benjamín Ortega Cantero, Dgo.","Agua Puerca, Dgo.",Durango,Hidalgo,Cuencas Centrales del Norte,26.226389,-104.493889,RI,A. Grande del Derrame,Libre,1984,1436.4,2.30002,1434.09997558594,56.060001373291,1430.19995117188,30.764,34.8,1429.95,29.451,0.957320244441555
2066672,2022-12-01,VHGDR,"Villa Hidalgo, Dgo.","Villa Hidalgo, Dgo.",Durango,Hidalgo,Cuencas Centrales del Norte,26.2425,-104.928889,RI,A. Cerro Gordo,Libre,1977,1731.28,1.73,1729.55,39.555,1726.23,23.08,34.2,1725.04,18.597,0.805762564991335
2066673,2022-12-01,SNJSL,"San José, S.L.P.","San José, S.L.P.",San Luis Potosí,San Luis Potosí,Cuencas Centrales del Norte,22.150278,-101.054444,AP,R. Santiago,Libre,1903,1955.5,0.359985,1933.7,5.656,1933.3,5.223,32,1931.87,4.158,0.796094198736358
2066674,2022-12-01,ELPSL,"Gonzalo N. Santos, S.L.P.","El Peaje, S.L.P.",San Luis Potosí,San Luis Potosí,Cuencas Centrales del Norte,22.092222,-101.098611,AP,A. Grande o Azul,Libre,1953,2049.6,1.73,2047.87,9.054,2044.849976,6.685,39,2024.88,0.007,0.00104712041884817
2066675,2022-12-01,EPOSL,"El Potosino, S.L.P.","El Potosino, S.L.P.",San Luis Potosí,San Luis Potosí,Cuencas Centrales del Norte,22.099722,-101.078056,RI,A. El Potosino,Libre,1990,2000.85,0.150024,2000.84997558594,5.19899988174438,1996.80004882812,3.29299998283386,30.85,1990.43,1.279,0.388399637615342
2066676,2022-12-01,ELOSL,"Cañada del Lobo, S.L.P.","Cañada del Lobo, S.L.P.",San Luis Potosí,San Luis Potosí,Cuencas Centrales del Norte,22.094722,-100.9675,CA,R. Españita,Libre,1987,1963.7,1.54998,1962.1,2.161,1958.8,1.244,28,1955.36,0.563,0.452572347266881
2066731,2022-12-01,LDFMC,"Laguna del Fresno, Mich.","Laguna del Fresno, Mich.",Michoacán de Ocampo,Maravatío,Lerma-Santiago-Pacífico,19.838056,-100.406389,RI,R. Cachiví,Libre,1946,2059,2,2057,13.132,2055.98,10.299,8.8,2055.2,8.242,0.800271871055442
2066732,2022-12-01,MABGJ,"Mariano Abasolo, Gto.","San Antonio de Aceves, Gto.",Guanajuato,Pénjamo,Lerma-Santiago-Pacífico,20.507222,-101.931111,RI,A. los Otates,Libre,1971,1755,1.92,1753.08,23.946,1751.3,20.079,43,1744.67,8.75,0.435778674236765
2066733,2022-12-01,CPAMC,"Copándaro, Mich.","Copándaro de Dolores, Mich.",Michoacán de Ocampo,Jiquilpan,Lerma-Santiago-Pacífico,20.001667,-102.861389,RI,R. La Patera,Libre,1927,1999,9.79,1989.209,9.717,1987.659,2.752,5.7,1984.36,0.003,0.00109011627906977
2066734,2022-12-01,HRTJL,"Hurtado, Jal.","Valencia, Jal.",Jalisco,Acatlán de Juárez,Lerma-Santiago-Pacífico,20.466944,-103.651111,RI,A. San Antonio,Libre,1879,1464,1.34,1462.66,22.624,1462.66,22.624,10.35,1462.61,22.344,0.987623762376238
2066735,2022-12-01,JARMC,"Jaripo, Mich.","Jaripo, Mich.",Michoacán de Ocampo,Villamar,Lerma-Santiago-Pacífico,19.958333,-102.601944,RI,A. sin nombre,Libre,1951,1548.5,2.2,1580.42,9.265,1578.91,6.028,20,1577.94,4.272,0.708692767086928
2066736,2022-12-01,GUAMC,"Guaracha, Mich.","San Antonio, Mich.",Michoacán de Ocampo,Villamar,Lerma-Santiago-Pacífico,19.979167,-102.541389,RI,A. sin nombre,Libre,1913,1596.72,0,1580.11,29.79,1580.01,28.677,8,1578.77,16.003,0.558043031000453
2066737,2022-12-01,UREMC,"Urepetiro, Mich.","Urepetiro, Mich.",Michoacán de Ocampo,Tlazazalca,Lerma-Santiago-Pacífico,19.962222,-102.137778,RI,R. Tlazazalca,Libre,1964,1752.5,1.5,1745.68,10.923,1745,8.282,31,1744.62,7.429,0.897005554213958
2066738,2022-12-01,POLJL,"Ing. Guillermo Lugo Sanabria, Jal.","La Pólvora, Jal.",Jalisco,Degollado,Lerma-Santiago-Pacífico,20.491111,-102.231944,RI,R. Huascato,Libre,1989,1669.1,4.1,1665,56.15,1663.46,51.675,69,1662.47,49.278,0.953613933236575
2066739,2022-12-01,DGNMC,"De Gonzalo, Mich.","De Gonzalo, Mich.",Michoacán de Ocampo,Vista Hermosa,Lerma-Santiago-Pacífico,20.304444,-102.436944,RI,A. sin nombre,Libre,1890,1535.83,0.93,1534.9,10,1533.88,8.837,10,1532.69,2.661,0.301120289691072
2066740,2022-12-01,LDCJL,"Lago de Chapala, Jal.","Chapala, Jal.",Jalisco,Chapala,Lerma-Santiago-Pacífico,20.290556,-103.201667,AP,R. Lerma,Libre,,0,0,99,9279.71,98,8126.41,0,95.59,5397.29,0.66416658770601
2066741,2022-12-01,LCLJL,"La Colonia, Jal.","La Colonia, Jal.",Jalisco,Zapotlán del Rey,Lerma-Santiago-Pacífico,20.43,-102.931944,RI,A. Los Sabinos,Libre,1927,0,0,103.400001525879,6.5,103,5.775,6,102.53,4.363,0.755497835497836
2066742,2022-12-01,CHLJL,"Chila, Jal.","Chila, Jal.",Jalisco,Zapotlán del Rey,Lerma-Santiago-Pacífico,20.489722,-102.944167,RI,A. Chila,Libre,1945,1525.88,1,99,1,98.7,0.762,10,98.67,0.756,0.992125984251969
2066743,2022-12-01,BATQT,"El Batán, Qro.",Los Arcos,Querétaro,Corregidora,Lerma-Santiago-Pacífico,20.504167,-100.412222,RI,Río El Pueblito,Libre,,1914.85,0,1905.15,8.042,1902.1,5.791,45.5,1890.73,1.091,0.18839578656536
2066744,2022-12-01,IALGJ,"Ignacio Allende, Gto.","La Begoña, Gto.",Guanajuato,San Miguel de Allende,Lerma-Santiago-Pacífico,20.848056,-100.825833,RI,R. de la Laja,Contr,1968,1834.7,2.04998,1833.33,241.41,1830.75,170.79,43,1825.78,72.985,0.427337666139704
2066745,2022-12-01,PNLGJ,"Peñuelitas, Gto.","Peñuelitas, Gto.",Guanajuato,Dolores Hidalgo Cuna de la Independencia Nacional,Lerma-Santiago-Pacífico,21.105,-100.878333,RI,R. De la Erre,Libre,1960,1908.2,0.91,1907.29,30.169,1904.7,17.46,28,1900.6,4.14,0.237113402061856
2066746,2022-12-01,SRSJL,"Manuel M. Diéguez, Jal.","Santa Rosa, Jal.",Jalisco,Amatitán,Lerma-Santiago-Pacífico,20.908889,-103.705556,GH,R. Santiago,Contr,1964,747,0.5,748,418,746.46,393.36,114,736.42,303.52,0.77160870449461
2066747,2022-12-01,ESLJL,"El Salto, Jal.","El Salto, Jal.",Jalisco,Valle de Guadalupe,Lerma-Santiago-Pacífico,21.037222,-102.705,AP,R. El Salto,Libre,1940,1814.5,2,1812.5,118.54,1810.160034,85,42,1810.1,84.162,0.990141176470588
2066748,2022-12-01,SA1JL,"La Sauceda, Jal.","Garabatillos, Jal.",Jalisco,Lagos de Moreno,Lerma-Santiago-Pacífico,21.359167,-101.835556,RI,R. La Sauceda,Libre,1982,1923,1.96997,1921.03002929688,21.5,1918.90002441406,16,38.1,1916.08,9.836,0.61475
2066749,2022-12-01,ANVAG,"Cincuenta Aniversario, Ags.",San José de Gracia,Aguascalientes,San José de Gracia,Lerma-Santiago-Pacífico,22.188611,-102.464167,AP/RI,Río Blanco,Libre,,89.2,0,2088.57,5.039,2086,4.1,39.2,2085.86,4.059,0.99
2066750,2022-12-01,PTRAG,"Derivadora Pabellón, Ags.","Derecha Potrerillos, Ags.",Aguascalientes,Rincón de Romos,Lerma-Santiago-Pacífico,22.235,-102.4375,RI,R. San Pedro,Libre,1931,2099.86,0,2093,2.09999990463257,2092.60009765625,2.03800010681152,35,2086.8,1.266,0.621197219651118
2066751,2022-12-01,PECAG,"Plutarco Elías Calles, Ags.","Calles, Ags.",Aguascalientes,San José de Gracia,Lerma-Santiago-Pacífico,22.141111,-102.417222,AP/RI,R. Santiago,Libre,1931,2022.6,0.6,2022,407.438,2020,358.121,67,2006.36,116.839,0.326255651022978
2066752,2022-12-01,JCQAG,"Jocoque, Ags.","Derecha Jocoque, Ags.",Aguascalientes,San José de Gracia,Lerma-Santiago-Pacífico,22.121667,-102.356944,RI,R. San Pedro,Libre,1929,1944.95,1.54998,1943.40002441406,11.3999996185303,1942.44995117188,10.9750003814697,44,1941.79,10.494,0.956173087494206
2066753,2022-12-01,ABRAG,"Abelardo L. Rodríguez, Ags.","Abelardo L. Rodríguez, Ags.",Aguascalientes,Jesús María,Lerma-Santiago-Pacífico,21.916944,-102.427778,RI,R. Morcinique,Libre,1934,1890.2,1.47,1890,18.816,1888.88,15.997,25,1885.46,9.149,0.571919734950303
2066754,2022-12-01,NGRAG,"El Niágara, Ags.","El Niágara, Ags.",Aguascalientes,Aguascalientes,Lerma-Santiago-Pacífico,21.78,-102.371667,RI,R. Aguascalientes,Libre,1963,1833,0.599976,1832.40002441406,31.6949996948242,1828.40002441406,16.1879997253418,31.5,1828.42,16.246,1.00358291794183
2066755,2022-12-01,CRTJL,"El Cuarenta, Jal.","El Cuarenta, Jal.",Jalisco,Lagos de Moreno,Lerma-Santiago-Pacífico,21.497778,-101.7375,RI,A. Azul,Libre,1949,2004,2.05005,2001.94995117188,38.9599990844727,1998.75,30.625,42,1996.06,23.944,0.781844897959184
2066782,2022-12-01,LDACM,"Laguna de Amela, Col.","Tecomán, Col.",Colima,Tecomán,Lerma-Santiago-Pacífico,18.809167,-103.774167,RI,Canal Bajo Amela y Dren Zanja,Libre,,10.89,3.25,7.64,41.3,7.39,38.343,6.35,7.36,37.989,0.990767545575463
2066783,2022-12-01,TRJCM,"Solidaridad, Jal.","Trojes, Jal.",Jalisco,Pihuamo,Lerma-Santiago-Pacífico,18.967222,-103.396667,RI,R. El Cajón,Libre,1994,303.6,0,301.11,285.742,292.37,203.388,87,292.27,202.566,0.995958463626173
2066784,2022-12-01,CPEJL,"Cajón de Peña, Jal.","Tomatlán, Jal.",Jalisco,Tomatlán,Lerma-Santiago-Pacífico,19.9975,-105.129722,RI,R. Tomatlán,Contr,1976,142,2.8,139.2,707.62,130.37,466.69,68,132.76,528.276,1.13196340182991
2066785,2022-12-01,VCVJL,"Vicente C. Villaseñor, Jal.","Valle de Juárez, Jal.",Jalisco,Valle de Juárez,Lerma-Santiago-Pacífico,19.939722,-102.941667,RI,R. Quitupan,Libre,1950,1880,2,1878,18.1200008392334,1877,14.4399995803833,18,1875.84,10.316,0.714404452893078
2066786,2022-12-01,LCDSO,"Lázaro Cárdenas, Son.","La Angostura, Son.",Sonora,Nacozari de García,Noroeste,30.437778,-109.378889,RI,R. Bavispe,Libre,1942,843.75,3.59998,840.150024414062,1116.4599609375,830.700012207031,703.380004882812,91.75,830.38,691.387,0.982949465723282
2066787,2022-12-01,PECSO,"Plutarco Elías Calles, Son.","El Novillo, Son.",Sonora,Soyopa,Noroeste,28.976667,-109.642222,GH,R. Yaqui,Contr,1964,297.8,1.00001,296.8,3511.96,290.5,2833.07,133.8,283.26,2146.61,0.75769748011874
2066788,2022-12-01,AOBSO,"Álvaro Obregón, Son.","Oviachic, Son.",Sonora,Cajeme,Noroeste,27.8225,-109.8925,AP/GH/RI,R. Yaqui,Libre,1952,115.1,2.9,112.2,4409.75,105.5,3023.15,90,95.69,1529.95,0.50607809734879206
2066789,2022-12-01,AGZCH,"Abraham González, Chih.","Guadalupe, Chih.",Chihuahua,Guerrero,Noroeste,28.481667,-107.482778,RI,R. Papigochi,Libre,1961,2052.9,1.59995,2051.30004882812,102.891,2047.80004882812,79.354,41.9,2047.58,77.953,0.982344935352975
2066790,2022-12-01,IRASO,"Ignacio R. Alatorre, Son.","Punta de Agua, Son.",Sonora,Guaymas,Noroeste,28.426389,-110.396944,RI,R. San Marcial o Mátape,Libre,1972,105,2.29,102.709999084473,29.6900005340576,100,16.1599998474121,30,98.52,10.694,0.6617574319911
2066791,2022-12-01,ARCSO,"Adolfo Ruiz Cortines, Son.","Mocúzari, Son.",Sonora,Álamos,Noroeste,27.226111,-109.106667,AP/GH/RI,R. Mayo,Mixto,,148,2.53,145.47,1822.141,138.46,1200,88.5,133.87,877.031,0.730859166666667
2066792,2022-12-01,CHTSO,"Cuauhtémoc, Son.","Santa Teresa, Son.",Sonora,Tubutama,Noroeste,30.873333,-111.516389,RI,R. Altar,Libre,1950,603,2.75,600.25,66.3300018310547,597,41.4700012207031,57.2,587.87,4.877,0.117603083106862
2066793,2022-12-01,AGCSO,"Agua Caliente, Son.",Dique 10,Sonora,Cajeme,Noroeste,27.75,-109.887778,RI,Canal Alto Oviachic,Libre,,100.85,0,79.6,41.16,79.1,37.58,8.35,78.95,36.492,0.971048430015966
2066794,2022-12-01,ARLSO,"Abelardo Rodríguez Luján, Son.","Hermosillo, Son.",Sonora,Hermosillo,Noroeste,29.076667,-110.92,AP,R. Sonora,Contr,1948,231.6,3.20001,228.399993896484,284.470001220703,226.98,219.52,36,219.28,27.627,0.125851858600583
2066795,2022-12-01,PMOSO,"Ing. Rodolfo Félix Valdés, Son.","El Molinito, Son.",Sonora,Hermosillo,Noroeste,29.2125,-110.725556,AP,R. Sonora,Libre,,295.4,2.00001,293.4,222.47,289.36,121.202,31.4,283.38,38.597,0.318451840728701
2066796,2022-12-01,CRRBN,"El Carrizo, B.C.","El Carrizo, B.C.",Baja California,Tijuana,Península de Baja California,32.479444,-116.696944,AP,A. Carrizo,Libre,1978,288.34,2.12,286.220001220703,44.5849990844727,284.700012207031,40.8660011291504,55.8,271.33,15.218,0.372387793753198
2066797,2022-12-01,ALRBN,"Abelardo L. Rodríguez, B.C.","Tijuana, B.C.",Baja California,Tijuana,Península de Baja California,32.444722,-116.908333,AP,R. Tijuana,Contr,1937,127,2,125,121.392,115.85,76.9,72,96.19,13.181,0.171404421326398
2066798,2022-12-01,AURBN,"Las Auras, B.C.",,Baja California,Tecate,Península de Baja California,32.544722,-116.531667,AP,A. Las Auras,Libre,,822,0,822,5.1,820,5.01,40,812.86,2.263,0.451696606786427
2066799,2022-12-01,ELZBN,"Emilio López Zamora, B.C.","Ensenada, B.C.",Baja California,Ensenada,Península de Baja California,31.890278,-116.6025,AP,A. Ensenada,Libre,1978,27,1.74,25.2600002288818,6.34200000762939,19.8899993896484,2.73200011253357,34,7.97,0.053,0.0193997063751397
2066800,2022-12-01,LDCSI,"Luis Donaldo Colosio, Sin.","Huites, Sin.",Sinaloa,Choix,Pacífico Norte,26.844722,-108.367778,GH,R. Fuerte,Contr,1995,290.75,0.75,290,4567.08,274,3202.16,164.75,261.27,2337.79,0.730066580058461
2066801,2022-12-01,PMHSI,"Miguel Hidalgo, Sin.","El Mahoné, Sin.",Sinaloa,El Fuerte,Pacífico Norte,26.509722,-108.58,AP/GH/RI,R. Fuerte,Mixto,1956,151.4,3.4,148,4171.273,142.36,3312.89,81,132.54,2058.26,0.62128836152121
2066802,2022-12-01,JORSI,"Josefa Ortiz de Domínguez, Sin.","El Sabino, Sin.",Sinaloa,El Fuerte,Pacífico Norte,26.426944,-108.7025,AP/RI,A. Alamos,Contr,1967,113.5,2.93,112.6500015,685.11,109.5,519.28,44,108.23,459.426,0.884736558311508
2066803,2022-12-01,GDOSI,"Gustavo Díaz Ordaz, Sin.","Bacurato, Sin.",Sinaloa,Sinaloa,Pacífico Norte,25.856667,-107.911111,AP/GH/RI,R. Sinaloa,Contr,1981,256,3.5,252.5,2687.074,237.06,1618.751,116,228.26,1140.2,0.704370221238473
2066804,2022-12-01,GBESI,"Ing. Guillermo Blake Águilar, Sin.","El Sabinal, Sin.",Sinaloa,Sinaloa,Pacífico Norte,26.103056,-108.3275,AP/RI,A. Ocoroni,Libre,1985,201.2,4.59,196.61,469.2,188.45,294.58,81.2,187.06,269.285,0.914131984520334
2066805,2022-12-01,EBLSI,"Lic. Eustaquio Buelna, Sin.","Guamúchil, Sin.",Sinaloa,Salvador Alvarado,Pacífico Norte,25.484722,-108.065556,AP/RI,R. Mocorito,Contr,1972,71.2,2.35,68.8499984741211,264.950012207031,63.54,80.08,41,62.57,60.865,0.760052447552448
2066806,2022-12-01,ALMSI,"Adolfo López Mateos, Sin.","El Humaya o El Varejonal, Sin.",Sinaloa,Badiraguato,Pacífico Norte,25.101389,-107.388333,AP/RI,R. Humaya,Libre,1964,186.5,3.02,183.479995727539,4034.52001953125,176,3086.61010742188,105.5,160.32,1555.06,0.503808367717321
2066807,2022-12-01,JGRSI,"Juan Guerrero Alcocer, Sin.","Vinoramas, Sin.",Sinaloa,Culiacán,Pacífico Norte,24.753611,-107.059444,RI,A. El Bledal,Libre,1994,178.3,2.02,176.2799988,102,168.5,54.684,50,158.46,18.037,0.329840538365884
2066808,2022-12-01,SNLSI,"Sanalona, Sin.","Sanalona, Sin.",Sinaloa,Culiacán,Pacífico Norte,24.815,-107.151389,AP/GH/RI,R. Tamazula,Libre,1948,165,2.83,162.17,987.522,156.2,687.988,81,153.04,556.7,0.809171090193434
2066677,2022-12-01,IVGSL,"Valentín Gama, S.L.P.","Ojo Caliente, S.L.P.",San Luis Potosí,Villa de Reyes,Cuencas Centrales del Norte,21.88,-100.820556,RI,R. Santa María,Libre,1970,1789.55,1.45002,1788.09997558594,22.3999996185303,1783.80004882812,9.51000022888184,24,1780.84,3.974,0.417875910026897
2066678,2022-12-01,ANGCP,"Doctor Belisario Domínguez, Chis.","La Angostura, Chis.",Chiapas,Acala,Frontera Sur,16.401389000000002,-92.778889,GH,R. Grijalva,Contr,1976,543,3.5,539.5,19736.4,533,13169.63,147,521.64,7163.81,0.543964409022881
2066679,2022-12-01,CHICP,"Manuel Moreno Torres, Chis.","Chicoasén, Chis.",Chiapas,Osumacinta,Frontera Sur,16.941667,-93.100556,GH,R. Grijalva,Contr,1980,405,7,395,1318.6,392.5,205.98,261,391.18,179.301,0.870477716283134
2066680,2022-12-01,MALCP,"Nezahualcóyotl, Chis.","Malpaso, Chis.",Chiapas,Mezcalapa,Frontera Sur,17.178611,-93.598889,GH,R. Grijalva o Mezcalapa,Contr,1964,192,4,188,14056.32,182.5,9317.39,138,176.75,7647.29,0.820754524603993
2066681,2022-12-01,JSBCP,"Juan Sabines, Chis.","El Portillo II o Cuxtepeques, Chis.",Chiapas,La Concordia,Frontera Sur,15.996389,-92.898611,RI,R. Cuxtepeques,Libre,1981,620.25,1.97998,618.27001953125,116.110000610352,612.119995117188,68.1500015258789,46,612.38,69.84,1.02479821623305
2066682,2022-12-01,PENCP,"Ángel Albino Corzo, Chis.","Peñitas, Chis.",Chiapas,Ostuacán,Frontera Sur,17.446111,-93.458611,GH,R. Grijalva,Contr,1986,98,5,95.5,578.63,87.4,215.041,58,85.42,169.811,0.789668016796797
2066683,2022-12-01,NNEPB,"Necaxa, Pue.","Necaxa, Pue.",Puebla,Juan Galindo,Golfo Centro,20.216667,-98.000556,GH,R. Necaxa,Libre,1908,1344,1,1343,39.283,1338,29.055,59,1334.19,22.138,0.761934262605404
2066684,2022-12-01,TENPB,"Tenango, Pue.","Tenango, Pue.",Puebla,Huauchinango,Golfo Centro,20.199444,-97.983333,GH,R. Coacuila,Libre,1912,1353,2,1351.4,46.576,1345.6,28.479,39,1343.2,22.231,0.780610274237157
2066685,2022-12-01,NEXPB,"Nexapa, Pue.","Nexapa, Pue.",Puebla,Tlaola,Golfo Centro,20.168333,-97.984722,GH,R. Nexapa,Libre,1912,1364,1,1362.35,15.313,1360,12.5,44,1360.43,13.096,1.04768
2066686,2022-12-01,LLAHD,"La Laguna, Hgo.","Tejocotal, Pue.",Hidalgo,Acaxochitlán,Golfo Centro,20.135556,-98.128333,RI,A. Huitzilin,Libre,1903,2185,1,2184.5,49.227,2183,40.638,19,2176.36,9.126,0.224568138195777
2066687,2022-12-01,LREHD,"Los Reyes, Hgo.","Omiltepec, Pue.",Hidalgo,Acaxochitlán,Golfo Centro,20.174722,-98.131944,RI,R. Omiltepec,Libre,1913,2168.5,1.5,2167,29.263,2165,24.031,30,2157.18,7.278,0.302858807373809
2066688,2022-12-01,SOLPB,"La Soledad, Pue.","La Soledad, Pue.",Puebla,Tlatlauquitepec,Golfo Centro,19.960833,-97.446667,GH,R. Apulco y Xiucayucan,Contr,1962,806.5,1.5,805,14.98,804.5,13.9,91.5,800.85,7.5,0.539568345323741
2066689,2022-12-01,PEMVC,"El Moralillo, Ver.",Piedra Labrada,Veracruz de Ignacio de la Llav,Tepetzintla,Golfo Centro,21.184444,-97.814444,AP,Río Buenavista,Libre,,116,0,115.94,8.126,110.78,2.5,15.5,110.88,2.567,1.0268
2066690,2022-12-01,TEMOX,"Presidente Alemán, Oax.","Temascal, Oax.",Oaxaca,San Miguel Soyaltepec,Golfo Centro,18.232222,-96.412222,GH,R. Papaloapan,Contr,1955,74.79,3.5,68.5,9105.54,66.5,8119.09,76,61.67,5965.24,0.734717807044878
2066691,2022-12-01,CDOOX,"Miguel de la Madrid Hurtado, Oax.","Cerro de Oro, Oax.",Oaxaca,San Lucas Ojitlán,Golfo Centro,17.999167,-96.263611,CA,R. Papaloapan,Contr,1988,75.6,2.8,70.01,3547.16,64.86,2599.51,70,61.83,2111.94,0.812437728648861
2066692,2022-12-01,LDCVC,"Canseco, Ver.","Laguna de Catemaco, Ver.",Veracruz de Ignacio de la Llav,Catemaco,Golfo Centro,18.415833,-95.118333,GH,R. Grande,Contr,1960,334.5,1,333.5,552.7,332.7,493.02,7.2,332.2,456.22,0.925357997647154
2066693,2022-12-01,LCAVC,"La Cangrejera, Ver.","La Crangrejera, Ver.",Veracruz de Ignacio de la Llav,Coatzacoalcos,Golfo Centro,18.109444,-94.330833,AP,R. Teapa,Libre,1980,23.87,2.22,21.6499996185303,31.6000003814697,21.25,28.5370006561279,15.87,20.61,24.043,0.842520217514068
2066694,2022-12-01,PJMTP,"Pedro José Méndez, Tamps.","Pedro J. Méndez, Tamps.",Tamaulipas,Hidalgo,Golfo Norte,24.2475,-99.555833,RI,R. San Juan,Libre,1982,453,3.60001,449.399993896484,38.3600006103516,447.220001220703,31.2600002288818,55,439.94,13.798,0.441394750446985
2066695,2022-12-01,VGRTP,"Vicente Guerrero, Tamps.","Las Adjuntas, Tamps.",Tamaulipas,Padilla,Golfo Norte,23.959444,-98.666389,AP/RI,R. Soto La Marina,Contr,1967,148,4.12001,144.039993286133,5498.22998046875,140.44,3910.69,62,129.66,913.864,0.233683569907101
2066696,2022-12-01,RSPTP,"República Española, Tamps.","Real Viejo o El Sombrero, Tamps.",Tamaulipas,Aldama,Golfo Norte,23.259444,-97.991944,AP,A. San Pedro,Libre,1974,92,2.57,89.4300003051758,105.98999786377,83,54.7799987792969,30,75.73,10.789,0.196951446520979
2066698,2022-12-01,TIESL,"La Muñeca, S.L.P.","La Muñeca, S.L.P.",San Luis Potosí,Tierra Nueva,Golfo Norte,21.629444,-100.548333,AP,R. Jofre,Libre,1981,1843.75,2,1841.75,31,1837.699951,24.14,40.25,1833.7,15.768,0.653189726594863
2066699,2022-12-01,ZMPHD,"Ing. Fernando Hiriart Balderrama, Hgo.","Zimapán, Hgo.",Hidalgo,Zimapán,Golfo Norte,20.663333,-99.501111,GH,R. Moctezuma,Contr,1990,1565,2,1563,1460,1560,1390,203,1535.13,955.4,0.687338129496403
2066700,2022-12-01,CHYVC,"Paso de Piedras, Ver.","Chicayán, Ver.",Veracruz de Ignacio de la Llav,Pánuco,Golfo Norte,21.7375,-98.155833,RI,R. Chicayán,Contr,1979,32.25,3.97,28.28,572.32,23.07,220,34,20.97,132.992,0.604509090909091
2066701,2022-12-01,ERCTP,"Estudiante Ramiro Caballero Dorantes, Tamps.","Las Ánimas, Tamps.",Tamaulipas,González,Golfo Norte,22.605,-98.691667,AP/RI,A. Las Ánimas,Libre,1976,55,2.45,52.55,654.37,51.7,563.443,31.2,50.08,411.028,0.729493489137322
2066702,2022-12-01,SLZTP,"Lic. Emilio Portes Gil, Tamps.","San Lorenzo, Tamps.",Tamaulipas,Xicoténcatl,Golfo Norte,22.943889,-98.791389,AP/RI,A. El Sargento,Libre,1983,125,1.1,123.9000015,255.65,122.9499969,230.78,50.4,116.04,110.316,0.478013692694341
2066703,2022-12-01,IDFQT,"San Ildefonso, Qro.","El Tepozán, Qro.",Querétaro,Amealco de Bonfil,Golfo Norte,20.198611,-99.9625,RI,R. San Juan,Libre,1942,2261.93,1.87,2242.5,58.026,2239,47.812,62.7,2218.16,6.735,0.140864218187903
2066704,2022-12-01,CNSQT,"Constitución de 1917, Qro.","Hidalgo, Qro.",Querétaro,San Juan del Río,Golfo Norte,20.418611,-100.080278,RI,Dren Caracol,Contr,1969,1937,1.55005,1928.39,76.461,1927.06,66.08,35,1916,8.423,0.127466707021792
2066705,2022-12-01,VNTQT,"La Venta, Qro.","La Venta, Qro.",Querétaro,Pedro Escobedo,Golfo Norte,20.498611,-100.190556,RI,Dren Culebra,Libre,1907,1896,0.619946,1907.68005371094,3.77699995040894,1906.68005371094,2.47900009155273,4.3,1904,0,0
2066706,2022-12-01,LLAQT,"La Llave, Qro.","Divino Redentor, Qro.",Querétaro,San Juan del Río,Golfo Norte,20.461944,-99.994722,RI,Dren Culebra,Libre,1885,0,0.0500244,1891.09997558594,14.4139995574951,1890,9.3120002746582,5,1887.98,1.025,0.11007302080837
2066707,2022-12-01,CNTQT,"El Centenario, Qro.","El Centenario, Qro.",Querétaro,Tequisquiapan,Golfo Norte,20.513333,-99.897778,RI,R. San Juan,Mixto,1910,1898,0.51001,1882.5,14.178,1881.55,9.781,13,1878.25,1.968,0.201206420611389
2066708,2022-12-01,PNDMX,"Ñadó, Méx.","Ñadó, Méx.",Estado de México,Aculco,Aguas del Valle de México,20.038611,-99.864444,RI,R. Ñadó,Libre,1980,2477.5,2,2475.5,18.85,2474,16.7999992370605,52.5,2465.28,7.81,0.464880973492621
2066709,2022-12-01,HPNMX,"Huapango, Méx.","Huapango, Méx.",Estado de México,Timilpan,Aguas del Valle de México,20.046389,-99.696944,RI,R. Huapango,Libre,1765,2513,0.199951,2512.8,126.5,2512.65,121.3,14,2509.85,27.235,0.224525968672712
2066710,2022-12-01,PMNMX,"El Molino, Méx.","El Molino, Méx.",Estado de México,Aculco,Aguas del Valle de México,20.124167,-99.739722,RI,A. Zarco,Libre,1980,2491,0,2385.09,8.7,2384.4,7.7,12,2379.14,1.054,0.136883116883117
2066711,2022-12-01,PERHD,"La Esperanza, Hgo.","La Esperanza, Hgo.",Hidalgo,Cuautepec de Hinojosa,Golfo Norte,20.0575,-98.334722,RI,R. Santa María,Libre,1943,2210.6,0.999902,2209.60009765625,4.19999980926514,2207.69995117188,3.92000007629395,28.7,2207.31,3.746,0.955612226299126
2066712,2022-12-01,DNXMX,"Danxho, Méx.","Danxho, Méx.",Estado de México,Jilotepec,Aguas del Valle de México,19.884722,-99.559722,RI,R. Coscomate,Libre,1951,2455.6,0.470117,2455.13,32.67,2454,31.046,31,2450.62,17.652,0.56857566192102
2066713,2022-12-01,SBBMX,"José Antonio Alzate, Méx.","San Bernabé, Méx.",Estado de México,Temoaya,Lerma-Santiago-Pacífico,19.465833,-99.704722,RI,R. Lerma,Libre,1962,2567,1.58008,2566.919921875,52.5089988708496,2565.5,35.3120002746582,24,2561,7.043,0.199450610138742
2066714,2022-12-01,PIRMX,"Ignacio Ramírez, Méx.","La Gavia, Méx.",Estado de México,Almoloya de Juárez,Lerma-Santiago-Pacífico,19.461667,-99.775,RI,R. La Gavia,Libre,1965,2553.76,3.28002,2550.47998046875,36.2999992370605,2548.48,20.5,23.5,2548.45,20.295,0.99
2066715,2022-12-01,TPTMX,"San Andrés Tepetitlán, Méx.","Tepetitlán,Méx.",Estado de México,San Felipe del Progreso,Lerma-Santiago-Pacífico,19.660833,-99.961389,RI,R. San José,Libre,1964,2597.38,2.92004,2594.4599609375,81.0289993286133,2592.02001953125,59.9659996032715,35,2591,52.043,0.86787513498167
2066716,2022-12-01,TEPMC,"Tepuxtepec, Mich.","Tepuxtepec, Mich.",Michoacán de Ocampo,Contepec,Lerma-Santiago-Pacífico,20.000278,-100.229167,GH/RI,R. Lerma,Contr,1930,2352,2,2350,537.527,2348.11,449.97,47,2345.28,334.092,0.742476165077672
2066717,2022-12-01,SLSGJ,"Solís, Gto.","Solis, Gto.",Guanajuato,Acámbaro,Lerma-Santiago-Pacífico,20.055278,-100.669722,RI,R. Lerma,Contr,1949,1901.7,3,1898.7,1214.14,1892.54,800,56.7,1889.98,652.6,0.81575
2066718,2022-12-01,PFBMX,"Francisco José Trinidad Fabela, Méx.","Islas de las Aves o El Salto, Méx.",Estado de México,Atlacomulco,Lerma-Santiago-Pacífico,19.829167,-99.790278,RI,R. Del Salto,Libre,1945,2697.5,1.69995,2697.800049,12.32,2696.699951,9.93,19.15,2693.27,4.215,0.424471299093656
2066719,2022-12-01,LDYGJ,"Laguna de Yuriria, Gto.","Bordo de Tavamatacheo, Gto.",Guanajuato,Yuriria,Lerma-Santiago-Pacífico,20.286944,-101.073056,RI,R. Lerma,Contr,1550,0,0,1731.40002441406,325.195007324219,1730.92,278.79,10,1729.03,115.919,0.415793249399189
2066720,2022-12-01,TMUMC,"Tercer Mundo, Mich.","Chincua, Mich.",Michoacán de Ocampo,Senguio,Lerma-Santiago-Pacífico,19.766389,-100.299167,RI,R. Chincua,Libre,1972,2431.2,2.41992,2428.580078125,17.3320007324219,2427.580078125,14.9720001220703,32,2427.58,14.972,0.99999999184676
2066721,2022-12-01,COIMC,"Cointzio, Mich.","Cointzio, Mich.",Michoacán de Ocampo,Morelia,Lerma-Santiago-Pacífico,19.629722,-101.259167,AP/RI,R. Grande de Morelia,Contr,1939,1997,1.50005,2001.31994628906,79.2330017089844,1999.47,68.52,46,1997.56,58.524,0.854115586690018
2066722,2022-12-01,MLPMC,"Malpaís, Mich.","La Ciénega, Mich.",Michoacán de Ocampo,Queréndaro,Lerma-Santiago-Pacífico,19.829167,-100.873611,RI,R. Quérendaro,Mixto,1938,1830.96,1,1843.56,27.249,1842.530029,18.512,7,1842.59,18.997,1.02619922212619
2066723,2022-12-01,PRSGJ,"La Purísima, Gto.","La Purísima, Gto.",Guanajuato,Guanajuato,Lerma-Santiago-Pacífico,20.867222,-101.287778,RI,R. Guanajuato,Contr,,1863,0,1860.7,181.926,1853.47,110,43,1851.08,90.366,0.821509090909091
2066724,2022-12-01,SLDGJ,"La Soledad, Gto.","La Soledad, Gto.",Guanajuato,Guanajuato,Lerma-Santiago-Pacífico,21.04,-101.279722,AP,R. Santa Ana,Libre,1956,2211.4,2.2501,2209.14990234375,2.37100005149841,2207.75,1.857,51,2205.42,1.11,0.597738287560582
2066725,2022-12-01,EPLGJ,"El Palote, Gto.","El Palote, Gto.",Guanajuato,León,Lerma-Santiago-Pacífico,21.173611,-101.678889,AP,R. De Los Gómez,Libre,1954,1839.5,0.9,1838.6,17.161,1836.15,9.643,20.5,1834.39,5.206,0.539873483355802
2066726,2022-12-01,GLNGJ,"La Golondrina, Gto.","La Golondrina,Gto.",Guanajuato,Pénjamo,Lerma-Santiago-Pacífico,20.439167,-101.7425,RI,R. Penjamo,Libre,1968,1838.7,1.58,1837.11999511719,5.96999979019165,1835.19995117188,4.67000007629395,45.7,1831.44,2.663,0.570235536722587
2066727,2022-12-01,MOCMC,"Melchor Ocampo, Mich.","El Rosario, Mich.",Michoacán de Ocampo,Angamacutiro,Lerma-Santiago-Pacífico,20.127222,-101.724444,RI,R. Angúlo,Libre,1975,1716.5,2.08997,1714.41003417969,249.843002319336,1711.90002441406,194.453994750977,34,1709.09,138.804,0.713814083263018
2066728,2022-12-01,AMEMC,"Aristeo Mercado, Mich.","Wilson ,Mich.",Michoacán de Ocampo,Jiménez,Lerma-Santiago-Pacífico,19.926111,-101.661111,RI,A. sin nombre,Libre,1926,1999.83,6.03,1993.8,28.305,1993.5,25.344,9.2,1992.38,15.492,0.611268939393939
2066729,2022-12-01,PTZMC,"Pátzcuaro, Mich.","Pátzcuaro, Mich.",Michoacán de Ocampo,Pátzcuaro,Lerma-Santiago-Pacífico,19.542778,-101.616944,RI,R. Jaripo,Libre,,,0,2042.35,1135.573,2038.57,646.582,,2035.47,338.241,0.523121583959962
2066730,2022-12-01,LANMC,"Los Ángeles, Mich.",Tres Mezquites,Michoacán de Ocampo,José Sixto Verduzco,Lerma-Santiago-Pacífico,20.248889,-101.626667,RI,C. El Alto Las Cañas,Libre,,1689.95,0,1688.45,17.096,1687.95,14.59,10,1684.81,1.931,0.132350925291295
2066756,2022-12-01,ESTJL,"El Estribón, Jal.","El Estribón, Jal.",Jalisco,Yahualica de González Gallo,Lerma-Santiago-Pacífico,21.185556,-102.900556,RI,A. Las Pilas,Libre,1946,1882.5,1.08997,1881.41003417969,7.73999977111816,1880,6.37799978256226,29,1878.15,5.048,0.791470707446787
2066757,2022-12-01,PMOZC,"Los Moraleños, Zac.",Moraleños,Zacatecas,Huanusco,Lerma-Santiago-Pacífico,21.723056,-102.897222,RI,Río Calvillo,Libre,,1324.75,0,1322.93,26.07,1318.96,20.932,47.05,1317.52,18.484,0.883049875788267
2066758,2022-12-01,PALZC,"Palomas, Zac.","Palomas, Zac.",Zacatecas,Villanueva,Lerma-Santiago-Pacífico,22.347222,-102.796667,RI,R. Palomas,Libre,1970,1908.34,0.86002,1907.47998046875,8.761,1904.25,4.62,28,1903.97,4.311,0.933116883116883
2066759,2022-12-01,TAYZC,"Ing. Julián Adame Alatorre, Zac.","Tayahua, Zac.",Zacatecas,Villanueva,Lerma-Santiago-Pacífico,22.120833,-102.859167,RI,R. Juchipila,Libre,1976,1701.7,0.289966,1701.41003417969,50.3769989013672,1696.01000976562,31.5979995727539,54.3,1694.62,27.702,0.876701068883066
2066760,2022-12-01,CHIZC,"El Chique, Zac.","El Chique, Zac.",Zacatecas,Tabasco,Lerma-Santiago-Pacífico,22,-102.889167,RI,R. Juchipila,Libre,1958,1588.48,2.00002,1586.47998046875,192.567001342773,1580.18005371094,138.908996582031,61,1576.26,110.154,0.792993993984758
2066761,2022-12-01,CDRAG,"La Codorniz, Ags.","La Codorniz, Ags.",Aguascalientes,Calvillo,Lerma-Santiago-Pacífico,21.9975,-102.676944,RI,R. De La Labor,Libre,1966,1840,2.23999,1837.76000976562,6.52799987792969,1836,5.36600017547607,36,1829.92,2.463,0.459001103141314
2066762,2022-12-01,MNLAG,"Media Luna, Ags.","Media Luna, Ags.",Aguascalientes,Calvillo,Lerma-Santiago-Pacífico,21.8075,-102.788333,RI,R. Calvillo,Libre,1976,1624.1,2.14004,1621.9599609375,21.1959991455078,1619.19995117188,15,40.6,1613.87,6.857,0.457133333333333
2066763,2022-12-01,CUQJL,"Cuquío, Jal.","Los Gigantes, Jal.",Jalisco,Cuquío,Lerma-Santiago-Pacífico,20.948056,-103.039444,RI,A. Achichilco,Libre,1967,1808.5,1.92004,1806.57995605469,8.85000038146973,1805.5,7.5,24,1802.7,4.325,0.576666666666667
2066764,2022-12-01,REDJL,"La Red, Jal.","La Red, Jal.",Jalisco,Acatic,Lerma-Santiago-Pacífico,20.718889,-102.815278,RI,R. Calderón,Libre,1968,1796.5,1.80005,1794.69995117188,18.2999992370605,1792.5,14.25,24,1792.33,13.92,0.976842105263158
2066765,2022-12-01,EGCJL,"Ing. Elías González Chávez, Jal.","Puente Calderón, Jal.",Jalisco,Zapotlanejo,Lerma-Santiago-Pacífico,20.681389,-102.976111,AP,R. Calderón,Libre,1991,1622,2,1620,100,1618,80,36,1617.44,74.848,0.9356
2066766,2022-12-01,AGMNR,"Aguamilpa Solidaridad, Nay.","Aguamilpa, Nay.",Nayarit,Tepic,Lerma-Santiago-Pacífico,21.839167,-104.802222,GH,R. Santiago,Contr,1993,235,3,232,6950,222,5785.16,187,203.75,3992.19,0.690074258966044
2066767,2022-12-01,CJNNR,"Leonardo Rodríguez Alcaine, Nay.","Leonardo Rodríguez Alcáine, Nay.",Nayarit,Santa María del Oro,Lerma-Santiago-Pacífico,21.428333,-104.450833,GH,R. Santiago,Contr,2006,394.5,0.5,394,2393.11,391,2282.13,186,376.42,1742.79,0.763668152121045
2066768,2022-12-01,RSRNR,"San Rafael, Nay.",San Rafael,Nayarit,Tepic,Lerma-Santiago-Pacífico,21.780833,-104.8875,RI/GH,Río Grande de Santiago,Contr,,67.85,0,66.1,35.591,63.41,26.179,51.85,62.34,22.896,0.874594140341495
2066769,2022-12-01,PLYJL,"Ing. Alfredo Elías Ayub, Jal.","La Yesca, Jal.",Nayarit,Hostotipaquillo,Lerma-Santiago-Pacífico,21.196944,-104.105833,GH,R. Santiago,Contr,2012,579,1,578,2392.88,575,2292.92,207,538.89,1317.57,0.574625368525723
2066770,2022-12-01,STEZC,"Independencia Nacional, Zac.",Santa Teresa,Zacatecas,Monte Escobedo,Lerma-Santiago-Pacífico,22.333056,-103.493333,RI,Arroyo Santa Teresa,Libre,,1951.6,0,1949.33,13.944,1946,9.172,31.6,1945.5,8.557,0.932948102921936
2066771,2022-12-01,LOBZC,"Manuel Felgueres, Zac.","Lobatos, Zac.",Zacatecas,Valparaíso,Lerma-Santiago-Pacífico,22.836667,-103.383333,RI,R. Cuevecillas,Libre,1980,2082.3,2.12007,2080.17993164062,9.4350004196167,2077.05004882812,6.90500020980835,35,2076.47,6.512,0.943084692560892
2066772,2022-12-01,BTEZC,"Ramón López Velarde, Zac.","Boca del Tesorero, Zac.",Zacatecas,Jerez,Lerma-Santiago-Pacífico,22.823611,-102.951667,RI,R. Jeréz,Libre,1975,2100.5,2.34009,2098.15991210938,36.7439994812012,2096,26.2199993133545,30,2093.55,16.818,0.64141878109944
2066773,2022-12-01,ACHZC,"Achimec, Jal.","Vaqueros, Jal.",Jalisco,Huejúcar,Lerma-Santiago-Pacífico,22.325833,-103.228611,RI,R. Huejúcar,Libre,1969,1846.3,2.02998,1844.27001953125,12.2119998931885,1841.5,7.36399984359741,28.5,1840.89,6.531,0.886882148113887
2066774,2022-12-01,TENJL,"Tenasco, Jal.","Boquilla de Zaragoza, Jal.",Jalisco,Santa María de los Ángeles,Lerma-Santiago-Pacífico,22.171944,-103.198611,RI,A. Tenasco,Libre,1960,1777,0,1724.83996582031,13.8500003814697,1722.84997558594,10.49,32,1721.11,8.313,0.792469018112488
2066775,2022-12-01,EXCZC,"Miguel Alemán, Zac.","Excamé, Zac.",Zacatecas,Tepechitlán,Lerma-Santiago-Pacífico,21.649444,-103.339722,RI,R. Tlaltenango,Contr,,1707,2.5,1704.5,70.92,1703.4,64.53,48,1699.31,43.656,0.676522547652255
2066776,2022-12-01,VILZC,"José María Morelos, Zac.","La Villita, Zac.",Zacatecas,Tepechitlán,Lerma-Santiago-Pacífico,21.604722,-103.337778,RI,A. San Pedro,Libre,1986,1833.2,2.01006,1831.18994140625,11.164999961853,1829,9.01799964904785,39.2,1826.8,7.233,0.802062572797248
2066777,2022-12-01,TCTJL,"Tacotán, Jal.","Tacotán, Jal.",Jalisco,Unión de Tula,Lerma-Santiago-Pacífico,20.036111,-104.320278,RI,R. Ayutla,Libre,1960,1407.5,1.20996,1406.2900390625,169,1403.06005859375,149.238998413086,68.5,1399.96,134.704,0.902605896798813
2066778,2022-12-01,BBAJL,"Basilio Vadillo, Jal.","Las Piedras, Jal.",Jalisco,El Limón,Lerma-Santiago-Pacífico,19.913611,-104.061111,RI,R. Tuxcacuesco,Libre,1973,982.8,2.7,978.97,146.888,974.35,124.75,96,974.36,124.81,1.00048096192385
2066779,2022-12-01,TMLJL,"Ramón Corona Madrigal General, Jal.","Trigomil, Jal.",Jalisco,Ayutla,Lerma-Santiago-Pacífico,19.976111,-104.370278,RI,R. Ayuquila,Libre,1993,1209.34,2.94001,1209.35998535156,324,1201.40002441406,250,107,1194.4,194.289,0.777156
2066780,2022-12-01,CRNJL,"Corrinchis, Jal.",Corrinchis,Jalisco,Mascota,Lerma-Santiago-Pacífico,20.479722,-104.780833,RI,Río Mascota,Libre,,1337,0,1336.1,29,1332.6,20,38,1332.55,19.833,0.99165
2066781,2022-12-01,VEGJL,"Ing. Santiago Camarena, Jal.","La Vega, Jal.",Jalisco,Teuchitlán,Lerma-Santiago-Pacífico,20.596389,-103.845833,RI,R. Ameca,Libre,1960,1261,2.14001,1258.85998535156,80,1257,44.0349998474121,18,1257.5,54.415,1.23572158938472
2066809,2022-12-01,JLPSI,"José López Portillo, Sin.","Comedero, Sin.",Sinaloa,Cosalá,Pacífico Norte,24.571667,-106.807222,AP/GH/RI,R. San Lorenzo,Contr,1981,290,4.54999,286.950012207031,3966.169921875,272.16,2580.19,136,254.42,1399.61,0.542444548657269
2066810,2022-12-01,CBRDR,"Caboraca, Dgo.","Canoas, Dgo.",Durango,Canatlán,Pacífico Norte,24.538333,-104.810278,RI,R. La Sauceda,Libre,1992,2003.75,2.46997,2001.28002929688,57.8800010681152,1998.25,45,37,1998.09,44.197,0.982155555555556
2066811,2022-12-01,PAGDR,"Peña del Águila, Dgo.","Peña Del Águila, Dgo.",Durango,Durango,Pacífico Norte,24.203889,-104.656667,RI,R. La Sauceda,Libre,1954,1896.8,1.52998,1895.27002,54.902,1892.5,27.948,25,1892.47,27.733,0.992307141834836
2066812,2022-12-01,GVCDR,"Presidente Guadalupe Victoria, Dgo.","El Tunal, Dgo.",Durango,Durango,Pacífico Norte,23.961111,-104.753056,RI,R. Tunal,Mixto,1962,1934.8,1.69,1934.61,94.617,1931,78.06,72.8,1931.3,79.389,1.01702536510377
2066813,2022-12-01,SBYDR,"Santiago Bayacora, Dgo.","Santiago Bayacora, Dgo.",Durango,Durango,Pacífico Norte,23.874444,-104.675833,RI,R. Santiago Bayacora,Libre,1990,1962,0.810059,1965.93994140625,169.869003295898,1959.01000976562,130.046997070312,66.75,1958.98,129.893,0.998815835245859
2066814,2022-12-01,FVLDR,"Francisco Villa, Dgo.","El Bosque, Dgo.",Durango,Poanas,Pacífico Norte,24.001667,-103.960833,RI,R. Poanas,Libre,1968,1998.7,2.57,1996.13000488281,96.5699996948242,1993,73.2600021362305,58.7,1992.84,72.203,0.985571906833078
2066815,2022-12-01,SLTSI,"Ing. Aurelio Benassini Vizcaíno, Sin.","El Salto o Elota, Sin.",Sinaloa,Elota,Pacífico Norte,24.121944,-106.695833,RI,R. Elota,Libre,1988,167.1,2.46,164.6399994,815.592,154.5,403.9,73,152.71,350.679,0.868232235701906
2066816,2022-12-01,SELDR,"Santa Elena, Dgo.","Santa Elena, Dgo.",Durango,Súchil,Pacífico Norte,23.623056,-104.054444,RI,R. Graseros,Libre,1977,2002.75,1.14001,2001.61,18.766,1999.8,15.08,30.75,1999.04,13.712,0.909283819628647
2066817,2022-12-01,RMEGR,"Revolución Mexicana, Gro.","El Guineo, Gro.",Guerrero,Ayutla de los Libres,Pacífico Sur,16.823611,-99.166111,RI,R. Nexpa,Libre,1984,110.7,3.11,107.5899963,259.502,94.40000153,126.694,70.7,94.76,129.532,1.02240042938103
2066818,2022-12-01,JDMOX,"Presidente Benito Juárez, Oax.","Bordo Benito Juárez, Oax.",Oaxaca,Santa María Jalapa del Marqués,Pacífico Sur,16.445556,-95.397778,RI,R. Tehuantepec,Libre,1961,138.4,2.64999,139.8500061,1726.747,124.25,720.317,85.5,124.72,742.584,1.03091277867939
2066819,2022-12-01,LBQCH,"La Boquilla, Chih.","Lago de Toronto, Chih.",Chihuahua,San Francisco de Conchos,Río Bravo,27.544722,-105.414167,GH/RI,R. Conchos,Libre,1916,1322,2.90002,1319.1,3209.63,1317,2846.78,82,1313.23,2247.609,0.789526763571474
2066820,2022-12-01,SGBDR,"San Gabriel, Dgo.","San Gabriel, Dgo.",Durango,Ocampo,Río Bravo,26.436667,-105.560833,RI,R. Florido,Libre,1991,1785.6,2.20999,1783.39001464844,377.338012695312,1777.90002441406,245.430999755859,48,1777.93,246.057,1.00255061603776
2066821,2022-12-01,PAGCH,"Pico del Águila, Chih.","Pico Del Águila, Chih.",Chihuahua,Coronado,Río Bravo,26.546389,-105.254167,RI,R. Florido,Libre,1993,1625.9,2.5,1619,59.843,1616.900024,48.276,42,1616.96,48.582,1.00633855331842
2066822,2022-12-01,FIMCH,"Las Vírgenes, Chih.","Francisco I. Madero, Chih.",Chihuahua,Rosales,Río Bravo,28.166111,-105.628889,RI,R. San Pedro,Libre,1949,1243.8,1.23994,1242.56005859375,456.461,1239.30004882812,333.315,57,1239.25,331.668,0.995058728230053
2066823,2022-12-01,LLNCH,"El Granero, Chih.","Ing. Luis L. León, Chih.",Chihuahua,Aldama,Río Bravo,28.984444,-105.28,RI,R. Conchos,Contr,1968,1053,2.5,1050.5,824.76181,1034.8,284.382,62,1035.08,290.794,1.02254713730124
2066824,2022-12-01,CHUCH,"Chihuahua, Chih.","Chihuahua, Chih.",Chihuahua,Chihuahua,Río Bravo,28.570556,-106.167778,AP,R. Chuviscar,Libre,1960,1546,1.71997,1544.28002929688,35.6310005187988,1540.81994628906,23.382999420166,58,1540.52,22.482,0.961467756810148
2066825,2022-12-01,ERECH,"El Rejón, Chih.","El Rejón, Chih.",Chihuahua,Chihuahua,Río Bravo,28.614722,-106.119444,AP,A. El Rejón,Libre,1966,1479.8,1.48005,1478.31994628906,7.75500011444092,1477,6.528,33,1476.76,6.326,0.96905637254902
2066827,2022-12-01,CILAAMSMX,"Internacional La Amistad, Coah.","La Amistad, Coah.",Coahuila de Zaragoza,Acuña,Río Bravo,29.446944,-101.057222,AP/RI,R. Bravo,Contr,1968,351.22,0,349.03,2707.437,340.46,1769.66,87.57,329.315,752.229,0.425069787416792
2066828,2022-12-01,CNTCL,"El Centenario, Coah.","El Centenario, Coah.",Coahuila de Zaragoza,Jiménez,Río Bravo,29.213611,-100.95,RI,R. San Diego,Libre,1935,338,1.62,336.380004882812,25.711,336.149993896484,24.5890007019043,17,335.55,21.826,0.887632655942366
2066829,2022-12-01,SMGCL,"San Miguel, Coah.","San Miguel, Coah.",Coahuila de Zaragoza,Jiménez,Río Bravo,29.034167,-100.953889,AP/RI,R. San Diego,Libre,1935,343.5,1.54001,341.959991455078,22.193000793457,341.739990234375,21.1679992675781,15,341.63,20.655,0.975765339884348
2066830,2022-12-01,LFGCL,"La Fragua, Coah.","La Fragua, Coah",Coahuila de Zaragoza,Jiménez,Río Bravo,28.82,-100.832222,RI,R. San Rodrigo,Libre,1993,306.68,2.00001,303.96,85.379997253418,300.299987792969,47.2949981689453,24.7,300.35,47.711,1.00879589485486
2066831,2022-12-01,CILAFLCMX,"Internacional Falcón, Tamps.","Falcón, Tamps.",Tamaulipas,Guerrero,Río Bravo,26.560278,-99.170556,AP/RI,R. Bravo,Contr,1953,98.45,0,93.482,1607.962,91.81,1351.63,50,79.51,317.677,0.23503251629514
2066832,2022-12-01,PSANL,"Salinillas, N.L.","Salinillas, N.L.",Nuevo León,Anáhuac,Río Bravo,27.429167,-100.372222,RI,R. Salado,Libre,1930,0,0,232,19.0109996795654,232,19.0109996795654,10,229.27,7.462,0.392509606321269
2066833,2022-12-01,VCRCL,"Venustiano Carranza, Coah.","Don Martín, Coah.",Coahuila de Zaragoza,Juárez,Río Bravo,27.515,-100.616111,AP/RI,R. Sabinas,Contr,1932,265.8,4.00001,261.799987792969,1322.372,259.24,874.1,38.86,254.87,351.76,0.402425351790413
2066834,2022-12-01,LBCNL,"Rodrigo Gómez, N.L.","La Boca, N.L.",Nuevo León,Santiago,Río Bravo,25.428056,-100.128056,AP,A. La Chueca - San Juan,Contr,1961,450.04,0.839988,449.2000122,42.657,448.54,39.49,34,445.59,26.708,0.676323119777159
2066835,2022-12-01,CCHNL,"Cuchillo Solidaridad, N.L.","El Cuchillo, N.L.",Nuevo León,China,Río Bravo,25.711667,-99.276944,AP/RI,R. San Juan,Contr,1994,169.2,3,166.660003662109,1784.292,162.35,1123.143,44,158.35,682.806,0.607942176552763
2066836,2022-12-01,MRGTP,"Marte Rodolfo Gómez, Tamps.","El Azúcar, Tamps.",Tamaulipas,Camargo,Río Bravo,26.204722,-98.925556,RI,R. San Juan,Libre,1946,86,3,83,2208.663,76.3,781.7,49,73.4,433.411,0.554446718690034
2066837,2022-12-01,LBLTP,"Derivadora Las Blancas, Tamps.","Las Blancas, Tamps.",Tamaulipas,Mier,Río Bravo,26.408889,-99.233611,RI,R. Sombreretillo,Libre,2000,93.3,1.5,91.80000305,133.43206,89.91999817,83.784,32.38,85.01,23.862,0.284803781151532
2066838,2022-12-01,TNTCH,"El Tintero, Chih.","El Tintero, Chih.",Chihuahua,Buenaventura,Río Bravo,29.5625,-107.384167,RI,R. Santa María,Libre,1950,1712,2.96997,1709.03002929688,216.703002929688,1703,125.074996948242,56,1699.41,85.004,0.67962424204716
2066839,2022-12-01,LJSCH,"Las Lajas, Chih.","Las Lajas, Chih.",Chihuahua,Buenaventura,Río Bravo,29.88,-107.025833,RI,R. El Carmen o Santa Clara,Libre,1964,1563.8,2.18,1561.61999511719,106.546997070312,1558.69995117188,83.265998840332,47,1558.64,82.83,0.994763782979796
2066840,2022-12-01,CPRNL,"José López Portillo, N.L.","Cerro Prieto, N.L.",Nuevo León,Linares,Río Bravo,24.9375,-99.399722,AP,A. Pablillo - Hualauises,Contr,1984,288,2.5,285.5,393,282.52,300,50,269.19,57.9,0.193
2066841,2022-12-01,TMPTP,"Tampico, Tamps.",Sistema lagunario Chairel,Tamaulipas,Tampico,Golfo Norte,22.238333,-97.876111,,L. El Chairel,Libre,,,0,1.4,854,1,676,,0.98,668,0.988165680473373
2066633,2022-12-01,CNPMX,"La Concepción, Méx.","La Concepción, Méx.",Estado de México,Tepotzotlán,Aguas del Valle de México,19.695,-99.304444,RI,R. Tepotzotlán,Libre,1949,2355.64,3.09996,2352.540039,12.599,2352.100098,12.111,39,2348.78,8.959,0.739740731566345
2066634,2022-12-01,PMDMX,"Madín, Méx.","Madín, Méx.",Estado de México,Naucalpan de Juárez,Aguas del Valle de México,19.526944,-99.260833,AP,R. Tlanepantla,Contr,1959,2348.5,2.46,2346.04,17.964,2336.29,9.37,75,2334.93,8.452,0.902027748132337
2066635,2022-12-01,PRGHD,"Javier Rojo Gómez, Hgo.","La Peña, Hgo.",Hidalgo,Alfajayucan,Aguas del Valle de México,20.359722,-99.329444,RI,R. Alfajayucan,Contr,1979,1980.96,1.3,1977.839,43.317,1976.84,39.99,60,1976.65,39.413,0.985571392848212
2066636,2022-12-01,TXMHD,"Taxhimay, Méx.","Taxhimay, Méx.",Estado de México,Villa del Carbón,Aguas del Valle de México,19.834722,-99.385278,RI,R. San Luis de las P,Libre,1912,2217.05,7.05,2216.1,47.386,2214.1,39.914,43,2207.93,19.386,0.485694242621636
2066637,2022-12-01,PRQHD,"Requena, Hgo.","Requena, Hgo.",Hidalgo,Tula de Allende,Aguas del Valle de México,19.963056,-99.310833,RI,R. Tula,Mixto,,2116.59,1.5,2110.3,61.519,2109,51.56,38,2101.12,8.755,0.169802172226532
2066638,2022-12-01,ENDHD,"Endhó, Hgo.","Endhó, Hgo.",Hidalgo,Tepetitlán,Aguas del Valle de México,20.163889,-99.36,RI,R. Tula,Libre,1951,2023,3,2020,208.65,2018,182.9,60,2017.44,176.194,0.963335155822854
2066639,2022-12-01,PVAHD,"Vicente Aguirre, Hgo.","Las Golondrinas, Hgo.",Hidalgo,Alfajayucan,Aguas del Valle de México,20.435556,-99.375833,RI,R. Alfajayucan,Libre,1954,1865.9,7.4,1855.5,19.685,1854.9,17.799,27,1851.85,9.813,0.551323108039778
2066640,2022-12-01,SJATL,"San José Atlanga, Tlax.","Atlanga,Tlax.",Tlaxcala,Atlangatepec,Balsas,19.556111,-98.200556,RI,R. Zahuapán,Libre,1959,2500,2.32988,2486.8701171875,47.97,2486.39990234375,42.63,24.2,2485.29,31.57,0.74055829228243
2066641,2022-12-01,BDDPB,"Manuel Ávila Camacho, Pue.","Valsequillo o Balcón del Diablo, Pue.",Puebla,Puebla,Balsas,18.9125,-98.108611,RI,R. Atoyac,Libre,1946,2064,2,2062,391.489,2059.02,300.654,85,2055.2,206.99,0.688465811198255
2066642,2022-12-01,YOSOX,"Yosocuta, Oax.",San Marcos Arteaga,Oaxaca,San Marcos Arteaga,Balsas,17.724444,-97.826111,RI/AP,Río Huajuapan,Libre,,1513.7,0,1512.55,57.26,1509.7,47.226,53.7,1509.69,47.196,0.999364756701817
2066643,2022-12-01,PUCMC,"Pucuato, Mich.","Pucuato, Mich.",Michoacán de Ocampo,Hidalgo,Balsas,19.621389,-100.684167,RI,A. Los Charcos,Libre,1946,2501.25,1.25,2500,11.534,2499,9.485,15,2499.01,9.501,1.0016868740116
2066644,2022-12-01,SABMC,"Sabaneta, Mich.","Sabaneta, Mich.",Michoacán de Ocampo,Hidalgo,Balsas,19.622778,-100.669444,RI,A. Los Charcos,Libre,1948,2494.9,2.05,2508.95,5.875,2508,5.043,17,2508.02,5.06,1.00337100931985
2066645,2022-12-01,AGOMC,"Agostitlán, Mich.","Mata de Pinos, Mich.",Michoacán de Ocampo,Hidalgo,Balsas,19.579722,-100.608889,RI,A. El Chaparro,Libre,1955,2379,1.16,2377.84,18.754,2376.6,15.675,25,2376.63,15.751,1.00484848484848
2066646,2022-12-01,DBOMC,"El Bosque, Mich.","El Bosque, Mich.",Michoacán de Ocampo,Zitácuaro,Balsas,19.387778,-100.421111,AP,R. San Juan,Libre,1954,1745,2,1743,220.1,1741.4,202.4,70,1738.57,172.5,0.852272727272727
2066647,2022-12-01,VBRMX,"Valle de Bravo, Méx.","Valle de Bravo, Méx.",Estado de México,Valle de Bravo,Balsas,19.2075,-100.18,AP,R. Valle de Bravo,Libre,1947,1835.37,2.5,1833,449.42,1830,394.39,56,1819.9,221.619,0.561928547884074
2066648,2022-12-01,VVCMX,"Villa Victoria, Méx.","Villa Victoria,Méx.",Estado de México,Villa Victoria,Balsas,19.461667,-100.055556,AP,R. San Juan Malacate,Libre,1944,2561.96,0,2607.5,249.943,2605.5,185.723,19,2601.89,92.267,0.496798996354786
2066649,2022-12-01,EGLGR,"El Gallo, Gro.","El Gallo, Gro.",Guerrero,Cutzamala de Pinzón,Balsas,18.703056,-100.671111,GH/RI,R. Cutzamala,Libre,1998,370.5,2.5,368,545.966003417969,362.779998779297,400.039001464844,67.5,362.72,398.56,0.99630285682289
2066650,2022-12-01,RODMR,"El Rodeo, Mor.","El Rodeo, Mor.",Morelos,Miacatlán,Balsas,18.765278,-99.331389,RI,R. Tembembe,Libre,1974,1166.5,2.30005,1166.5,33.1370010375977,1164.19995117188,26.9839992523193,8,1158.61,13.492,0.500000013854148
2066826,2022-12-01,PAZCH,"Piedras Azules, Chih.",,Chihuahua,Allende,Río Bravo,27.249167,-105.211111,RI,Río Parral,Libre,,2000,0,1998.42,13.194,1996.5,8.712,22,1996.5,8.71,0.999770431588614
2066697,2022-12-01,JLPQT,"Jalpan, Qro.",Jalpan,Querétaro,Jalpan de Serra,Golfo Norte,21.230278,-99.479722,RI/AP,Río Jalpan,Libre,,785,0,784.55,11.56,780.55,8.12,41,780.02,7.688,0.94679802955665
